{"routes":[{"code":"ĐN-100","region":"?","stops":[{"id":"1141","name":"Kho Trung Chuyển Đà Nẵng","lat":16.1310833,"lng":108.1189167},{"id":"20354000","name":null,"lat":null,"lng":null},{"id":"20273000","name":null,"lat":null,"lng":null},{"id":"20314000","name":null,"lat":null,"lng":null},{"id":"20288000","name":null,"lat":null,"lng":null},{"id":"20141000","name":"Bưu Cục 280 Lê Đại Hành-Q.Cẩm Lệ-Đà Nẵng","lat":16.021260928504,"lng":108.197465855506},{"id":"20339000","name":"Bưu Cục 106 Kỳ Đồng-Q.Thanh Khê-Đà Nẵng","lat":16.07025,"lng":108.18898},{"id":"20278000","name":"Bưu Cục Trường Sơn-Hòa Vang-Đà Nẵng","lat":16.00726,"lng":108.14923},{"id":"20202000","name":null,"lat":null,"lng":null},{"id":"20890000","name":"Bưu Cục 621 Điện Biên Phủ-Q.Thanh Khê-Đà Nẵng","lat":16.0645606,"lng":108.1824947},{"id":"20949000","name":"Bưu Cục 231 Võ An Ninh-Q.Cẩm Lệ-Đà Nẵng","lat":16.0037468,"lng":108.2214184},{"id":"20997000","name":"Bưu Cục 62 Bắc Sơn-Q.Cẩm Lệ-Đà Nẵng","lat":16.05639,"lng":108.17608},{"id":"21078000","name":"Bưu Cục 345C Ngô Quyền-Sơn Trà-Đà Nẵng","lat":16.0855618,"lng":108.2400572},{"id":"20288001","name":null,"lat":null,"lng":null}],"total":14,"plottable":8},{"code":"ĐN-200","region":"?","stops":[{"id":"1141","name":"Kho Trung Chuyển Đà Nẵng","lat":16.1310833,"lng":108.1189167},{"id":"20886000","name":null,"lat":null,"lng":null},{"id":"1432","name":"Bưu Cục 183 Trần Phú-Vĩnh Linh-Quảng Trị","lat":17.0664796,"lng":107.0132297},{"id":"20154000","name":null,"lat":null,"lng":null},{"id":"20782000","name":"Bưu Cục 18 Đường 3/2-Hải Lăng-Quảng Trị ","lat":16.688409,"lng":107.250067}],"total":5,"plottable":3},{"code":"ĐN-300","region":"?","stops":[{"id":"1141","name":"Kho Trung Chuyển Đà Nẵng","lat":16.1310833,"lng":108.1189167},{"id":"20739000","name":null,"lat":null,"lng":null},{"id":"20597000","name":"Bưu Cục 390 Phò Trạch-Phong Điền-Thừa Thiên Huế","lat":16.565158,"lng":107.385298},{"id":"20395000","name":null,"lat":null,"lng":null},{"id":"20128000","name":null,"lat":null,"lng":null},{"id":"20298000","name":null,"lat":null,"lng":null},{"id":"20787000","name":"Bưu Cục 955 Nguyễn Tất Thành-Hương Thủy-Thừa Thiên Huế","lat":16.4158959,"lng":107.6692454},{"id":"20616000","name":null,"lat":null,"lng":null},{"id":"21051000","name":"Bưu Cục Thôn Quảng Phú-A Lưới-Thừa Thiên Huế","lat":16.248335,"lng":107.255592}],"total":9,"plottable":4},{"code":"ĐN-400","region":"?","stops":[{"id":"1141","name":"Kho Trung Chuyển Đà Nẵng","lat":16.1310833,"lng":108.1189167},{"id":"20700000","name":"Bưu Cục 70 Đỗ Quang Thắng-Đức Phổ-Quảng Ngãi","lat":14.8131045,"lng":108.9587892},{"id":"20852000","name":null,"lat":null,"lng":null},{"id":"2458","name":"Bưu Cục Vận Hành Ba Tơ-Quảng Ngãi","lat":14.761894,"lng":108.73295},{"id":"20734000","name":"Bưu Cục 43 Nguyễn Nghiêm-Huyện Tư Nghĩa-Quảng Ngãi","lat":15.088213,"lng":108.826484},{"id":"20363000","name":null,"lat":null,"lng":null},{"id":"20362000","name":null,"lat":null,"lng":null},{"id":"20884000","name":"Bưu Cục 366 Hai Bà Trưng-Quảng Ngãi-Quảng Ngãi","lat":15.1298508,"lng":108.7911522},{"id":"20878000","name":"Bưu Cục 721 Võ Nguyên Giáp-Quảng Ngãi-Quảng Ngãi","lat":15.1512831,"lng":108.7837741},{"id":"2320","name":"Bưu Cục Vận Hành Đảo Lý Sơn-Quảng Ngãi","lat":15.375175,"lng":109.12677},{"id":"20740000","name":"Bưu Cục Xóm Trảng Bông-Bình Sơn-Quảng Ngãi","lat":15.33651,"lng":108.838188},{"id":"20741000","name":"Bưu Cục Châu Ổ-Bình Sơn-Quảng Ngãi","lat":15.313183,"lng":108.751319}],"total":12,"plottable":9},{"code":"ĐN-500","region":"?","stops":[{"id":"1141","name":"Kho Trung Chuyển Đà Nẵng","lat":16.1310833,"lng":108.1189167},{"id":"20333000","name":null,"lat":null,"lng":null},{"id":"20198000","name":null,"lat":null,"lng":null},{"id":"20185000","name":null,"lat":null,"lng":null},{"id":"1378","name":"Bưu Cục 274 Điện Biên Phủ-Duy Xuyên-Quảng Nam","lat":15.8374899,"lng":108.284701},{"id":"20321000","name":null,"lat":null,"lng":null},{"id":"20324000","name":"Bưu Cục 36 Lý Thái Tổ-Điện Bàn-Quảng Nam","lat":15.9040239,"lng":108.2414253},{"id":"20137000","name":"Bưu Cục 106 Quang Trung-Đại Lộc-Quảng Nam","lat":15.8867113,"lng":108.119545},{"id":"20805000","name":"Bưu cục 61 Tôn Đức Thắng-Tiên Phước-Quảng Nam","lat":15.4858097,"lng":108.3113313},{"id":"20810000","name":null,"lat":null,"lng":null},{"id":"20834000","name":null,"lat":null,"lng":null},{"id":"20892000","name":"Bưu Cục 63 Trần Thủ Độ-Điện Bàn-Quảng Nam","lat":15.9332837,"lng":108.2547814},{"id":"20959000","name":null,"lat":null,"lng":null},{"id":"21042000","name":"Bưu Cục 114 Nguyễn Văn Trỗi-TP Tam Kỳ-Quảng Nam","lat":15.5866065,"lng":108.4710431}],"total":14,"plottable":7},{"code":"ĐN-999","region":"?","stops":[{"id":"1141","name":"Kho Trung Chuyển Đà Nẵng","lat":16.1310833,"lng":108.1189167},{"id":"21089000","name":"Kho Giao Hàng Nặng - Liên Chiểu - Đà Nẵng","lat":16.086153,"lng":108.13946}],"total":2,"plottable":2},{"code":"Đlak-100","region":"?","stops":[{"id":"20368000","name":"Kho Trung Chuyển Đắk Lắk","lat":12.731042,"lng":108.080511},{"id":"20295000","name":"(DLA) Ea Wer","lat":12.807245,"lng":107.898751}],"total":2,"plottable":2},{"code":"Đlak-200","region":"?","stops":[{"id":"20368000","name":"Kho Trung Chuyển Đắk Lắk","lat":12.731042,"lng":108.080511},{"id":"21007000","name":null,"lat":null,"lng":null}],"total":2,"plottable":1},{"code":"Đlak-300","region":"?","stops":[{"id":"20368000","name":"Kho Trung Chuyển Đắk Lắk","lat":12.731042,"lng":108.080511},{"id":"20660000","name":"(DLA) Đắk Liêng","lat":12.40224,"lng":108.163458},{"id":"20402000","name":null,"lat":null,"lng":null},{"id":"20299000","name":"(DLA) Dray Bhăng","lat":12.56339,"lng":108.168602},{"id":"20299001","name":"(DLA) Dray Bhăng","lat":12.56339,"lng":108.168602},{"id":"20660001","name":"(DLA) Đắk Liêng","lat":12.40224,"lng":108.163458}],"total":6,"plottable":5},{"code":"Đlak-400","region":"?","stops":[{"id":"20368000","name":"Kho Trung Chuyển Đắk Lắk","lat":12.731042,"lng":108.080511},{"id":"20988000","name":"(DLA) Tân An","lat":12.701525,"lng":108.065011},{"id":"20250000","name":null,"lat":null,"lng":null},{"id":"20458000","name":"(DLA) Buôn Ma Thuột 2","lat":12.67423,"lng":108.029545},{"id":"20661000","name":null,"lat":null,"lng":null},{"id":"20847000","name":null,"lat":null,"lng":null},{"id":"20928000","name":"(DLA) Buôn Ma Thuột 1","lat":12.6957783,"lng":108.0487488},{"id":"20250001","name":null,"lat":null,"lng":null},{"id":"20928001","name":"(DLA) Buôn Ma Thuột 1","lat":12.6957783,"lng":108.0487488}],"total":9,"plottable":5},{"code":"Đlak-500","region":"?","stops":[{"id":"20368000","name":"Kho Trung Chuyển Đắk Lắk","lat":12.731042,"lng":108.080511},{"id":"20453000","name":null,"lat":null,"lng":null},{"id":"20566000","name":"(DLA) Ea Kar","lat":12.808412,"lng":108.451196},{"id":"20275000","name":"(DLA) Krông Pắc","lat":12.7102068,"lng":108.3109466},{"id":"20996000","name":null,"lat":null,"lng":null},{"id":"20566001","name":"(DLA) Ea Kar","lat":12.808412,"lng":108.451196},{"id":"20275001","name":"(DLA) Krông Pắc","lat":12.7102068,"lng":108.3109466}],"total":7,"plottable":5},{"code":"Đlak-600","region":"?","stops":[{"id":"20368000","name":"Kho Trung Chuyển Đắk Lắk","lat":12.731042,"lng":108.080511},{"id":"20274000","name":null,"lat":null,"lng":null},{"id":"20885000","name":null,"lat":null,"lng":null},{"id":"20231000","name":null,"lat":null,"lng":null},{"id":"20600000","name":"(DLA) Buôn Hồ","lat":12.921404,"lng":108.27179},{"id":"20231001","name":null,"lat":null,"lng":null}],"total":6,"plottable":2},{"code":"Đlak-800","region":"?","stops":[{"id":"20368000","name":"Kho Trung Chuyển Đắk Lắk","lat":12.731042,"lng":108.080511},{"id":"20673000","name":"(DNO) Cư Jút","lat":12.591587,"lng":107.896341},{"id":"20591000","name":"(DNO) Krông Nô","lat":12.466185,"lng":107.861969}],"total":3,"plottable":3},{"code":"Đlak-999","region":"?","stops":[{"id":"20368000","name":"Kho Trung Chuyển Đắk Lắk","lat":12.731042,"lng":108.080511},{"id":"21090000","name":"Kho Giao Hàng Nặng - Buôn Ma Thuột - Đắk Lắk","lat":12.747843,"lng":108.074122}],"total":2,"plottable":2},{"code":"Đnong-100","region":"?","stops":[{"id":"20797000","name":"Kho Chuyển Tiếp Đắk Nông","lat":11.9764974506354,"lng":107.6499925079284},{"id":"20592000","name":null,"lat":null,"lng":null},{"id":"20268000","name":null,"lat":null,"lng":null},{"id":"20912000","name":null,"lat":null,"lng":null},{"id":"20590000","name":"(DNO) Tuy Đức","lat":12.213371,"lng":107.465984},{"id":"20269000","name":"(DNO) Kiến Đức","lat":11.999575,"lng":107.527199},{"id":"20674000","name":null,"lat":null,"lng":null},{"id":"2309","name":"(DNO) Đức Lập","lat":12.4536119,"lng":107.6314262},{"id":"20267000","name":null,"lat":null,"lng":null},{"id":"20590001","name":"(DNO) Tuy Đức","lat":12.213371,"lng":107.465984},{"id":"20269001","name":"(DNO) Kiến Đức","lat":11.999575,"lng":107.527199},{"id":"20268002","name":null,"lat":null,"lng":null},{"id":"21117000","name":null,"lat":null,"lng":null}],"total":13,"plottable":6},{"code":"BĐ-100","region":"B","stops":[{"id":"20335000","name":"Kho Trung Chuyển Bình Định","lat":13.712944,"lng":109.172556},{"id":"1434","name":"(BDI) Hoài Nhơn Nam 2","lat":14.480658,"lng":109.03351},{"id":"20573000","name":"Điểm xử lý hàng Thôn Xuân Phong Nam-An Lão-Bình Định","lat":14.55455,"lng":108.9004447},{"id":"20016000","name":null,"lat":null,"lng":null},{"id":"2351","name":null,"lat":null,"lng":null},{"id":"2269","name":null,"lat":null,"lng":null},{"id":"20762000","name":null,"lat":null,"lng":null},{"id":"21127000","name":"(BDI) Bình Định","lat":13.885603,"lng":109.1046268}],"total":8,"plottable":4},{"code":"BĐ-200","region":"B","stops":[{"id":"20335000","name":"Kho Trung Chuyển Bình Định","lat":13.712944,"lng":109.172556},{"id":"20243000","name":null,"lat":null,"lng":null},{"id":"20385000","name":"(BDI) Quy Nhơn Bắc","lat":13.7954762,"lng":109.1779576},{"id":"20808000","name":"(BDI) Quy Nhơn","lat":13.78271,"lng":109.228254},{"id":"20173000","name":"(BDI) Quy Nhơn Nam","lat":13.762727,"lng":109.2009277}],"total":5,"plottable":4},{"code":"BĐ-300","region":"B","stops":[{"id":"20335000","name":"Kho Trung Chuyển Bình Định","lat":13.712944,"lng":109.172556},{"id":"20172000","name":"(BDI) Tây Sơn","lat":13.9103602,"lng":108.9131764}],"total":2,"plottable":2},{"code":"BĐ-400","region":"B","stops":[{"id":"20335000","name":"Kho Trung Chuyển Bình Định","lat":13.712944,"lng":109.172556},{"id":"20593000","name":null,"lat":null,"lng":null},{"id":"20678000","name":"(PYE) Đông Hòa","lat":12.9942545,"lng":109.3307962},{"id":"21121000","name":"(PYE) Sông Hinh","lat":12.984746,"lng":108.902645},{"id":"20218000","name":"(PYE) Tuy Hòa 3","lat":13.080185,"lng":109.298897},{"id":"20296000","name":"(PYE) Tuy Hòa 2","lat":13.096285,"lng":109.312201},{"id":"20303000","name":null,"lat":null,"lng":null},{"id":"20491000","name":null,"lat":null,"lng":null},{"id":"20594000","name":"(PYE) Đồng Xuân","lat":13.3760233,"lng":109.1022927},{"id":"21021000","name":"(PYE) Tuy Hòa 1","lat":13.076016,"lng":109.284317}],"total":10,"plottable":7},{"code":"BĐ-999","region":"B","stops":[{"id":"20335000","name":"Kho Trung Chuyển Bình Định","lat":13.712944,"lng":109.172556},{"id":"21087000","name":"Kho Giao Hàng Nặng - Quy Nhơn - Bình Định","lat":13.712944,"lng":109.172556}],"total":2,"plottable":2},{"code":"BP-100","region":"BP","stops":[{"id":"20970000","name":"Kho Chuyển Tiếp Bình Phước","lat":11.5378066,"lng":106.8860429},{"id":"20114000","name":"Bưu Cục 893 Quốc Lộ 14-Đồng Xoài-Bình Phước","lat":11.5302149,"lng":106.8771833},{"id":"1519","name":"Bưu Cục Chơn Thành-Bình Phước","lat":11.442112,"lng":106.659952},{"id":"20760000","name":null,"lat":null,"lng":null},{"id":"20494000","name":"Bưu Cục KP1 Quốc Lộ 13-Hớn Quản-Bình Phước","lat":11.568175,"lng":106.616933},{"id":"2506","name":null,"lat":null,"lng":null},{"id":"20256000","name":null,"lat":null,"lng":null},{"id":"20533000","name":null,"lat":null,"lng":null},{"id":"20637000","name":null,"lat":null,"lng":null},{"id":"20276000","name":"Bưu Cục 305 QL14-Bù Đăng-Bình Phước","lat":11.8115023,"lng":107.2376812},{"id":"2455","name":"Bưu Cục Xã 10-Bù Đăng-Bình Phước","lat":11.953694,"lng":107.182361},{"id":"20889000","name":null,"lat":null,"lng":null},{"id":"21047000","name":"Bưu Cục Bù Nho-Phú Riềng-Bình Phước","lat":11.740734,"lng":106.875522},{"id":"2505","name":null,"lat":null,"lng":null},{"id":"20497000","name":"Bưu Cục 24 Khu Phố Thanh Bình-Bù Đốp-Bình Phước","lat":11.9660944,"lng":106.798149}],"total":15,"plottable":8},{"code":"BT-100","region":"BT","stops":[{"id":"20745000","name":"Kho Chuyển Tiếp Bình Thuận","lat":10.955439,"lng":108.10091},{"id":"20687000","name":"(BTH) Hàm Tân","lat":10.826291,"lng":107.731873},{"id":"20516000","name":null,"lat":null,"lng":null},{"id":"2357","name":"(BTH) Đồng Kho","lat":11.1069444,"lng":107.7306148},{"id":"20366000","name":null,"lat":null,"lng":null},{"id":"20540000","name":null,"lat":null,"lng":null},{"id":"20144000","name":"(BTH) Mũi Né","lat":10.952493,"lng":108.2525145},{"id":"21067000","name":"(BTH) Tân Hải","lat":10.7198829,"lng":107.8652271}],"total":8,"plottable":5},{"code":"BT-200","region":"BT","stops":[{"id":"20745000","name":"Kho Chuyển Tiếp Bình Thuận","lat":10.955439,"lng":108.10091},{"id":"20691000","name":null,"lat":null,"lng":null},{"id":"20633000","name":"(BTH) Bắc Bình","lat":11.22079,"lng":108.508807},{"id":"20707000","name":null,"lat":null,"lng":null},{"id":"20456000","name":null,"lat":null,"lng":null}],"total":5,"plottable":2},{"code":"BT-300","region":"BT","stops":[{"id":"20745000","name":"Kho Chuyển Tiếp Bình Thuận","lat":10.955439,"lng":108.10091},{"id":"1194","name":null,"lat":null,"lng":null},{"id":"20717000","name":null,"lat":null,"lng":null},{"id":"20561000","name":null,"lat":null,"lng":null},{"id":"20361000","name":null,"lat":null,"lng":null},{"id":"21065000","name":"(BTH) Hàm Thuận Nam","lat":10.8537489,"lng":107.8935796}],"total":6,"plottable":2},{"code":"BT-400","region":"BT","stops":[{"id":"20745000","name":"Kho Chuyển Tiếp Bình Thuận","lat":10.955439,"lng":108.10091},{"id":"2311","name":null,"lat":null,"lng":null}],"total":2,"plottable":1},{"code":"BT-999","region":"BT","stops":[{"id":"20745000","name":"Kho Chuyển Tiếp Bình Thuận","lat":10.955439,"lng":108.10091},{"id":"21083000","name":null,"lat":null,"lng":null}],"total":2,"plottable":1},{"code":"CM-200","region":"CM","stops":[{"id":"20895000","name":"Kho Chuyển Tiếp Cà Mau","lat":9.1879426,"lng":105.1356035},{"id":"20263000","name":null,"lat":null,"lng":null},{"id":"20768000","name":null,"lat":null,"lng":null},{"id":"1503","name":null,"lat":null,"lng":null},{"id":"2431","name":"Bưu Cục 54 Hùng Vương-Năm Căn-Cà Mau","lat":8.757212,"lng":104.980232},{"id":"20753000","name":"Bưu Cục Nguyễn Trung Thành Khóm 1-U Minh-Cà Mau","lat":9.40168,"lng":104.975727},{"id":"20358000","name":"Bưu Cục 137 Đường 30/04-Trần Văn Thời-Cà Mau","lat":9.0766818,"lng":104.9714343},{"id":"20777000","name":"Bưu Cục 320/12 Ngô Quyền-Cà Mau-Cà Mau","lat":9.1871685,"lng":105.1365138},{"id":"20778000","name":null,"lat":null,"lng":null},{"id":"20263001","name":null,"lat":null,"lng":null},{"id":"21120000","name":null,"lat":null,"lng":null},{"id":"20358001","name":"Bưu Cục 137 Đường 30/04-Trần Văn Thời-Cà Mau","lat":9.0766818,"lng":104.9714343},{"id":"20911000","name":null,"lat":null,"lng":null}],"total":13,"plottable":6},{"code":"CT-100","region":"CT","stops":[{"id":"1908","name":"Kho Trung Chuyển Cần Thơ","lat":10.007535,"lng":105.796471},{"id":"21009000","name":null,"lat":null,"lng":null},{"id":"20983000","name":null,"lat":null,"lng":null},{"id":"20992000","name":"Bưu Cục 205 Nguyễn Trãi-Thị Xã Ngã Năm-Sóc Trăng","lat":9.563449,"lng":105.6027493},{"id":"20954000","name":"Bưu Cục 931 Đường 30/4-Long Mỹ-Hậu Giang","lat":9.6873041,"lng":105.5734333},{"id":"21100000","name":null,"lat":null,"lng":null},{"id":"20775000","name":null,"lat":null,"lng":null},{"id":"20562000","name":"Bưu Cục 28 Xuân Hồng-Bình Thuỷ-Cần Thơ","lat":10.0173251,"lng":105.7373679},{"id":"20360000","name":null,"lat":null,"lng":null}],"total":9,"plottable":4},{"code":"CT-110","region":"CT","stops":[{"id":"1908","name":"Kho Trung Chuyển Cần Thơ","lat":10.007535,"lng":105.796471},{"id":"1310","name":"(BVT) Côn Đảo","lat":8.6900103,"lng":106.5968871}],"total":2,"plottable":2},{"code":"CT-200","region":"CT","stops":[{"id":"1908","name":"Kho Trung Chuyển Cần Thơ","lat":10.007535,"lng":105.796471},{"id":"20229000","name":"Bưu Cục 64 Đường 30/04 Vĩnh Châu-Sóc Trăng","lat":9.333495,"lng":105.979427},{"id":"20599000","name":null,"lat":null,"lng":null},{"id":"20868000","name":null,"lat":null,"lng":null},{"id":"20816000","name":"Bưu Cục 06 Nguyễn Tri Phương-Vị Thuỷ-Hậu Giang","lat":9.7487219,"lng":105.5319216},{"id":"1170","name":"Bưu Cục Nguyễn An Ninh-Vị Thanh-Hậu Giang","lat":9.791423,"lng":105.467678},{"id":"20947000","name":null,"lat":null,"lng":null},{"id":"20645000","name":"Bưu Cục Ấp 1 QL61-Châu Thành A-Hậu Giang","lat":9.918567,"lng":105.713826}],"total":8,"plottable":5},{"code":"CT-300","region":"CT","stops":[{"id":"1908","name":"Kho Trung Chuyển Cần Thơ","lat":10.007535,"lng":105.796471},{"id":"20570000","name":null,"lat":null,"lng":null},{"id":"20493000","name":null,"lat":null,"lng":null},{"id":"20559000","name":null,"lat":null,"lng":null},{"id":"21023000","name":"Bưu Cục 356 Đặng Văn Dầy-Bình Thủy-Cần Thơ","lat":10.076318,"lng":105.741486},{"id":"1424","name":null,"lat":null,"lng":null},{"id":"20528000","name":"Bưu Cục Lô B2 TTTM Vĩnh Thạnh-Vĩnh Thạnh-Cần Thơ","lat":10.22977,"lng":105.396484},{"id":"20155000","name":null,"lat":null,"lng":null}],"total":8,"plottable":3},{"code":"CT-400","region":"CT","stops":[{"id":"1908","name":"Kho Trung Chuyển Cần Thơ","lat":10.007535,"lng":105.796471},{"id":"20799000","name":null,"lat":null,"lng":null},{"id":"20780000","name":null,"lat":null,"lng":null},{"id":"20520000","name":"Bưu Cục Thị Trấn Cây Dương-Phụng Hiệp-Hậu Giang","lat":9.7815522,"lng":105.7386734},{"id":"20162000","name":"Bưu Cục 2C Châu Văn Liêm-Ngã Bảy-Hậu Giang","lat":9.815063,"lng":105.820538},{"id":"20938000","name":"Bưu Cục 379 Hùng Vương-Châu Thành-Hậu Giang","lat":9.9245627,"lng":105.7984835}],"total":6,"plottable":4},{"code":"CT-444","region":"CT","stops":[{"id":"1908","name":"Kho Trung Chuyển Cần Thơ","lat":10.007535,"lng":105.796471},{"id":"20903000","name":null,"lat":null,"lng":null},{"id":"20736000","name":null,"lat":null,"lng":null},{"id":"20230000","name":null,"lat":null,"lng":null},{"id":"20630000","name":"Bưu Cục Thạnh An-An Minh-Kiên Giang","lat":9.688047,"lng":104.957739},{"id":"20255000","name":null,"lat":null,"lng":null},{"id":"20542000","name":null,"lat":null,"lng":null},{"id":"20076000","name":null,"lat":null,"lng":null},{"id":"20500000","name":null,"lat":null,"lng":null},{"id":"2528","name":"Bưu Cục 154B Mai Thị Hồng Hạnh-Rạch Giá-Kiên Giang","lat":9.945293,"lng":105.12754},{"id":"20902000","name":"Bưu Cục 02 Lâm Văn Quang-Hà Tiên-Kiên Giang","lat":10.381045,"lng":104.484423},{"id":"21011000","name":"Bưu Cục Thạnh Yên-U Minh Thượng-Kiên Giang","lat":9.666104,"lng":105.130299},{"id":"21012000","name":"Bưu Cục Vĩnh Phước QL63-Vĩnh Thuận-Kiên Giang","lat":9.517589,"lng":105.250022},{"id":"2434","name":"Bưu Cục Đảo Kiên Hải-Kiên Giang","lat":9.978412,"lng":105.100998}],"total":14,"plottable":7},{"code":"CT-500","region":"CT","stops":[{"id":"1908","name":"Kho Trung Chuyển Cần Thơ","lat":10.007535,"lng":105.796471},{"id":"20958000","name":null,"lat":null,"lng":null},{"id":"20300000","name":null,"lat":null,"lng":null},{"id":"20864000","name":null,"lat":null,"lng":null},{"id":"20181000","name":null,"lat":null,"lng":null},{"id":"20683000","name":"Bưu Cục Đường Huyện 21-Thới Lai-Cần Thơ","lat":10.060711,"lng":105.561648},{"id":"20186000","name":null,"lat":null,"lng":null}],"total":7,"plottable":2},{"code":"CT-555","region":"CT","stops":[{"id":"1908","name":"Kho Trung Chuyển Cần Thơ","lat":10.007535,"lng":105.796471},{"id":"20263000","name":null,"lat":null,"lng":null},{"id":"20768000","name":null,"lat":null,"lng":null},{"id":"1503","name":null,"lat":null,"lng":null},{"id":"2431","name":"Bưu Cục 54 Hùng Vương-Năm Căn-Cà Mau","lat":8.757212,"lng":104.980232},{"id":"20753000","name":"Bưu Cục Nguyễn Trung Thành Khóm 1-U Minh-Cà Mau","lat":9.40168,"lng":104.975727},{"id":"20358000","name":"Bưu Cục 137 Đường 30/04-Trần Văn Thời-Cà Mau","lat":9.0766818,"lng":104.9714343},{"id":"20777000","name":"Bưu Cục 320/12 Ngô Quyền-Cà Mau-Cà Mau","lat":9.1871685,"lng":105.1365138},{"id":"20778000","name":null,"lat":null,"lng":null},{"id":"20911000","name":null,"lat":null,"lng":null}],"total":10,"plottable":5},{"code":"CT-600","region":"CT","stops":[{"id":"1908","name":"Kho Trung Chuyển Cần Thơ","lat":10.007535,"lng":105.796471},{"id":"20007000","name":null,"lat":null,"lng":null},{"id":"20880000","name":"(VLO) Cái Nhum","lat":10.174742,"lng":106.110886},{"id":"20875000","name":"(VLO) Tam Bình","lat":10.056833,"lng":105.994722},{"id":"20461000","name":null,"lat":null,"lng":null},{"id":"20684000","name":null,"lat":null,"lng":null},{"id":"20994000","name":"Bưu Cục 162 Trần Văn Trà-Cái Răng-Cần Thơ","lat":10.018899,"lng":105.788034}],"total":7,"plottable":4},{"code":"CT-666","region":"CT","stops":[{"id":"1908","name":"Kho Trung Chuyển Cần Thơ","lat":10.007535,"lng":105.796471},{"id":"20861000","name":"(DTH) Tân Hồng","lat":10.872682,"lng":105.463198},{"id":"1933","name":"(DTH) An Bình","lat":10.7758664,"lng":105.3551587},{"id":"2498","name":"(DTH) Tràm Chim","lat":10.673553,"lng":105.550231},{"id":"20139000","name":"(DTH) Thanh Bình","lat":10.5569375,"lng":105.4921875},{"id":"1083","name":"(DTH) Cao Lãnh","lat":10.4568613,"lng":105.644726},{"id":"20984000","name":null,"lat":null,"lng":null},{"id":"20387000","name":null,"lat":null,"lng":null}],"total":8,"plottable":6},{"code":"CT-700","region":"CT","stops":[{"id":"1908","name":"Kho Trung Chuyển Cần Thơ","lat":10.007535,"lng":105.796471},{"id":"2410","name":"(TVI) Duyên Hải","lat":9.6468369,"lng":106.5007387},{"id":"20737000","name":null,"lat":null,"lng":null},{"id":"20923000","name":null,"lat":null,"lng":null},{"id":"20584000","name":null,"lat":null,"lng":null},{"id":"1197","name":null,"lat":null,"lng":null},{"id":"20731000","name":"(VLO) Tân Quới","lat":10.108488,"lng":105.74517},{"id":"20761000","name":null,"lat":null,"lng":null}],"total":8,"plottable":3},{"code":"CT-777","region":"CT","stops":[{"id":"1908","name":"Kho Trung Chuyển Cần Thơ","lat":10.007535,"lng":105.796471},{"id":"20908000","name":"(VLO) Long Châu","lat":10.252272,"lng":105.939313},{"id":"1082","name":null,"lat":null,"lng":null},{"id":"20898000","name":null,"lat":null,"lng":null},{"id":"2361","name":"Bưu Cục Tri Tôn-An Giang","lat":10.4378598,"lng":104.9961005},{"id":"2474","name":"Bưu Cục Thoại Sơn-An Giang","lat":10.2549404,"lng":105.260015}],"total":6,"plottable":4},{"code":"CT-800","region":"CT","stops":[{"id":"1908","name":"Kho Trung Chuyển Cần Thơ","lat":10.007535,"lng":105.796471},{"id":"1409","name":"Bưu Cục Tân Châu-An Giang","lat":10.795306,"lng":105.252056},{"id":"21017000","name":"Bưu Cục QL91-Châu Phú-An Giang","lat":10.587527,"lng":105.228744},{"id":"20517000","name":null,"lat":null,"lng":null},{"id":"21020000","name":null,"lat":null,"lng":null},{"id":"1084","name":"Bưu Cục 16 Đỗ Nhuận-Long Xuyên-An Giang","lat":10.3649124,"lng":105.44694}],"total":6,"plottable":4},{"code":"CT-900","region":"CT","stops":[{"id":"1908","name":"Kho Trung Chuyển Cần Thơ","lat":10.007535,"lng":105.796471},{"id":"20579000","name":null,"lat":null,"lng":null},{"id":"1410","name":null,"lat":null,"lng":null},{"id":"20012000","name":null,"lat":null,"lng":null},{"id":"20748000","name":"(TVI) Cầu Kè","lat":9.865531,"lng":106.065562},{"id":"20478000","name":"(VLO) Trà Ôn","lat":9.964779,"lng":105.925512}],"total":6,"plottable":3},{"code":"CT-999","region":"CT","stops":[{"id":"1908","name":"Kho Trung Chuyển Cần Thơ","lat":10.007535,"lng":105.796471},{"id":"21088000","name":"Kho Giao Hàng Nặng - Cái Răng - Cần Thơ","lat":10.008139,"lng":105.796985}],"total":2,"plottable":2},{"code":"Dnai-100","region":"Dnai","stops":[{"id":"20757000","name":"Kho Chuyển Tiếp Đồng Nai","lat":10.9259722,"lng":106.9171389},{"id":"20582000","name":null,"lat":null,"lng":null},{"id":"21044000","name":null,"lat":null,"lng":null},{"id":"20964000","name":"(BVT) Hòa Hiệp","lat":10.686002,"lng":107.49106},{"id":"1433","name":"(BVT) Hồ Tràm","lat":10.5247562,"lng":107.4007476},{"id":"20628000","name":"(BVT) Đất Đỏ","lat":10.493841,"lng":107.268217},{"id":"20604000","name":"(BVT) Kim Long","lat":10.691186,"lng":107.246582},{"id":"20293000","name":null,"lat":null,"lng":null},{"id":"20098000","name":null,"lat":null,"lng":null},{"id":"20569000","name":null,"lat":null,"lng":null},{"id":"1243","name":"Bưu Cục Long Khánh-Đồng Nai","lat":10.8918887,"lng":107.2177167},{"id":"20900000","name":"Bưu Cục 129 Khổng Tử-Long Khánh-Đồng Nai","lat":10.9361889,"lng":107.2456375}],"total":12,"plottable":7},{"code":"Dnai-200","region":"Dnai","stops":[{"id":"20757000","name":"Kho Chuyển Tiếp Đồng Nai","lat":10.9259722,"lng":106.9171389},{"id":"2454","name":null,"lat":null,"lng":null},{"id":"21054000","name":"Bưu Cục Agtex Long Bình-Biên Hoà-Đồng Nai","lat":10.9328357,"lng":106.8778512},{"id":"21005000","name":"Bưu Cục 1070 Quốc Lộ 51-TP. Biên Hòa-Đồng Nai","lat":10.8984243,"lng":106.8571227},{"id":"20763000","name":"Bưu Cục Đường Võ Nguyên Giáp-Biên Hòa-Đồng Nai","lat":10.904187,"lng":106.917402},{"id":"20788000","name":null,"lat":null,"lng":null},{"id":"20071000","name":"(BVT) Bà Rịa","lat":10.4948172,"lng":107.1750766},{"id":"20727000","name":null,"lat":null,"lng":null},{"id":"20270000","name":"Bưu Cục 322 Trần Phú-Xuân Lộc-Đồng Nai","lat":10.9255652,"lng":107.4058683},{"id":"20756000","name":"Bưu Cục Ấp Việt Kiều QL1A-Xuân Lộc-Đồng Nai","lat":10.90822382372222,"lng":107.3697435924998},{"id":"20894000","name":null,"lat":null,"lng":null},{"id":"21055000","name":"Bưu Cục 15 Đồng Khởi-Vĩnh Cửu-Đồng Nai","lat":11.0126093,"lng":106.8548418},{"id":"20922000","name":null,"lat":null,"lng":null},{"id":"2379","name":null,"lat":null,"lng":null}],"total":14,"plottable":8},{"code":"Dnai-300","region":"Dnai","stops":[{"id":"20757000","name":"Kho Chuyển Tiếp Đồng Nai","lat":10.9259722,"lng":106.9171389},{"id":"2429","name":"Bưu Cục Long Phước-Long Thành-Đồng Nai","lat":10.685206,"lng":107.0364163},{"id":"20821000","name":null,"lat":null,"lng":null},{"id":"1397","name":null,"lat":null,"lng":null},{"id":"20468000","name":"Bưu Cục Bình Sơn-Long Thành-Đồng Nai","lat":10.7917724,"lng":107.0207586},{"id":"2542","name":null,"lat":null,"lng":null},{"id":"21128000","name":"(BVT) Long Điền","lat":10.47772,"lng":107.220211},{"id":"20695000","name":"(BVT) Long Hải","lat":10.426445,"lng":107.221197},{"id":"20479000","name":"(BVT) Phước Thắng","lat":10.419124,"lng":107.149475},{"id":"1070","name":"(BVT) Rạch Dừa","lat":10.3745864,"lng":107.1008391},{"id":"20882000","name":null,"lat":null,"lng":null},{"id":"20034000","name":null,"lat":null,"lng":null},{"id":"20568000","name":null,"lat":null,"lng":null},{"id":"20454000","name":null,"lat":null,"lng":null}],"total":14,"plottable":7},{"code":"Dnai-400","region":"Dnai","stops":[{"id":"20757000","name":"Kho Chuyển Tiếp Đồng Nai","lat":10.9259722,"lng":106.9171389},{"id":"1445","name":"Bưu Cục Tân Phú-Đồng Nai","lat":11.259027,"lng":107.455536},{"id":"20774000","name":"Bưu Cục KP2 Tân Hiệp-Định Quán Đồng Nai","lat":11.202037,"lng":107.346727},{"id":"1398","name":"Bưu Cục Thống Nhất-Đồng Nai","lat":10.9453693,"lng":107.13537},{"id":"21129000","name":null,"lat":null,"lng":null},{"id":"2538","name":null,"lat":null,"lng":null},{"id":"20283000","name":"(BVT) Vũng Tàu 2","lat":10.37013,"lng":107.07888},{"id":"20696000","name":"(BVT) Tân Phước","lat":10.530511,"lng":107.079763},{"id":"20866000","name":"Bưu Cục 79A Hưng Đạo Vương-Biên Hòa-Đồng Nai","lat":10.9508554,"lng":106.8244285},{"id":"20136000","name":"Bưu Cục 105C Đồng Khởi-Biên Hòa-Đồng Nai","lat":10.9745989,"lng":106.8510147},{"id":"20472000","name":"Bưu Cục Tổ 4 KP7 767- Vĩnh Cửu-Đồng Nai","lat":11.0615692,"lng":107.0252301},{"id":"20473000","name":"Bưu Cục 68 Quốc Lộ 1A-Trảng Bom-Đồng Nai","lat":10.9553138,"lng":106.9673351},{"id":"1319","name":"Bưu Cục 110 Nguyễn Huệ-Trảng Bom-Đồng Nai","lat":10.954525,"lng":107.006647},{"id":"20986000","name":"Bưu Cục 608 Quốc Lộ 20-Định Quán-Đồng Nai","lat":11.0882102,"lng":107.188133},{"id":"21000000","name":null,"lat":null,"lng":null},{"id":"20618000","name":null,"lat":null,"lng":null}],"total":16,"plottable":12},{"code":"GL-100","region":"GL","stops":[{"id":"20334000","name":"Kho Trung Chuyển Gia Lai","lat":13.93669728245066,"lng":107.9912463682606},{"id":"20327000","name":"(GLA) Đak Đoa","lat":13.995906,"lng":108.115577},{"id":"20856000","name":"(GLA) Mang Yang 2","lat":14.036293,"lng":108.2520536},{"id":"20572000","name":"(GLA) An Khê","lat":13.950136,"lng":108.655641}],"total":4,"plottable":4},{"code":"GL-200","region":"GL","stops":[{"id":"20334000","name":"Kho Trung Chuyển Gia Lai","lat":13.93669728245066,"lng":107.9912463682606},{"id":"20200000","name":"(GLA) Thống Nhất","lat":14.01273531033766,"lng":107.9928856818537},{"id":"20245000","name":"(GLA) Pleiku","lat":13.98760694010786,"lng":108.022871195856},{"id":"20470000","name":"(GLA) Hội Phú","lat":13.9433557,"lng":108.0109317},{"id":"20941000","name":null,"lat":null,"lng":null},{"id":"20957000","name":"(GLA) Ia Grai","lat":13.960086,"lng":107.85672}],"total":6,"plottable":5},{"code":"GL-300","region":"GL","stops":[{"id":"20334000","name":"Kho Trung Chuyển Gia Lai","lat":13.93669728245066,"lng":107.9912463682606},{"id":"20341000","name":"(GLA) Đức Cơ","lat":13.806076,"lng":107.701065},{"id":"20998000","name":"(GLA) Chư Prông","lat":13.758255,"lng":107.886495}],"total":3,"plottable":3},{"code":"GL-400","region":"GL","stops":[{"id":"20334000","name":"Kho Trung Chuyển Gia Lai","lat":13.93669728245066,"lng":107.9912463682606},{"id":"20571000","name":"(GLA) Chư Pưh","lat":13.540641,"lng":108.102699},{"id":"20342000","name":"(GLA) Chư Sê","lat":13.689551,"lng":108.082649},{"id":"20551000","name":"(GLA) Phú Thiện","lat":13.527979,"lng":108.323563},{"id":"20698000","name":"(GLA) Ayun Pa","lat":13.4035996,"lng":108.4407839}],"total":5,"plottable":5},{"code":"GL-500","region":"GL","stops":[{"id":"20334000","name":"Kho Trung Chuyển Gia Lai","lat":13.93669728245066,"lng":107.9912463682606},{"id":"20375000","name":null,"lat":null,"lng":null},{"id":"20257000","name":"Bưu Cục 215 Hùng Vương-Đắk Hà-Kon Tum","lat":14.507,"lng":107.92304},{"id":"20394000","name":null,"lat":null,"lng":null},{"id":"20394001","name":null,"lat":null,"lng":null},{"id":"20328000","name":"(GLA) Chư Păh","lat":14.102216,"lng":107.973014},{"id":"20888000","name":"Bưu Cục Quốc lộ 24-Kon Rẫy-Kon Tum","lat":14.465056,"lng":108.17084},{"id":"21149000","name":"Bưu Cục 303 Đào Duy Từ-Thắng Lợi-Kon Tum","lat":14.3535981,"lng":108.020729},{"id":"20394001","name":null,"lat":null,"lng":null}],"total":9,"plottable":5},{"code":"GL-999","region":"GL","stops":[{"id":"20334000","name":"Kho Trung Chuyển Gia Lai","lat":13.93669728245066,"lng":107.9912463682606},{"id":"21091000","name":"Kho Giao Hàng Nặng - Pleiku - Gia Lai","lat":13.936775,"lng":107.990973}],"total":2,"plottable":2},{"code":"HCM01-100","region":"HCM","stops":[{"id":"1626","name":"Kho Trung Chuyển Hồ Chí Minh 01","lat":10.893424,"lng":106.525196},{"id":"2515","name":null,"lat":null,"lng":null},{"id":"20102000","name":"Bưu cục 58 Vũ Tông Phan-Q.2-HCM","lat":10.79734195904519,"lng":106.7418189408406},{"id":"1271","name":null,"lat":null,"lng":null},{"id":"1418","name":"Bưu Cục 119 Nguyễn Văn Luông-Q.6-HCM","lat":10.73829,"lng":106.63353},{"id":"1464","name":null,"lat":null,"lng":null},{"id":"20585000","name":"Bưu Cục 59 Trương Phước Phan-Q.Bình Tân-HCM","lat":10.77090174126136,"lng":106.6139394380444},{"id":"20750000","name":null,"lat":null,"lng":null},{"id":"20910000","name":null,"lat":null,"lng":null}],"total":9,"plottable":4},{"code":"HCM01-111","region":"HCM","stops":[{"id":"1626","name":"Kho Trung Chuyển Hồ Chí Minh 01","lat":10.893424,"lng":106.525196},{"id":"21122000","name":"Kho Giao Hàng Nặng - Hồ Chí Minh","lat":10.893424,"lng":106.525196}],"total":2,"plottable":2},{"code":"HCM01-200","region":"HCM","stops":[{"id":"1626","name":"Kho Trung Chuyển Hồ Chí Minh 01","lat":10.893424,"lng":106.525196},{"id":"1394","name":"Bưu Cục 29A Đường Số 5-Q.2-HCM","lat":10.7751905,"lng":106.770249},{"id":"20564000","name":null,"lat":null,"lng":null},{"id":"20477000","name":null,"lat":null,"lng":null},{"id":"2376","name":"Bưu Cục 2999 Phạm Thế Hiển-Q.8-HCM","lat":10.7168692,"lng":106.6324732},{"id":"20026000","name":"Bưu Cục 63 Ký Hòa-Q.5-HCM","lat":10.75432,"lng":106.66064},{"id":"20027000","name":"Bưu Cục 117 Hùng Vương-Q.5-HCM","lat":10.7617,"lng":106.67578},{"id":"20019000","name":null,"lat":null,"lng":null},{"id":"20378000","name":null,"lat":null,"lng":null},{"id":"20482000","name":null,"lat":null,"lng":null},{"id":"20197000","name":null,"lat":null,"lng":null}],"total":11,"plottable":5},{"code":"HCM01-300","region":"HCM","stops":[{"id":"1626","name":"Kho Trung Chuyển Hồ Chí Minh 01","lat":10.893424,"lng":106.525196},{"id":"20858000","name":null,"lat":null,"lng":null},{"id":"2514","name":null,"lat":null,"lng":null},{"id":"20481000","name":null,"lat":null,"lng":null},{"id":"1333","name":"Bưu Cục Tân Kiên-Bình Chánh-HCM","lat":10.7115,"lng":106.600723},{"id":"2487","name":null,"lat":null,"lng":null},{"id":"2441","name":"Bưu Cục 16A Lê Hồng Phong-Q.10-HCM","lat":10.77583,"lng":106.67049},{"id":"2443","name":null,"lat":null,"lng":null},{"id":"20037000","name":null,"lat":null,"lng":null},{"id":"20246000","name":null,"lat":null,"lng":null},{"id":"20526000","name":null,"lat":null,"lng":null},{"id":"20018000","name":null,"lat":null,"lng":null}],"total":12,"plottable":3},{"code":"HCM01-320","region":"HCM","stops":[{"id":"1626","name":"Kho Trung Chuyển Hồ Chí Minh 01","lat":10.893424,"lng":106.525196},{"id":"20965000","name":null,"lat":null,"lng":null},{"id":"20492000","name":"Bưu Cục 107 Nguyễn Chí Thanh-Tân Biên-Tây Ninh","lat":11.5437577,"lng":106.0127918},{"id":"20726000","name":null,"lat":null,"lng":null},{"id":"1514","name":"Bưu Cục 393 Tôn Đức Thắng-Hòa Thành-Tây Ninh","lat":11.265901,"lng":106.131211},{"id":"20537000","name":null,"lat":null,"lng":null},{"id":"20575000","name":"Bưu Cục Ấp 1 Đường Tân Châu-Tân Châu-Tây Ninh","lat":11.55291,"lng":106.25804},{"id":"20718000","name":null,"lat":null,"lng":null},{"id":"20920000","name":"Bưu Cục Ấp Tân Hòa-Tân Biên-Tây Ninh","lat":11.6008977,"lng":105.9882247},{"id":"20725000","name":"Bưu Cục 156 Quốc Lộ 22-Gò Dầu-Tây Ninh","lat":11.094973,"lng":106.2633077},{"id":"20134000","name":null,"lat":null,"lng":null},{"id":"20490000","name":null,"lat":null,"lng":null},{"id":"20319000","name":null,"lat":null,"lng":null},{"id":"20726001","name":null,"lat":null,"lng":null},{"id":"20319001","name":null,"lat":null,"lng":null}],"total":15,"plottable":6},{"code":"HCM01-321","region":"HCM","stops":[{"id":"1626","name":"Kho Trung Chuyển Hồ Chí Minh 01","lat":10.893424,"lng":106.525196},{"id":"20643000","name":"Bưu Cục Đường Ba Mươi Tháng Tư-Trảng Bàng-Tây Ninh","lat":11.0338103,"lng":106.3620091},{"id":"20961000","name":"Bưu Cục DT 786 Khu Phố 4-Bến Cầu-Tây Ninh","lat":11.1107548,"lng":106.1727425},{"id":"20583000","name":null,"lat":null,"lng":null}],"total":4,"plottable":3},{"code":"HCM01-400","region":"HCM","stops":[{"id":"1626","name":"Kho Trung Chuyển Hồ Chí Minh 01","lat":10.893424,"lng":106.525196},{"id":"2510","name":null,"lat":null,"lng":null},{"id":"20981000","name":null,"lat":null,"lng":null},{"id":"20556000","name":null,"lat":null,"lng":null},{"id":"20519000","name":"Bưu Cục 10 Đường số 8-Linh Xuân-Q.Thủ Đức-HCM","lat":10.881968,"lng":106.770494},{"id":"20642000","name":"Bưu Cục 16 Trần Nhật Duật-Q.1-HCM","lat":10.7934283,"lng":106.689539},{"id":"20747000","name":"Bưu Cục 195B Lý Chính Thắng-Q.3-HCM","lat":10.78058,"lng":106.68274},{"id":"2439","name":"Bưu Cục 04 Nhất Chi Mai-Q.Tân Bình-HCM","lat":10.8028396,"lng":106.639924},{"id":"2438","name":null,"lat":null,"lng":null},{"id":"20180000","name":null,"lat":null,"lng":null},{"id":"1703","name":null,"lat":null,"lng":null}],"total":11,"plottable":5},{"code":"HCM01-401","region":"HCM","stops":[{"id":"1626","name":"Kho Trung Chuyển Hồ Chí Minh 01","lat":10.893424,"lng":106.525196},{"id":"2278","name":"Bưu Cục Cần Đước-Long An","lat":10.5118799,"lng":106.6040482},{"id":"20157000","name":null,"lat":null,"lng":null},{"id":"20506000","name":null,"lat":null,"lng":null}],"total":4,"plottable":2},{"code":"HCM01-402","region":"HCM","stops":[{"id":"1626","name":"Kho Trung Chuyển Hồ Chí Minh 01","lat":10.893424,"lng":106.525196},{"id":"1182","name":"Bưu Cục 45/2b Quốc Lộ 62-Tân An-Long An 01","lat":10.541498,"lng":106.4062002},{"id":"20515000","name":null,"lat":null,"lng":null},{"id":"20715000","name":"Bưu Cục 59A Nguyễn Văn Tạo-Tân An-Long An ","lat":10.540515,"lng":106.398365}],"total":4,"plottable":3},{"code":"HCM01-403","region":"HCM","stops":[{"id":"1626","name":"Kho Trung Chuyển Hồ Chí Minh 01","lat":10.893424,"lng":106.525196},{"id":"2363","name":"Bưu Cục Khu Phố 2-Thạnh Hoá-Long An","lat":10.64078,"lng":106.181572},{"id":"2277","name":null,"lat":null,"lng":null},{"id":"20649000","name":null,"lat":null,"lng":null},{"id":"20621000","name":null,"lat":null,"lng":null}],"total":5,"plottable":2},{"code":"HCM01-404","region":"HCM","stops":[{"id":"1626","name":"Kho Trung Chuyển Hồ Chí Minh 01","lat":10.893424,"lng":106.525196},{"id":"20835000","name":null,"lat":null,"lng":null},{"id":"20163000","name":null,"lat":null,"lng":null},{"id":"20212000","name":null,"lat":null,"lng":null},{"id":"20529000","name":"Bưu Cục 108 Khu Phố 2-Đức Huệ-Long An","lat":10.8923729,"lng":106.3043427},{"id":"20836000","name":null,"lat":null,"lng":null},{"id":"20665000","name":"Bưu Cục 270 Phan Văn Mãng- Bến Lức-Long An","lat":10.62123,"lng":106.497656}],"total":7,"plottable":3},{"code":"HCM01-410","region":"HCM","stops":[{"id":"1626","name":"Kho Trung Chuyển Hồ Chí Minh 01","lat":10.893424,"lng":106.525196},{"id":"20260000","name":null,"lat":null,"lng":null},{"id":"1934","name":"(BTR) Mỏ Cày","lat":10.12045,"lng":106.338258},{"id":"1934","name":"(BTR) Mỏ Cày","lat":10.12045,"lng":106.338258}],"total":4,"plottable":3},{"code":"HCM01-411","region":"HCM","stops":[{"id":"1626","name":"Kho Trung Chuyển Hồ Chí Minh 01","lat":10.893424,"lng":106.525196},{"id":"20228000","name":null,"lat":null,"lng":null},{"id":"1180","name":null,"lat":null,"lng":null},{"id":"20153000","name":"(BTR) Giồng Trôm","lat":10.168789,"lng":106.495115}],"total":4,"plottable":2},{"code":"HCM01-420","region":"HCM","stops":[{"id":"1626","name":"Kho Trung Chuyển Hồ Chí Minh 01","lat":10.893424,"lng":106.525196},{"id":"1425","name":null,"lat":null,"lng":null},{"id":"1199","name":"(TGI) Đạo Thạnh","lat":10.3635225,"lng":106.3426538},{"id":"20795000","name":"(TGI) Mỹ Phong","lat":10.362118,"lng":106.384348},{"id":"20096000","name":null,"lat":null,"lng":null}],"total":5,"plottable":3},{"code":"HCM01-421","region":"HCM","stops":[{"id":"1626","name":"Kho Trung Chuyển Hồ Chí Minh 01","lat":10.893424,"lng":106.525196},{"id":"20798000","name":"(TGI) Cái Bè","lat":10.362964,"lng":105.996909},{"id":"20817000","name":null,"lat":null,"lng":null},{"id":"20966000","name":null,"lat":null,"lng":null},{"id":"20764000","name":null,"lat":null,"lng":null},{"id":"20776000","name":"(TGI) Hậu Mỹ","lat":10.502134,"lng":105.969113},{"id":"20227000","name":"(TGI) Tân Phước 1","lat":10.472133,"lng":106.196926},{"id":"20817001","name":null,"lat":null,"lng":null},{"id":"20227001","name":"(TGI) Tân Phước 1","lat":10.472133,"lng":106.196926}],"total":9,"plottable":5},{"code":"HCM01-422","region":"HCM","stops":[{"id":"1626","name":"Kho Trung Chuyển Hồ Chí Minh 01","lat":10.893424,"lng":106.525196},{"id":"20351000","name":null,"lat":null,"lng":null},{"id":"20349000","name":"(TGI) Đồng Sơn","lat":10.357446,"lng":106.576769}],"total":3,"plottable":2},{"code":"HCM01-500","region":"HCM","stops":[{"id":"1626","name":"Kho Trung Chuyển Hồ Chí Minh 01","lat":10.893424,"lng":106.525196},{"id":"20995000","name":null,"lat":null,"lng":null},{"id":"1334","name":null,"lat":null,"lng":null},{"id":"20770000","name":null,"lat":null,"lng":null},{"id":"2453","name":null,"lat":null,"lng":null},{"id":"20867000","name":null,"lat":null,"lng":null},{"id":"20105000","name":null,"lat":null,"lng":null},{"id":"1336","name":null,"lat":null,"lng":null},{"id":"21018000","name":"Bưu Cục 88/21 Phan Sào Nam-Q.Tân Bình-HCM","lat":10.7879094,"lng":106.6444315},{"id":"20052000","name":"Bưu Cục 295F Lý Thường Kiệt-Quận 11-HCM","lat":10.7762921,"lng":106.6562777},{"id":"20972000","name":"Bưu Cục 20/48A Bờ Bao Tân Thắng-Q.Tân Phú-HCM","lat":10.8070035,"lng":106.6203028},{"id":"20613000","name":null,"lat":null,"lng":null}],"total":12,"plottable":4},{"code":"HCM01-505","region":"HCM","stops":[{"id":"1626","name":"Kho Trung Chuyển Hồ Chí Minh 01","lat":10.893424,"lng":106.525196},{"id":"1330","name":null,"lat":null,"lng":null},{"id":"20474000","name":null,"lat":null,"lng":null},{"id":"20999000","name":"Bưu Cục 555 Nguyễn Văn Cừ-Phú Quốc-Kiên Giang","lat":10.053477,"lng":104.017251},{"id":"20877001","name":"Điểm xử lý hàng Thổ Châu-Phú Quốc-Kiên Giang","lat":10.2245,"lng":103.9688}],"total":5,"plottable":3},{"code":"HCM01-600","region":"HCM","stops":[{"id":"1626","name":"Kho Trung Chuyển Hồ Chí Minh 01","lat":10.893424,"lng":106.525196},{"id":"20518000","name":null,"lat":null,"lng":null},{"id":"1370","name":null,"lat":null,"lng":null},{"id":"20706001","name":null,"lat":null,"lng":null},{"id":"20565000","name":"Bưu Cục 63A Trần Đình Xu-Q.1-HCM","lat":10.76120374596973,"lng":106.6905808125565},{"id":"20887000","name":"Bưu Cục 274 Cô Bắc-Q.1-HCM","lat":10.76290294047148,"lng":106.6923163030037},{"id":"2425","name":null,"lat":null,"lng":null},{"id":"1479","name":"Bưu Cục 104 Lương Ngọc Quyến-Q.Bình Thạnh-HCM","lat":10.8245,"lng":106.701861},{"id":"20399000","name":null,"lat":null,"lng":null},{"id":"2489","name":"Bưu Cục 456 Nguyễn Kiệm-Q.Phú Nhuận-HCM","lat":10.802363,"lng":106.679308},{"id":"2508","name":null,"lat":null,"lng":null},{"id":"21066000","name":"Bưu Cục 106/3A Tây Lân-Hóc Môn-HCM","lat":10.844917,"lng":106.597354}],"total":12,"plottable":6},{"code":"HCM01-700","region":"HCM","stops":[{"id":"1626","name":"Kho Trung Chuyển Hồ Chí Minh 01","lat":10.893424,"lng":106.525196},{"id":"20073000","name":null,"lat":null,"lng":null},{"id":"20074000","name":null,"lat":null,"lng":null},{"id":"20697000","name":null,"lat":null,"lng":null},{"id":"20914000","name":"Bưu Cục 374 Xô Viết Nghệ Tĩnh-Q.Bình Thạnh-HCM","lat":10.8041623,"lng":106.7116354},{"id":"2517","name":null,"lat":null,"lng":null},{"id":"20576000","name":null,"lat":null,"lng":null},{"id":"2486","name":null,"lat":null,"lng":null},{"id":"20079000","name":null,"lat":null,"lng":null},{"id":"1341","name":null,"lat":null,"lng":null},{"id":"20944000","name":"Bưu Cục 309 Nguyễn Thị Ngâu-Hóc Môn-HCM","lat":10.8989692,"lng":106.6120458}],"total":11,"plottable":3},{"code":"HCM01-810","region":"HCM","stops":[{"id":"1626","name":"Kho Trung Chuyển Hồ Chí Minh 01","lat":10.893424,"lng":106.525196},{"id":"21001000","name":"Bưu Cục 20 Đường số 81-Q.7-HCM","lat":10.739959,"lng":106.707464},{"id":"20100000","name":null,"lat":null,"lng":null},{"id":"20132000","name":null,"lat":null,"lng":null},{"id":"20078000","name":"Bưu Cục 9 Hồng Bàng-Q.Bình Thạnh-HCM","lat":10.8025201,"lng":106.698029},{"id":"20963000","name":"Bưu Cục 27 Nguyễn Xí-Q.Bình Thạnh-HCM","lat":10.8109821,"lng":106.7114281},{"id":"20555000","name":"Bưu Cục 58 Trương Quốc Dung-Q.Phú Nhuận-HCM","lat":10.7965103,"lng":106.6724583},{"id":"2488","name":"Bưu Cục 480F Cao Thắng-Trường Sa-Q.3-HCM","lat":10.77567262774388,"lng":106.6704441591177},{"id":"1420","name":null,"lat":null,"lng":null},{"id":"2485","name":null,"lat":null,"lng":null},{"id":"20544000","name":null,"lat":null,"lng":null},{"id":"1267","name":null,"lat":null,"lng":null}],"total":12,"plottable":6},{"code":"HCM01-820","region":"HCM","stops":[{"id":"1626","name":"Kho Trung Chuyển Hồ Chí Minh 01","lat":10.893424,"lng":106.525196},{"id":"20075000","name":"Bưu Cục T30 Nguyễn Hữu Hào-Q.4-HCM","lat":10.75995,"lng":106.70209},{"id":"1337","name":"Bưu Cục 63 Vĩnh Hội-Q.4-HCM","lat":10.756358,"lng":106.703772},{"id":"20124000","name":"(HCM) CK Tân Hưng","lat":10.7469,"lng":106.70594},{"id":"20011000","name":null,"lat":null,"lng":null},{"id":"1338","name":null,"lat":null,"lng":null},{"id":"1416","name":null,"lat":null,"lng":null},{"id":"2533","name":"(HCM) CK Hạnh Thông","lat":10.8226266,"lng":106.6787629},{"id":"2451","name":"Bưu Cục 1130 Đông Hưng Thuận 05-Q.12-HCM","lat":10.8390821,"lng":106.621627},{"id":"20332000","name":null,"lat":null,"lng":null}],"total":10,"plottable":6},{"code":"HCM01-830","region":"HCM","stops":[{"id":"1626","name":"Kho Trung Chuyển Hồ Chí Minh 01","lat":10.893424,"lng":106.525196},{"id":"2534","name":"Bưu Cục 903B Tạ Quang Bửu-Q.8-HCM","lat":10.7343536,"lng":106.6623223},{"id":"20647000","name":null,"lat":null,"lng":null},{"id":"21099000","name":"Bưu Cục 02 Đường Số 28-Củ Chi-HCM","lat":10.95599013363826,"lng":106.5138397483286},{"id":"20685000","name":null,"lat":null,"lng":null},{"id":"1290","name":"Bưu Cục 242 Tỉnh Lộ 2-Củ Chi-HCM","lat":11.009473,"lng":106.47105},{"id":"2276","name":"Bưu Cục 1135 Phan Văn Trị-Q.Gò Vấp-HCM","lat":10.832417,"lng":106.673278},{"id":"1364","name":null,"lat":null,"lng":null},{"id":"20974000","name":null,"lat":null,"lng":null},{"id":"2452","name":"Bưu Cục 198 Thạnh Lộc 15-Q.12-HCM","lat":10.8694847,"lng":106.6924142},{"id":"20051000","name":null,"lat":null,"lng":null}],"total":11,"plottable":6},{"code":"HCM01-888","region":"HCM","stops":[{"id":"1626","name":"Kho Trung Chuyển Hồ Chí Minh 01","lat":10.893424,"lng":106.525196},{"id":"1327","name":"Key Account Warehouse Ho Chi Minh","lat":10.893424,"lng":106.525196},{"id":"20469003","name":null,"lat":null,"lng":null},{"id":"20469002","name":null,"lat":null,"lng":null},{"id":"20469001","name":null,"lat":null,"lng":null},{"id":"20469000","name":null,"lat":null,"lng":null}],"total":6,"plottable":2},{"code":"HCM01-910","region":"HCM","stops":[{"id":"1626","name":"Kho Trung Chuyển Hồ Chí Minh 01","lat":10.893424,"lng":106.525196},{"id":"20488000","name":"(BDU) Bắc Tân Uyên","lat":11.155679,"lng":106.843927},{"id":"1446","name":"(BDU) Phước Hòa","lat":11.2751,"lng":106.778815},{"id":"20689000","name":null,"lat":null,"lng":null},{"id":"20607000","name":null,"lat":null,"lng":null},{"id":"20831000","name":"(BDU) Dầu Tiếng","lat":11.28364,"lng":106.379382},{"id":"20512000","name":"(BDU) Bến Cát","lat":11.147391,"lng":106.611843},{"id":"1501","name":"(BDU) Bàu Bàng","lat":11.2418409,"lng":106.6328418},{"id":"2417","name":"(BDU) Bình Dương 2","lat":11.0240777,"lng":106.6788661},{"id":"20800000","name":"(BDU) Chánh Phú Hòa","lat":11.154946,"lng":106.671883}],"total":10,"plottable":8},{"code":"HCM01-920","region":"HCM","stops":[{"id":"1626","name":"Kho Trung Chuyển Hồ Chí Minh 01","lat":10.893424,"lng":106.525196},{"id":"20511000","name":"(BDU) Tân Hiệp 2","lat":11.064461,"lng":106.746061},{"id":"20987000","name":null,"lat":null,"lng":null},{"id":"20652000","name":"(BDU) Phú An","lat":11.0340591,"lng":106.6395288},{"id":"20802000","name":null,"lat":null,"lng":null},{"id":"20901000","name":null,"lat":null,"lng":null},{"id":"20127000","name":null,"lat":null,"lng":null},{"id":"20738000","name":null,"lat":null,"lng":null},{"id":"20722000","name":null,"lat":null,"lng":null},{"id":"20466000","name":null,"lat":null,"lng":null}],"total":10,"plottable":3},{"code":"HCM01-930","region":"HCM","stops":[{"id":"1626","name":"Kho Trung Chuyển Hồ Chí Minh 01","lat":10.893424,"lng":106.525196},{"id":"20899000","name":"(BDU) Thuận Giao","lat":10.966379,"lng":106.71415},{"id":"20117000","name":null,"lat":null,"lng":null},{"id":"20465000","name":null,"lat":null,"lng":null},{"id":"1065","name":null,"lat":null,"lng":null},{"id":"20536000","name":"(BDU) Bình Hòa","lat":10.907825,"lng":106.738217},{"id":"20489000","name":null,"lat":null,"lng":null},{"id":"20476000","name":null,"lat":null,"lng":null},{"id":"20891000","name":"(BDU) Thuận An","lat":10.951434,"lng":106.701014},{"id":"20294000","name":null,"lat":null,"lng":null},{"id":"20693000","name":null,"lat":null,"lng":null}],"total":11,"plottable":4},{"code":"HCM01-990","region":"HCM","stops":[{"id":"1626","name":"Kho Trung Chuyển Hồ Chí Minh 01","lat":10.893424,"lng":106.525196},{"id":"21098000","name":"Kho lấy B2B Concung","lat":10.89599141152491,"lng":106.7486153558192},{"id":"21092000","name":"Kho Giao Hàng Nặng - Đức Hòa - Long An","lat":10.893424,"lng":106.525196}],"total":3,"plottable":3},{"code":"HCM20-200","region":"HCM","stops":[{"id":"2388","name":null,"lat":null,"lng":null},{"id":"1394","name":"Bưu Cục 29A Đường Số 5-Q.2-HCM","lat":10.7751905,"lng":106.770249},{"id":"2487","name":null,"lat":null,"lng":null},{"id":"20706001","name":null,"lat":null,"lng":null},{"id":"2276","name":"Bưu Cục 1135 Phan Văn Trị-Q.Gò Vấp-HCM","lat":10.832417,"lng":106.673278},{"id":"2533","name":"(HCM) CK Hạnh Thông","lat":10.8226266,"lng":106.6787629},{"id":"20132000","name":null,"lat":null,"lng":null},{"id":"20100000","name":null,"lat":null,"lng":null},{"id":"20052000","name":"Bưu Cục 295F Lý Thường Kiệt-Quận 11-HCM","lat":10.7762921,"lng":106.6562777},{"id":"20576000","name":null,"lat":null,"lng":null},{"id":"20105000","name":null,"lat":null,"lng":null},{"id":"20867000","name":null,"lat":null,"lng":null},{"id":"2451","name":"Bưu Cục 1130 Đông Hưng Thuận 05-Q.12-HCM","lat":10.8390821,"lng":106.621627},{"id":"2508","name":null,"lat":null,"lng":null},{"id":"20526000","name":null,"lat":null,"lng":null},{"id":"20197000","name":null,"lat":null,"lng":null},{"id":"1271","name":null,"lat":null,"lng":null},{"id":"1370","name":null,"lat":null,"lng":null},{"id":"20974000","name":null,"lat":null,"lng":null},{"id":"1267","name":null,"lat":null,"lng":null},{"id":"20647000","name":null,"lat":null,"lng":null},{"id":"2438","name":null,"lat":null,"lng":null},{"id":"21018000","name":"Bưu Cục 88/21 Phan Sào Nam-Q.Tân Bình-HCM","lat":10.7879094,"lng":106.6444315},{"id":"20544000","name":null,"lat":null,"lng":null},{"id":"2518","name":null,"lat":null,"lng":null},{"id":"1341","name":null,"lat":null,"lng":null},{"id":"2453","name":null,"lat":null,"lng":null},{"id":"2376","name":"Bưu Cục 2999 Phạm Thế Hiển-Q.8-HCM","lat":10.7168692,"lng":106.6324732},{"id":"2534","name":"Bưu Cục 903B Tạ Quang Bửu-Q.8-HCM","lat":10.7343536,"lng":106.6623223},{"id":"21066000","name":"Bưu Cục 106/3A Tây Lân-Hóc Môn-HCM","lat":10.844917,"lng":106.597354},{"id":"21099000","name":"Bưu Cục 02 Đường Số 28-Củ Chi-HCM","lat":10.95599013363826,"lng":106.5138397483286},{"id":"1479","name":"Bưu Cục 104 Lương Ngọc Quyến-Q.Bình Thạnh-HCM","lat":10.8245,"lng":106.701861},{"id":"2425","name":null,"lat":null,"lng":null},{"id":"2488","name":"Bưu Cục 480F Cao Thắng-Trường Sa-Q.3-HCM","lat":10.77567262774388,"lng":106.6704441591177},{"id":"20747000","name":"Bưu Cục 195B Lý Chính Thắng-Q.3-HCM","lat":10.78058,"lng":106.68274},{"id":"20079000","name":null,"lat":null,"lng":null},{"id":"1364","name":null,"lat":null,"lng":null},{"id":"2439","name":"Bưu Cục 04 Nhất Chi Mai-Q.Tân Bình-HCM","lat":10.8028396,"lng":106.639924},{"id":"20332000","name":null,"lat":null,"lng":null},{"id":"20005000","name":null,"lat":null,"lng":null},{"id":"20378000","name":null,"lat":null,"lng":null},{"id":"1333","name":"Bưu Cục Tân Kiên-Bình Chánh-HCM","lat":10.7115,"lng":106.600723},{"id":"20963000","name":"Bưu Cục 27 Nguyễn Xí-Q.Bình Thạnh-HCM","lat":10.8109821,"lng":106.7114281},{"id":"20914000","name":"Bưu Cục 374 Xô Viết Nghệ Tĩnh-Q.Bình Thạnh-HCM","lat":10.8041623,"lng":106.7116354},{"id":"20642000","name":"Bưu Cục 16 Trần Nhật Duật-Q.1-HCM","lat":10.7934283,"lng":106.689539},{"id":"20697000","name":null,"lat":null,"lng":null},{"id":"21001000","name":"Bưu Cục 20 Đường số 81-Q.7-HCM","lat":10.739959,"lng":106.707464},{"id":"20124000","name":"(HCM) CK Tân Hưng","lat":10.7469,"lng":106.70594},{"id":"20011000","name":null,"lat":null,"lng":null},{"id":"20481000","name":null,"lat":null,"lng":null},{"id":"20585000","name":"Bưu Cục 59 Trương Phước Phan-Q.Bình Tân-HCM","lat":10.77090174126136,"lng":106.6139394380444},{"id":"1464","name":null,"lat":null,"lng":null},{"id":"20246000","name":null,"lat":null,"lng":null},{"id":"20565000","name":"Bưu Cục 63A Trần Đình Xu-Q.1-HCM","lat":10.76120374596973,"lng":106.6905808125565},{"id":"20887000","name":"Bưu Cục 274 Cô Bắc-Q.1-HCM","lat":10.76290294047148,"lng":106.6923163030037},{"id":"2441","name":"Bưu Cục 16A Lê Hồng Phong-Q.10-HCM","lat":10.77583,"lng":106.67049},{"id":"2443","name":null,"lat":null,"lng":null},{"id":"2517","name":null,"lat":null,"lng":null},{"id":"20555000","name":"Bưu Cục 58 Trương Quốc Dung-Q.Phú Nhuận-HCM","lat":10.7965103,"lng":106.6724583},{"id":"20613000","name":null,"lat":null,"lng":null},{"id":"20037000","name":null,"lat":null,"lng":null},{"id":"2514","name":null,"lat":null,"lng":null},{"id":"20564000","name":null,"lat":null,"lng":null},{"id":"20519000","name":"Bưu Cục 10 Đường số 8-Linh Xuân-Q.Thủ Đức-HCM","lat":10.881968,"lng":106.770494},{"id":"20893000","name":null,"lat":null,"lng":null},{"id":"1416","name":null,"lat":null,"lng":null},{"id":"20078000","name":"Bưu Cục 9 Hồng Bàng-Q.Bình Thạnh-HCM","lat":10.8025201,"lng":106.698029},{"id":"20477000","name":null,"lat":null,"lng":null},{"id":"20027000","name":"Bưu Cục 117 Hùng Vương-Q.5-HCM","lat":10.7617,"lng":106.67578},{"id":"20770000","name":null,"lat":null,"lng":null},{"id":"20972000","name":"Bưu Cục 20/48A Bờ Bao Tân Thắng-Q.Tân Phú-HCM","lat":10.8070035,"lng":106.6203028},{"id":"1703","name":null,"lat":null,"lng":null},{"id":"20858000","name":null,"lat":null,"lng":null},{"id":"2510","name":null,"lat":null,"lng":null},{"id":"20981000","name":null,"lat":null,"lng":null},{"id":"1337","name":"Bưu Cục 63 Vĩnh Hội-Q.4-HCM","lat":10.756358,"lng":106.703772},{"id":"20075000","name":"Bưu Cục T30 Nguyễn Hữu Hào-Q.4-HCM","lat":10.75995,"lng":106.70209},{"id":"2452","name":"Bưu Cục 198 Thạnh Lộc 15-Q.12-HCM","lat":10.8694847,"lng":106.6924142},{"id":"20482000","name":null,"lat":null,"lng":null},{"id":"2486","name":null,"lat":null,"lng":null},{"id":"1336","name":null,"lat":null,"lng":null},{"id":"1338","name":null,"lat":null,"lng":null},{"id":"20180000","name":null,"lat":null,"lng":null},{"id":"20019000","name":null,"lat":null,"lng":null},{"id":"20018000","name":null,"lat":null,"lng":null},{"id":"20685000","name":null,"lat":null,"lng":null},{"id":"1290","name":"Bưu Cục 242 Tỉnh Lộ 2-Củ Chi-HCM","lat":11.009473,"lng":106.47105},{"id":"2515","name":null,"lat":null,"lng":null},{"id":"20102000","name":"Bưu cục 58 Vũ Tông Phan-Q.2-HCM","lat":10.79734195904519,"lng":106.7418189408406},{"id":"1418","name":"Bưu Cục 119 Nguyễn Văn Luông-Q.6-HCM","lat":10.73829,"lng":106.63353},{"id":"20026000","name":"Bưu Cục 63 Ký Hòa-Q.5-HCM","lat":10.75432,"lng":106.66064},{"id":"20750000","name":null,"lat":null,"lng":null},{"id":"20399000","name":null,"lat":null,"lng":null},{"id":"2489","name":"Bưu Cục 456 Nguyễn Kiệm-Q.Phú Nhuận-HCM","lat":10.802363,"lng":106.679308},{"id":"20995000","name":null,"lat":null,"lng":null},{"id":"1334","name":null,"lat":null,"lng":null},{"id":"20518000","name":null,"lat":null,"lng":null},{"id":"20556000","name":null,"lat":null,"lng":null}],"total":98,"plottable":37},{"code":"HCM20-201","region":"HCM","stops":[{"id":"2388","name":null,"lat":null,"lng":null},{"id":"20074000","name":null,"lat":null,"lng":null},{"id":"20073000","name":null,"lat":null,"lng":null},{"id":"1420","name":null,"lat":null,"lng":null},{"id":"2485","name":null,"lat":null,"lng":null},{"id":"20910000","name":null,"lat":null,"lng":null},{"id":"20944000","name":"Bưu Cục 309 Nguyễn Thị Ngâu-Hóc Môn-HCM","lat":10.8989692,"lng":106.6120458},{"id":"2435","name":null,"lat":null,"lng":null},{"id":"20051000","name":null,"lat":null,"lng":null}],"total":9,"plottable":1},{"code":"HCM20-202","region":"HCM","stops":[{"id":"2388","name":null,"lat":null,"lng":null},{"id":"21122000","name":"Kho Giao Hàng Nặng - Hồ Chí Minh","lat":10.893424,"lng":106.525196}],"total":2,"plottable":1},{"code":"HCM20-210","region":"HCM","stops":[{"id":"2388","name":null,"lat":null,"lng":null},{"id":"20294000","name":null,"lat":null,"lng":null},{"id":"20738000","name":null,"lat":null,"lng":null},{"id":"20127000","name":null,"lat":null,"lng":null},{"id":"20117000","name":null,"lat":null,"lng":null},{"id":"1065","name":null,"lat":null,"lng":null},{"id":"20465000","name":null,"lat":null,"lng":null},{"id":"20466000","name":null,"lat":null,"lng":null},{"id":"20511000","name":"(BDU) Tân Hiệp 2","lat":11.064461,"lng":106.746061},{"id":"20987000","name":null,"lat":null,"lng":null},{"id":"20901000","name":null,"lat":null,"lng":null}],"total":11,"plottable":1},{"code":"HCM20-220","region":"HCM","stops":[{"id":"2388","name":null,"lat":null,"lng":null},{"id":"2417","name":"(BDU) Bình Dương 2","lat":11.0240777,"lng":106.6788661},{"id":"20802000","name":null,"lat":null,"lng":null},{"id":"20512000","name":"(BDU) Bến Cát","lat":11.147391,"lng":106.611843},{"id":"20489000","name":null,"lat":null,"lng":null},{"id":"20476000","name":null,"lat":null,"lng":null},{"id":"20536000","name":"(BDU) Bình Hòa","lat":10.907825,"lng":106.738217},{"id":"20693000","name":null,"lat":null,"lng":null},{"id":"20800000","name":"(BDU) Chánh Phú Hòa","lat":11.154946,"lng":106.671883},{"id":"20899000","name":"(BDU) Thuận Giao","lat":10.966379,"lng":106.71415},{"id":"20891000","name":"(BDU) Thuận An","lat":10.951434,"lng":106.701014}],"total":11,"plottable":6},{"code":"HCM20-230","region":"HCM","stops":[{"id":"2388","name":null,"lat":null,"lng":null},{"id":"20722000","name":null,"lat":null,"lng":null},{"id":"20652000","name":"(BDU) Phú An","lat":11.0340591,"lng":106.6395288},{"id":"20607000","name":null,"lat":null,"lng":null},{"id":"1501","name":"(BDU) Bàu Bàng","lat":11.2418409,"lng":106.6328418},{"id":"20831000","name":"(BDU) Dầu Tiếng","lat":11.28364,"lng":106.379382},{"id":"20488000","name":"(BDU) Bắc Tân Uyên","lat":11.155679,"lng":106.843927},{"id":"1446","name":"(BDU) Phước Hòa","lat":11.2751,"lng":106.778815},{"id":"20689000","name":null,"lat":null,"lng":null}],"total":9,"plottable":5},{"code":"HCM20-888","region":"HCM","stops":[{"id":"2388","name":null,"lat":null,"lng":null},{"id":"1327","name":"Key Account Warehouse Ho Chi Minh","lat":10.893424,"lng":106.525196}],"total":2,"plottable":1},{"code":"HCM20-990","region":"HCM","stops":[{"id":"2388","name":null,"lat":null,"lng":null},{"id":"21098000","name":"Kho lấy B2B Concung","lat":10.89599141152491,"lng":106.7486153558192},{"id":"21092000","name":"Kho Giao Hàng Nặng - Đức Hòa - Long An","lat":10.893424,"lng":106.525196}],"total":3,"plottable":2},{"code":"HCM20-999","region":"HCM","stops":[{"id":"2388","name":null,"lat":null,"lng":null},{"id":"1302","name":"Bưu Cục Cần Giờ-HCM","lat":10.5878863,"lng":106.851401}],"total":2,"plottable":1},{"code":"HCMKCK-502","region":"HCMKCK","stops":[{"id":"20682000","name":null,"lat":null,"lng":null},{"id":"20489000","name":null,"lat":null,"lng":null},{"id":"20294000","name":null,"lat":null,"lng":null},{"id":"20127000","name":null,"lat":null,"lng":null},{"id":"20117000","name":null,"lat":null,"lng":null},{"id":"1065","name":null,"lat":null,"lng":null},{"id":"20465000","name":null,"lat":null,"lng":null},{"id":"20476000","name":null,"lat":null,"lng":null},{"id":"20536000","name":"(BDU) Bình Hòa","lat":10.907825,"lng":106.738217},{"id":"20693000","name":null,"lat":null,"lng":null},{"id":"20466000","name":null,"lat":null,"lng":null},{"id":"20511000","name":"(BDU) Tân Hiệp 2","lat":11.064461,"lng":106.746061},{"id":"20891000","name":"(BDU) Thuận An","lat":10.951434,"lng":106.701014}],"total":13,"plottable":3},{"code":"HCMKCK-503","region":"HCMKCK","stops":[{"id":"20682000","name":null,"lat":null,"lng":null},{"id":"2417","name":"(BDU) Bình Dương 2","lat":11.0240777,"lng":106.6788661},{"id":"20512000","name":"(BDU) Bến Cát","lat":11.147391,"lng":106.611843},{"id":"20652000","name":"(BDU) Phú An","lat":11.0340591,"lng":106.6395288},{"id":"20607000","name":null,"lat":null,"lng":null},{"id":"1501","name":"(BDU) Bàu Bàng","lat":11.2418409,"lng":106.6328418},{"id":"20831000","name":"(BDU) Dầu Tiếng","lat":11.28364,"lng":106.379382},{"id":"20488000","name":"(BDU) Bắc Tân Uyên","lat":11.155679,"lng":106.843927},{"id":"1446","name":"(BDU) Phước Hòa","lat":11.2751,"lng":106.778815}],"total":9,"plottable":7},{"code":"HN02-100","region":"HN","stops":[{"id":"1121","name":"Kho Trung Chuyển Hà Nội 02","lat":21.03305892309558,"lng":105.9217335812912},{"id":"20905000","name":null,"lat":null,"lng":null},{"id":"20053000","name":"Bưu Cục 303 Hoàng Hoa Thám-Q.Ba Đình-HN","lat":21.04225556,"lng":105.8184068},{"id":"20091000","name":"Bưu Cục 61 Kim Mã-Q.Ba Đình-HN","lat":21.03221987,"lng":105.8277081},{"id":"20919000","name":"Bưu Cục Mỹ Đình 2-Q.Nam Từ Liêm-HN","lat":21.02935,"lng":105.76934},{"id":"2475","name":"Bưu Cục 15 Hàng Bún-Q.Ba Đình-HN","lat":21.043324,"lng":105.845677},{"id":"1355","name":null,"lat":null,"lng":null},{"id":"20083000","name":null,"lat":null,"lng":null},{"id":"20111000","name":null,"lat":null,"lng":null},{"id":"20092000","name":"Bưu cục 253 Phạm Văn Đồng-Q.Bắc Từ Liêm-Hà Nội","lat":21.073257,"lng":105.785887},{"id":"20404000","name":"Bưu Cục 139 Thụy Phương-Q.Bắc Từ Liêm-HN","lat":21.09094109,"lng":105.7775882},{"id":"20925000","name":"Bưu Cục 88 Bạch Đằng-Hoàn Kiếm-HN","lat":21.0297149,"lng":105.8599972},{"id":"20123000","name":"Bưu Cục 7C10 Nguyễn Phong Sắc-Cầu Giấy-Hà Nội","lat":21.042015,"lng":105.790352},{"id":"20040000","name":"Bưu cục 126 Hoàng Ngân-Q.Cầu Giấy-HN","lat":21.00974856,"lng":105.8066455},{"id":"20932000","name":null,"lat":null,"lng":null},{"id":"2503","name":"Bưu cục 41 Trần Quốc Vượng-Q.Cầu giấy-HN","lat":21.03559956,"lng":105.786288},{"id":"20214000","name":null,"lat":null,"lng":null},{"id":"20047000","name":"Bưu Cục 53 Lãng Yên-Q.Hai Bà Trưng-HN","lat":21.0089985,"lng":105.8666449},{"id":"20049000","name":"Bưu Cục 109 E3-Q.Hai Bà Trưng-HN","lat":21.003327,"lng":105.849394},{"id":"1356","name":"Bưu Cục 221 Kim Ngưu-Q.Hai Bà Trưng-HN","lat":21.00507788867048,"lng":105.8614152245288},{"id":"20001000","name":"Bưu cục 896 Minh Khai-Q.Hai Bà Trưng-HN","lat":21.004527,"lng":105.869162},{"id":"20936000","name":"Bưu Cục 631 Phúc Diễn-Q.Nam Từ Liêm-HN","lat":21.028426,"lng":105.756139},{"id":"1376","name":null,"lat":null,"lng":null},{"id":"20081000","name":"Bưu Cục 16A Hòa Mã -Q.Hai Bà Trưng-HN","lat":21.0156138,"lng":105.8556383},{"id":"1489","name":"Bưu Cục 263 Phố Vọng-Q.Hai Bà Trưng-HN","lat":20.994889,"lng":105.842653},{"id":"2525","name":"Bưu Cục 22 Thanh Yên-Q.Hoàn Kiếm-HN","lat":21.037548,"lng":105.854078},{"id":"2332","name":"Bưu Cục 55C Nguyễn Khoái-Q.Hai Bà Trưng-HN","lat":21.015425,"lng":105.863139},{"id":"20036000","name":null,"lat":null,"lng":null},{"id":"20210000","name":"Bưu Cục TT03 Tây Nam Linh Đàm-Q.Hoàng Mai-HN","lat":20.958025,"lng":105.824172},{"id":"2481","name":null,"lat":null,"lng":null},{"id":"20006000","name":null,"lat":null,"lng":null},{"id":"2491","name":null,"lat":null,"lng":null},{"id":"2524","name":null,"lat":null,"lng":null},{"id":"20364000","name":"Bưu Cục Số 1 Tân Khai-Q.Hoàng Mai-HN","lat":20.9925395,"lng":105.8733538},{"id":"1379","name":"Bưu Cục 97 Thiên Hiền-Q.Nam Từ Liêm-HN","lat":21.02294,"lng":105.775855},{"id":"20085000","name":null,"lat":null,"lng":null},{"id":"20032000","name":"Bưu Cục 24 ngõ 80 La Nội-Q.Hà Đông-HN","lat":20.97984481,"lng":105.7492971},{"id":"20937000","name":"Bưu cục 8.03-TT8 Xuân Phương-Q.Nam Từ Liêm-HN","lat":21.028769,"lng":105.743193},{"id":"2476","name":null,"lat":null,"lng":null},{"id":"20376000","name":null,"lat":null,"lng":null},{"id":"21045000","name":"Bưu Cục 984 Đê La Thành-Ba Đình-HN","lat":21.026045,"lng":105.81048},{"id":"20065000","name":null,"lat":null,"lng":null},{"id":"20067000","name":null,"lat":null,"lng":null},{"id":"2413","name":null,"lat":null,"lng":null},{"id":"21073000","name":null,"lat":null,"lng":null},{"id":"20002000","name":null,"lat":null,"lng":null},{"id":"20087000","name":"Bưu Cục C14 Bắc Hà-Q.Nam Từ Liêm-HN","lat":20.990016,"lng":105.784293},{"id":"20020000","name":"Bưu cục 442 Nguyễn Trãi-Q.Thanh Xuân-HN","lat":20.9927328,"lng":105.80469},{"id":"2461","name":"Bưu Cục 229 Quan Nhân-Q.Thanh Xuân-HN","lat":21.001105,"lng":105.810285},{"id":"1353","name":"Bưu Cục 188 Khương Đình-Q.Thanh Xuân-HN","lat":20.993634,"lng":105.81394},{"id":"1624","name":null,"lat":null,"lng":null},{"id":"20103000","name":"Bưu Cục 559 Vũ Tông Phan-Q.Thanh Xuân-HN","lat":20.9847301,"lng":105.8151779},{"id":"20384000","name":"Bưu Cục 8B Nguyễn Lân-Q.Thanh Xuân-HN","lat":20.9961017,"lng":105.8362074},{"id":"20107000","name":null,"lat":null,"lng":null},{"id":"20054000","name":"Bưu Cục 14 Huỳnh Thúc Kháng-Q.Đống Đa-HN","lat":21.01907,"lng":105.81165},{"id":"2520","name":"Bưu Cục 09 Hoàng Cầu-Q.Đống Đa-HN","lat":21.0162422,"lng":105.8213612},{"id":"2522","name":null,"lat":null,"lng":null},{"id":"2389","name":"Bưu Cục 107 Nguyễn Chí Thanh-Q.Đống Đa-HN","lat":21.015249,"lng":105.80551},{"id":"1352","name":"Bưu Cục 114 Yên Lãng-Q.Đống Đa-HN","lat":21.010084,"lng":105.815667},{"id":"20509000","name":null,"lat":null,"lng":null},{"id":"20513000","name":"(HNO) CK Nghĩa Đô 2","lat":21.034442,"lng":105.804201},{"id":"20538000","name":null,"lat":null,"lng":null},{"id":"20530000","name":"Bưu Cục 224 Lê Trọng Tấn-Q.Hà Đông-HN","lat":20.9672133,"lng":105.7566865},{"id":"20563000","name":null,"lat":null,"lng":null},{"id":"20580000","name":"Bưu Cục Lô DM10-6 Làng nghề Vạn Phúc-Q.Hà Đông-HN","lat":20.9828095,"lng":105.7720017},{"id":"20614000","name":"Bưu Cục 142A Khuất Duy Tiến-Q.Thanh Xuân-HN","lat":20.99747267890965,"lng":105.7994357711641},{"id":"20619000","name":null,"lat":null,"lng":null},{"id":"20620000","name":"Bưu cục 36 TT9 KĐT Văn Phú-Q.Hà Đông-HN","lat":20.9556961,"lng":105.7711728},{"id":"20634000","name":null,"lat":null,"lng":null},{"id":"20641000","name":"Bưu Cục 108 Phố Nhổn-Q.Bắc Từ Liêm-Hà Nội","lat":21.0563013,"lng":105.7302076},{"id":"20690000","name":null,"lat":null,"lng":null},{"id":"20721000","name":null,"lat":null,"lng":null},{"id":"20743000","name":"Bưu Cục 60 Sài Đồng-Q.Long Biên-Hà Nội","lat":21.034681,"lng":105.910354},{"id":"20742000","name":"Bưu Cục 10 Vĩnh Tuy-Q.Hai Bà Trưng-HN","lat":21.001347,"lng":105.873449},{"id":"20766000","name":"Bưu Cục 33 Đặng Trần Côn-Q.Đống Đa-HN","lat":21.0267904,"lng":105.8329227},{"id":"20809000","name":"Bưu Cục 20 Đông Quan-Q.Cầu Giấy-HN","lat":21.03991959254535,"lng":105.8052145452121},{"id":"20839000","name":"Bưu Cục 41 Phố Nguyễn Khả Trạc-Q.Cầu Giấy-HN","lat":21.0457456,"lng":105.7768115},{"id":"20865000","name":null,"lat":null,"lng":null}],"total":78,"plottable":47},{"code":"HN02-110","region":"HN","stops":[{"id":"1121","name":"Kho Trung Chuyển Hà Nội 02","lat":21.03305892309558,"lng":105.9217335812912},{"id":"20110000","name":"Bưu cục Thôn 6-Ba Vì-HN","lat":21.124075,"lng":105.364579},{"id":"20199000","name":"Bưu cục Thôn Đông-Ba Vì-Hà Nội","lat":21.195205,"lng":105.424168},{"id":"20926000","name":null,"lat":null,"lng":null},{"id":"21004000","name":"Bưu Cục Bê Tông-Thuỷ Xuân Tiên-Chương Mỹ-HN","lat":20.8720672,"lng":105.5767423},{"id":"20211000","name":"Bưu cục 602 Hà Huy Tập-Gia Lâm-HN","lat":21.0911315,"lng":105.9229204},{"id":"20038000","name":"Bưu cục 296 đường Ỷ Lan-Gia Lâm-HN","lat":21.0212845,"lng":105.9644118},{"id":"20045000","name":null,"lat":null,"lng":null},{"id":"20099000","name":"Bưu cục 148 Trâu Quỳ-Gia Lâm-HN","lat":21.0014959,"lng":105.9390521},{"id":"20109000","name":null,"lat":null,"lng":null},{"id":"20280000","name":null,"lat":null,"lng":null},{"id":"20374000","name":"Bưu Cục 219 Sơn Đồng-Hoài Đức-HN","lat":21.0472,"lng":105.69787},{"id":"20934000","name":null,"lat":null,"lng":null},{"id":"20317000","name":null,"lat":null,"lng":null},{"id":"20940000","name":"Bưu Cục 57 Thao Chính-Phú Xuyên-HN","lat":20.73948,"lng":105.872313},{"id":"20340000","name":null,"lat":null,"lng":null},{"id":"1285","name":"Bưu cục Quốc Oai-HN","lat":20.987643,"lng":105.635981},{"id":"20312000","name":"Bưu Cục Đường Núi Đôi-Sóc Sơn-HN","lat":21.257079,"lng":105.857532},{"id":"20108000","name":"Bưu Cục 39 Gò Sỏi-Sóc Sơn-HN","lat":21.289057,"lng":105.861237},{"id":"21022000","name":null,"lat":null,"lng":null},{"id":"20242000","name":null,"lat":null,"lng":null},{"id":"20343000","name":null,"lat":null,"lng":null},{"id":"20125000","name":"Bưu cục Ngọc Hồi-Thanh Trì-HN","lat":20.924,"lng":105.84216},{"id":"21052000","name":"Bưu Cục Đại Nghĩa-Mỹ Đức-HN","lat":20.678234,"lng":105.749544},{"id":"20126000","name":"Bưu cục Yên Xá-Thanh Trì-HN","lat":20.972782,"lng":105.796357},{"id":"20357000","name":"Bưu Cục 882 Kim Giang-Thanh Trì-HN","lat":20.9613024,"lng":105.813687},{"id":"20252000","name":null,"lat":null,"lng":null},{"id":"20097000","name":"Bưu cục Thạch Hòa-Thạch Thất-Hà Nội","lat":20.9869341,"lng":105.5276892},{"id":"20182000","name":"Bưu cục 171 Đồng Cam-Thạch Thất-Hà Nội","lat":21.052531,"lng":105.581319},{"id":"20235000","name":null,"lat":null,"lng":null},{"id":"20248000","name":null,"lat":null,"lng":null},{"id":"20010000","name":"Bưu Cục Vân Hà-Đông Anh-HN","lat":21.1414,"lng":105.91642},{"id":"20138000","name":null,"lat":null,"lng":null},{"id":"20101000","name":null,"lat":null,"lng":null},{"id":"1282","name":null,"lat":null,"lng":null},{"id":"20598000","name":"Bưu Cục 43 Trần Đăng Ninh-Ứng Hòa-HN","lat":20.73035,"lng":105.77293},{"id":"20615000","name":null,"lat":null,"lng":null},{"id":"20631000","name":null,"lat":null,"lng":null},{"id":"20692000","name":null,"lat":null,"lng":null},{"id":"20704000","name":null,"lat":null,"lng":null},{"id":"20723000","name":null,"lat":null,"lng":null},{"id":"20759000","name":null,"lat":null,"lng":null},{"id":"20826000","name":null,"lat":null,"lng":null},{"id":"20829000","name":null,"lat":null,"lng":null}],"total":44,"plottable":20},{"code":"HN02-120","region":"HN","stops":[{"id":"1121","name":"Kho Trung Chuyển Hà Nội 02","lat":21.03305892309558,"lng":105.9217335812912},{"id":"1297","name":"Key Account Warehouse Ha Noi","lat":21.033113,"lng":105.921483}],"total":2,"plottable":2},{"code":"HN02-200","region":"HN","stops":[{"id":"1121","name":"Kho Trung Chuyển Hà Nội 02","lat":21.03305892309558,"lng":105.9217335812912},{"id":"20178000","name":null,"lat":null,"lng":null},{"id":"20879000","name":"(BGI) Nếnh","lat":21.255288,"lng":106.152947},{"id":"21064000","name":null,"lat":null,"lng":null},{"id":"1430","name":null,"lat":null,"lng":null},{"id":"20396000","name":"(BGI) Nhã Nam","lat":21.441093,"lng":106.089223},{"id":"20179000","name":"(BGI) Việt Yên","lat":21.281078,"lng":106.087627},{"id":"21080000","name":null,"lat":null,"lng":null},{"id":"1213","name":null,"lat":null,"lng":null},{"id":"20471000","name":"(BGI) Yên Thế","lat":21.481123,"lng":106.123091},{"id":"20485000","name":null,"lat":null,"lng":null},{"id":"20531000","name":null,"lat":null,"lng":null},{"id":"20636000","name":null,"lat":null,"lng":null},{"id":"20771000","name":"(BGI) Bố Hạ","lat":21.453557,"lng":106.199158},{"id":"20860000","name":"(BGI) Lạng Giang","lat":21.359887,"lng":106.261734},{"id":"20843000","name":"Kho Chuyển Tiếp Bắc Giang","lat":21.265518,"lng":106.113707}],"total":16,"plottable":8},{"code":"HN02-201","region":"HN","stops":[{"id":"1121","name":"Kho Trung Chuyển Hà Nội 02","lat":21.03305892309558,"lng":105.9217335812912},{"id":"1166","name":"(BKA) Đức Xuân","lat":22.14221,"lng":105.835268},{"id":"20811000","name":"(BKA) Chợ Mới","lat":21.9041844,"lng":105.7924495}],"total":3,"plottable":3},{"code":"HN02-202","region":"HN","stops":[{"id":"1121","name":"Kho Trung Chuyển Hà Nội 02","lat":21.03305892309558,"lng":105.9217335812912},{"id":"21041000","name":"(BNI) Võ Cường","lat":21.164333,"lng":106.047838},{"id":"20969000","name":"(BNI) Trung Chính","lat":21.013503,"lng":106.216604},{"id":"20221000","name":null,"lat":null,"lng":null},{"id":"21081000","name":"(BNI) Yên Phong","lat":21.200306,"lng":105.953733},{"id":"20289000","name":null,"lat":null,"lng":null},{"id":"1527","name":null,"lat":null,"lng":null},{"id":"20486000","name":null,"lat":null,"lng":null},{"id":"20487000","name":"(BNI) Đào Viên","lat":21.130831,"lng":106.2037},{"id":"20514000","name":"(BNI) Thuận Thành","lat":21.034801,"lng":106.06588},{"id":"20567000","name":"(BNI) Từ Sơn","lat":21.117445,"lng":105.971049},{"id":"20640000","name":null,"lat":null,"lng":null},{"id":"20765000","name":"(BNI) Đồng Nguyên","lat":21.132763,"lng":105.9511696}],"total":13,"plottable":8},{"code":"HN02-203","region":"HN","stops":[{"id":"1121","name":"Kho Trung Chuyển Hà Nội 02","lat":21.03305892309558,"lng":105.9217335812912},{"id":"20924000","name":null,"lat":null,"lng":null},{"id":"20789000","name":"(CBA) Quảng Uyên","lat":22.693282,"lng":106.441591},{"id":"20924001","name":null,"lat":null,"lng":null}],"total":4,"plottable":2},{"code":"HN02-204","region":"HN","stops":[{"id":"1121","name":"Kho Trung Chuyển Hà Nội 02","lat":21.03305892309558,"lng":105.9217335812912},{"id":"20309000","name":null,"lat":null,"lng":null},{"id":"20881000","name":"(TQU) Sơn Dương","lat":21.69819,"lng":105.37408},{"id":"2393","name":"(TQU) Hàm Yên","lat":22.039025,"lng":105.037502},{"id":"20955000","name":null,"lat":null,"lng":null},{"id":"1115","name":null,"lat":null,"lng":null},{"id":"20370000","name":null,"lat":null,"lng":null},{"id":"21056000","name":"(TQU) Chiêm Hóa","lat":22.143489,"lng":105.262146},{"id":"20072000","name":null,"lat":null,"lng":null},{"id":"20309001","name":null,"lat":null,"lng":null},{"id":"20365000","name":"(HAG) Quang Bình","lat":22.413448,"lng":104.579224},{"id":"20629000","name":null,"lat":null,"lng":null},{"id":"20676000","name":null,"lat":null,"lng":null},{"id":"20744000","name":null,"lat":null,"lng":null},{"id":"20744001","name":null,"lat":null,"lng":null},{"id":"20872000","name":"(HAG) Vị Xuyên","lat":22.66171,"lng":104.988513},{"id":"20813000","name":"Kho Chuyển Tiếp Tuyên Quang","lat":21.845475,"lng":105.208044}],"total":17,"plottable":7},{"code":"HN02-205","region":"HN","stops":[{"id":"1121","name":"Kho Trung Chuyển Hà Nội 02","lat":21.03305892309558,"lng":105.9217335812912},{"id":"20306000","name":"(HNA) Bình Mỹ","lat":20.484271,"lng":106.027276},{"id":"20188000","name":null,"lat":null,"lng":null},{"id":"20369000","name":null,"lat":null,"lng":null},{"id":"20869001","name":"(HNA) Liêm Hà","lat":20.6502151,"lng":105.9542174},{"id":"20869002","name":"(HNA) Liêm Hà","lat":20.6502151,"lng":105.9542174},{"id":"20508000","name":"(HNA) Vĩnh Trụ","lat":20.553684,"lng":106.039105},{"id":"20699000","name":null,"lat":null,"lng":null},{"id":"20523000","name":"(HNA) Phủ Lý 1","lat":20.535231,"lng":105.91641},{"id":"20730000","name":null,"lat":null,"lng":null},{"id":"20869000","name":"(HNA) Liêm Hà","lat":20.6502151,"lng":105.9542174},{"id":"20869004","name":"(HNA) Liêm Hà","lat":20.6502151,"lng":105.9542174},{"id":"20869003","name":"(HNA) Liêm Hà","lat":20.6502151,"lng":105.9542174}],"total":13,"plottable":9},{"code":"HN02-206","region":"HN","stops":[{"id":"1121","name":"Kho Trung Chuyển Hà Nội 02","lat":21.03305892309558,"lng":105.9217335812912},{"id":"20921000","name":"(HBI) Lạc Thủy","lat":20.497124,"lng":105.775682},{"id":"20215000","name":null,"lat":null,"lng":null},{"id":"20216000","name":null,"lat":null,"lng":null},{"id":"20712000","name":null,"lat":null,"lng":null},{"id":"20833000","name":null,"lat":null,"lng":null},{"id":"20853000","name":null,"lat":null,"lng":null},{"id":"20871000","name":null,"lat":null,"lng":null},{"id":"20814000","name":null,"lat":null,"lng":null}],"total":9,"plottable":2},{"code":"HN02-207","region":"HN","stops":[{"id":"1121","name":"Kho Trung Chuyển Hà Nội 02","lat":21.03305892309558,"lng":105.9217335812912},{"id":"2297","name":null,"lat":null,"lng":null},{"id":"20133000","name":"(HYE) Lương Bằng","lat":20.744761,"lng":106.059322},{"id":"1900","name":null,"lat":null,"lng":null},{"id":"21002000","name":null,"lat":null,"lng":null},{"id":"20149000","name":null,"lat":null,"lng":null},{"id":"1215","name":"(HYE) Phố Hiến","lat":20.658027,"lng":106.062617},{"id":"20148000","name":"(HYE) Mỹ Hào","lat":20.933305,"lng":106.067694},{"id":"21019000","name":"(HYE) Đại Đồng","lat":20.992722,"lng":106.066735},{"id":"20719000","name":"(HYE) Như Quỳnh","lat":20.976292,"lng":106.002941},{"id":"20733000","name":null,"lat":null,"lng":null},{"id":"20781000","name":"Bưu Cục Thôn Lực Điền-Yên Mỹ-Hưng Yên","lat":20.865648,"lng":106.023146}],"total":12,"plottable":7},{"code":"HN02-208","region":"HN","stops":[{"id":"1121","name":"Kho Trung Chuyển Hà Nội 02","lat":21.03305892309558,"lng":105.9217335812912},{"id":"20236000","name":"(HDU) Kẻ Sặt","lat":20.899315,"lng":106.17707},{"id":"20975000","name":"(HDU) Thanh Miện","lat":20.7872022,"lng":106.2374433},{"id":"20989000","name":"(HDU) Phạm Sư Mạnh","lat":21.001476,"lng":106.541786},{"id":"21040000","name":"(HDU) Gia Lộc","lat":20.866471,"lng":106.301159},{"id":"20209000","name":null,"lat":null,"lng":null},{"id":"20266000","name":null,"lat":null,"lng":null},{"id":"2401","name":null,"lat":null,"lng":null},{"id":"20459000","name":"(HDU) Nam Sách","lat":21.002885,"lng":106.335296},{"id":"1342","name":null,"lat":null,"lng":null},{"id":"20090000","name":"(HDU) Tân Hưng","lat":20.9325507,"lng":106.3366227},{"id":"20501000","name":"(HDU) Thành Đông","lat":20.951105,"lng":106.32933},{"id":"20779000","name":"(HDU) Phú Thái","lat":20.963491,"lng":106.508673},{"id":"20828000","name":null,"lat":null,"lng":null}],"total":14,"plottable":9},{"code":"HN02-209","region":"HN","stops":[{"id":"1121","name":"Kho Trung Chuyển Hà Nội 02","lat":21.03305892309558,"lng":105.9217335812912},{"id":"1403","name":"(HPH) An Hải","lat":20.861416,"lng":106.637908},{"id":"2535","name":"(HPH) An Phong","lat":20.871231,"lng":106.575898},{"id":"2467","name":"(HPH) Kiến Hưng","lat":20.718398,"lng":106.675812},{"id":"20373000","name":"(HPH) Bạch Đằng","lat":20.941975,"lng":106.728829},{"id":"20377000","name":"(HPH) Thủy Nguyên","lat":20.893081,"lng":106.67326},{"id":"1443","name":"(HPH) Tân Minh","lat":20.709103,"lng":106.5655546},{"id":"20029000","name":null,"lat":null,"lng":null},{"id":"1122","name":"(HPH) An Biên 3","lat":20.8294562,"lng":106.6714786},{"id":"2500","name":"(HPH) Hải An 2","lat":20.846282,"lng":106.715681},{"id":"20929000","name":"(HPH) Hồng An","lat":20.898899,"lng":106.581168},{"id":"2526","name":null,"lat":null,"lng":null},{"id":"20946000","name":"(HPH) Lưu Kiếm","lat":20.9656157,"lng":106.6707673},{"id":"2527","name":null,"lat":null,"lng":null},{"id":"20061000","name":"(HPH) An Biên 2","lat":20.833657,"lng":106.679396},{"id":"2499","name":null,"lat":null,"lng":null},{"id":"20522000","name":"Bưu Cục 130 Trần Văn Lan-Q.Hải An-Hải Phòng","lat":20.8274087,"lng":106.7079487},{"id":"20659000","name":null,"lat":null,"lng":null},{"id":"20724000","name":null,"lat":null,"lng":null},{"id":"20830000","name":null,"lat":null,"lng":null},{"id":"20870000","name":"(HPH) Kiến An","lat":20.821411,"lng":106.631946},{"id":"20029001","name":null,"lat":null,"lng":null},{"id":"20646000","name":null,"lat":null,"lng":null}],"total":23,"plottable":14},{"code":"HN02-210","region":"HN","stops":[{"id":"1121","name":"Kho Trung Chuyển Hà Nội 02","lat":21.03305892309558,"lng":105.9217335812912},{"id":"20939000","name":"(LCA) Bát Xát","lat":22.532578,"lng":103.896318},{"id":"21003000","name":null,"lat":null,"lng":null},{"id":"20962000","name":null,"lat":null,"lng":null},{"id":"20982000","name":"(LCA) Bảo Thắng","lat":22.318188,"lng":104.178798},{"id":"21072000","name":"(LCA) Cam Đường 1","lat":22.471867,"lng":103.975093},{"id":"20985000","name":"(LCA) Bắc Hà","lat":22.533284,"lng":104.291139},{"id":"20650000","name":"(LCA) Cam Đường 2","lat":22.430257,"lng":104.010948},{"id":"20650001","name":"(LCA) Cam Đường 2","lat":22.430257,"lng":104.010948},{"id":"20504002","name":null,"lat":null,"lng":null},{"id":"20703000","name":"(LCA) Sa Pa","lat":22.348702,"lng":103.856428},{"id":"20754000","name":"(LCA) Bảo Yên","lat":22.230917,"lng":104.478426},{"id":"20939001","name":"(LCA) Bát Xát","lat":22.532578,"lng":103.896318},{"id":"20818000","name":"Kho Chuyển Tiếp Lào Cai","lat":22.500077,"lng":103.957676}],"total":14,"plottable":11},{"code":"HN02-211","region":"HN","stops":[{"id":"1121","name":"Kho Trung Chuyển Hà Nội 02","lat":21.03305892309558,"lng":105.9217335812912},{"id":"21059000","name":null,"lat":null,"lng":null},{"id":"20059000","name":"Bưu cục Đồng Đăng-Cao Lộc-Lạng Sơn","lat":21.950466,"lng":106.699845},{"id":"20060000","name":"Bưu cục Lộc Bình-Lạng Sơn","lat":21.75149,"lng":106.928509},{"id":"20308000","name":null,"lat":null,"lng":null},{"id":"20315000","name":"Bưu Cục 12 Nguyễn Thị Minh Khai-Bắc Sơn-Lạng Sơn","lat":21.900985,"lng":106.319072},{"id":"20017005","name":null,"lat":null,"lng":null},{"id":"20017004","name":null,"lat":null,"lng":null},{"id":"20617000","name":null,"lat":null,"lng":null},{"id":"20735000","name":"Bưu Cục Đường Đại Huề-Chi Lăng-Lạng Sơn","lat":21.652227,"lng":106.583531},{"id":"20842000","name":"Bưu Cục Đường Hoàng Văn Thụ-Tràng Định-Lạng Sơn","lat":22.254914,"lng":106.47654},{"id":"20857000","name":"Bưu Cục QL1A-Hữu Lũng-Lạng Sơn","lat":21.494701,"lng":106.341913},{"id":"20773000","name":"Kho Chuyển Tiếp Lạng Sơn","lat":21.847879,"lng":106.749332}],"total":13,"plottable":8},{"code":"HN02-212","region":"HN","stops":[{"id":"1121","name":"Kho Trung Chuyển Hà Nội 02","lat":21.03305892309558,"lng":105.9217335812912},{"id":"20035000","name":null,"lat":null,"lng":null},{"id":"20310000","name":"(NDI) Hải Hậu","lat":20.188909,"lng":106.291478},{"id":"20405000","name":null,"lat":null,"lng":null},{"id":"20290000","name":null,"lat":null,"lng":null},{"id":"1441","name":"(NDI) Trực Ninh","lat":20.247375,"lng":106.224672},{"id":"20311000","name":null,"lat":null,"lng":null},{"id":"20057000","name":null,"lat":null,"lng":null},{"id":"1137","name":null,"lat":null,"lng":null},{"id":"20883000","name":"(NDI) Ý Yên","lat":20.333001,"lng":106.009734},{"id":"20668000","name":"(NDI) Nam Định 1","lat":20.459306,"lng":106.156501},{"id":"20819000","name":null,"lat":null,"lng":null}],"total":12,"plottable":5},{"code":"HN02-213","region":"HN","stops":[{"id":"1121","name":"Kho Trung Chuyển Hà Nội 02","lat":21.03305892309558,"lng":105.9217335812912},{"id":"2468","name":"(NBI) Gia Viễn","lat":20.346249,"lng":105.850577},{"id":"20950000","name":"(NBI) Nho Quan","lat":20.311578,"lng":105.751131},{"id":"20398000","name":"(NBI) Yên Khánh","lat":20.171771,"lng":106.072393},{"id":"20353000","name":"(NBI) Yên Mô","lat":20.162693,"lng":106.003394},{"id":"20348000","name":null,"lat":null,"lng":null},{"id":"20400000","name":"(NBI) Hoa Lư 1","lat":20.286076,"lng":105.958887},{"id":"1423","name":"(NBI) Trung Sơn","lat":20.1467891,"lng":105.9227752},{"id":"20657000","name":"(NBI) Đại Hoàng","lat":20.303406,"lng":105.872487},{"id":"20677000","name":"(NBI) Quang Thiện","lat":20.098931,"lng":106.103898},{"id":"20876000","name":"(NBI) Quỳnh Lưu","lat":20.236635,"lng":105.800529},{"id":"20873000","name":null,"lat":null,"lng":null},{"id":"20820000","name":null,"lat":null,"lng":null}],"total":13,"plottable":10},{"code":"HN02-214","region":"HN","stops":[{"id":"1121","name":"Kho Trung Chuyển Hà Nội 02","lat":21.03305892309558,"lng":105.9217335812912},{"id":"20909000","name":null,"lat":null,"lng":null},{"id":"20980000","name":null,"lat":null,"lng":null},{"id":"21057000","name":"(PTH) Tân Sơn","lat":21.21393,"lng":105.023784},{"id":"20146000","name":null,"lat":null,"lng":null},{"id":"20554000","name":"(PTH) Cẩm Khê","lat":21.4259914,"lng":105.1335446},{"id":"20557000","name":null,"lat":null,"lng":null},{"id":"20625000","name":null,"lat":null,"lng":null},{"id":"20639000","name":null,"lat":null,"lng":null},{"id":"20662000","name":null,"lat":null,"lng":null},{"id":"20671000","name":null,"lat":null,"lng":null},{"id":"20672000","name":null,"lat":null,"lng":null},{"id":"20769000","name":null,"lat":null,"lng":null},{"id":"20837000","name":"(PTH) Yên Lập","lat":21.352697,"lng":105.059377},{"id":"20845000","name":null,"lat":null,"lng":null}],"total":15,"plottable":4},{"code":"HN02-215","region":"HN","stops":[{"id":"1121","name":"Kho Trung Chuyển Hà Nội 02","lat":21.03305892309558,"lng":105.9217335812912},{"id":"20355000","name":"(QNI) Hoành Bồ","lat":21.032098,"lng":106.992132},{"id":"20930000","name":"(QNI) Đông Triều","lat":21.073884,"lng":106.5224631},{"id":"1442","name":null,"lat":null,"lng":null},{"id":"1892","name":"(QNI) Vân Đồn","lat":21.0709195,"lng":107.429446},{"id":"20093000","name":"(QNI) Quang Hanh","lat":21.0076,"lng":107.257537},{"id":"2409","name":"(QNI) Cửa Ông 2","lat":21.0389999,"lng":107.3586827},{"id":"2414","name":null,"lat":null,"lng":null},{"id":"21049000","name":"(QNI) Cửa Ông 1","lat":21.002874,"lng":107.301782},{"id":"20383000","name":null,"lat":null,"lng":null},{"id":"1119","name":"(QNI) Móng Cái 1","lat":21.533315,"lng":107.9690054},{"id":"20381000","name":"(QNI) Uông Bí","lat":21.035331,"lng":106.78093},{"id":"20253000","name":"(QNI) Quảng Yên","lat":20.939873,"lng":106.817752},{"id":"20254000","name":null,"lat":null,"lng":null},{"id":"20952000","name":"(QNI) Hạ Long","lat":20.94171461509652,"lng":107.1095796548425},{"id":"20841000","name":"(QNI) Quảng Hà","lat":21.460757,"lng":107.763036},{"id":"20792000","name":"Kho Chuyển Tiếp Quảng Ninh","lat":21.001312,"lng":107.104868}],"total":17,"plottable":13},{"code":"HN02-216","region":"HN","stops":[{"id":"1121","name":"Kho Trung Chuyển Hà Nội 02","lat":21.03305892309558,"lng":105.9217335812912},{"id":"20207000","name":null,"lat":null,"lng":null},{"id":"20906000","name":null,"lat":null,"lng":null},{"id":"20205000","name":null,"lat":null,"lng":null},{"id":"20943000","name":null,"lat":null,"lng":null},{"id":"20206000","name":"(SLA) Phù Yên","lat":21.265364,"lng":104.6449799},{"id":"20222000","name":"(SLA) Sông Mã","lat":21.0512968,"lng":103.7498952},{"id":"20603000","name":"(SLA) Tô Hiệu","lat":21.3072712,"lng":103.9286525},{"id":"20973000","name":"(SLA) Thuận Châu","lat":21.448736,"lng":103.680149},{"id":"20846000","name":null,"lat":null,"lng":null},{"id":"20854000","name":null,"lat":null,"lng":null},{"id":"20906001","name":null,"lat":null,"lng":null},{"id":"20854001","name":null,"lat":null,"lng":null}],"total":13,"plottable":5},{"code":"HN02-218","region":"HN","stops":[{"id":"1121","name":"Kho Trung Chuyển Hà Nội 02","lat":21.03305892309558,"lng":105.9217335812912},{"id":"20122000","name":null,"lat":null,"lng":null},{"id":"20261000","name":"(TBI) Vũ Quý","lat":20.4234142,"lng":106.3719153},{"id":"21069000","name":"(TBI) Vũ Thư","lat":20.443437,"lng":106.274343},{"id":"1515","name":"(TBI) Đông Hưng","lat":20.5604181,"lng":106.3573092},{"id":"1113","name":null,"lat":null,"lng":null},{"id":"20623000","name":"(TBI) Quỳnh Phụ","lat":20.650044,"lng":106.367043},{"id":"20679000","name":"(TBI) Ái Quốc","lat":20.393896,"lng":106.504522},{"id":"20790000","name":"(TBI) Thụy Anh","lat":20.559288,"lng":106.502922},{"id":"20772000","name":null,"lat":null,"lng":null}],"total":10,"plottable":7},{"code":"HN02-219","region":"HN","stops":[{"id":"1121","name":"Kho Trung Chuyển Hà Nội 02","lat":21.03305892309558,"lng":105.9217335812912},{"id":"20322000","name":null,"lat":null,"lng":null},{"id":"20913000","name":"(THN) Phổ Yên","lat":21.42183,"lng":105.872907},{"id":"20507001","name":"(THN) Đồng Hỷ","lat":21.636695,"lng":105.845766},{"id":"20234000","name":null,"lat":null,"lng":null},{"id":"20176000","name":null,"lat":null,"lng":null},{"id":"21053000","name":"(THN) Tích Lương","lat":21.537063,"lng":105.870105},{"id":"20507000","name":"(THN) Đồng Hỷ","lat":21.636695,"lng":105.845766},{"id":"20610000","name":null,"lat":null,"lng":null},{"id":"20622000","name":"(THN) Phú Lương","lat":21.734983,"lng":105.704326},{"id":"20990000","name":null,"lat":null,"lng":null},{"id":"20658000","name":"(THN) Định Hóa","lat":21.910881,"lng":105.644264},{"id":"20840000","name":null,"lat":null,"lng":null},{"id":"21076000","name":null,"lat":null,"lng":null},{"id":"20793000","name":null,"lat":null,"lng":null}],"total":15,"plottable":7},{"code":"HN02-220","region":"HN","stops":[{"id":"1121","name":"Kho Trung Chuyển Hà Nội 02","lat":21.03305892309558,"lng":105.9217335812912},{"id":"20208000","name":"Bưu Cục TDP Văn Sơn-Lập Thạch-Vĩnh Phúc","lat":21.405989,"lng":105.460407},{"id":"20325000","name":"(VPH) Yên Lãng","lat":21.46973,"lng":105.37879},{"id":"20184000","name":"(VPH) Xuân Hòa","lat":21.293161,"lng":105.714988},{"id":"1117","name":null,"lat":null,"lng":null},{"id":"20480000","name":null,"lat":null,"lng":null},{"id":"20467000","name":null,"lat":null,"lng":null},{"id":"20503000","name":null,"lat":null,"lng":null},{"id":"20626000","name":"(VPH) Tam Dương","lat":21.378012,"lng":105.540277},{"id":"20701000","name":"(VPH) Hải Lựu","lat":21.46001,"lng":105.34516},{"id":"20783000","name":null,"lat":null,"lng":null},{"id":"20832000","name":null,"lat":null,"lng":null}],"total":12,"plottable":6},{"code":"HN02-221","region":"HN","stops":[{"id":"1121","name":"Kho Trung Chuyển Hà Nội 02","lat":21.03305892309558,"lng":105.9217335812912},{"id":"20896000","name":"(YBA) Yên Bái","lat":21.6976323,"lng":104.872893},{"id":"20147000","name":null,"lat":null,"lng":null},{"id":"20915000","name":"(YBA) Bảo Ái","lat":21.8848459,"lng":104.8384664},{"id":"1935","name":null,"lat":null,"lng":null},{"id":"20247000","name":null,"lat":null,"lng":null},{"id":"20401000","name":null,"lat":null,"lng":null},{"id":"20991000","name":"(YBA) Cát Thịnh","lat":21.489861,"lng":104.72425},{"id":"21071000","name":null,"lat":null,"lng":null},{"id":"21077000","name":null,"lat":null,"lng":null},{"id":"20791000","name":"Kho Chuyển Tiếp Yên Bái","lat":21.696316,"lng":104.864495}],"total":11,"plottable":5},{"code":"HN02-222","region":"HN","stops":[{"id":"1121","name":"Kho Trung Chuyển Hà Nội 02","lat":21.03305892309558,"lng":105.9217335812912},{"id":"20023000","name":"(HTI) Can Lộc","lat":18.46308,"lng":105.768628},{"id":"20265000","name":null,"lat":null,"lng":null},{"id":"20069000","name":null,"lat":null,"lng":null},{"id":"1124","name":"(HTI) Trần Phú","lat":18.3539197,"lng":105.880253},{"id":"1385","name":null,"lat":null,"lng":null},{"id":"20271000","name":"(HTI) Hương Sơn","lat":18.508743,"lng":105.426118}],"total":7,"plottable":4},{"code":"HN02-223","region":"HN","stops":[{"id":"1121","name":"Kho Trung Chuyển Hà Nội 02","lat":21.03305892309558,"lng":105.9217335812912},{"id":"20119000","name":null,"lat":null,"lng":null},{"id":"2462","name":null,"lat":null,"lng":null},{"id":"20237000","name":null,"lat":null,"lng":null},{"id":"1402","name":"(NAN) Nghĩa Hưng","lat":19.326061,"lng":105.354112},{"id":"20337000","name":null,"lat":null,"lng":null},{"id":"20392000","name":null,"lat":null,"lng":null}],"total":7,"plottable":2},{"code":"HN02-224","region":"HN","stops":[{"id":"1121","name":"Kho Trung Chuyển Hà Nội 02","lat":21.03305892309558,"lng":105.9217335812912},{"id":"20145000","name":null,"lat":null,"lng":null},{"id":"20393000","name":null,"lat":null,"lng":null},{"id":"20196000","name":"Bưu Cục 129 Võ Nguyên Giáp-Minh Hóa-Quảng Bình","lat":17.815167,"lng":105.9675},{"id":"20302000","name":null,"lat":null,"lng":null}],"total":5,"plottable":2},{"code":"HN02-225","region":"HN","stops":[{"id":"1121","name":"Kho Trung Chuyển Hà Nội 02","lat":21.03305892309558,"lng":105.9217335812912},{"id":"20121000","name":null,"lat":null,"lng":null},{"id":"20121003","name":null,"lat":null,"lng":null},{"id":"21070000","name":null,"lat":null,"lng":null},{"id":"20978000","name":null,"lat":null,"lng":null},{"id":"20258000","name":null,"lat":null,"lng":null},{"id":"20121001","name":null,"lat":null,"lng":null},{"id":"21070001","name":null,"lat":null,"lng":null}],"total":8,"plottable":1},{"code":"HN02-226","region":"HN","stops":[{"id":"1121","name":"Kho Trung Chuyển Hà Nội 02","lat":21.03305892309558,"lng":105.9217335812912},{"id":"20933001","name":null,"lat":null,"lng":null},{"id":"20933000","name":null,"lat":null,"lng":null},{"id":"20714000","name":"(DBI) Na Sang","lat":21.750274,"lng":103.090963},{"id":"20313000","name":null,"lat":null,"lng":null},{"id":"20749000","name":"(DBI) Tuần Giáo","lat":21.585484,"lng":103.41462},{"id":"20968000","name":"(DBI) Mường Nhé","lat":22.194326,"lng":102.4544052},{"id":"20848000","name":null,"lat":null,"lng":null},{"id":"20993000","name":"(DBI) Tủa Chùa","lat":21.85351,"lng":103.34946},{"id":"20714001","name":"(DBI) Na Sang","lat":21.750274,"lng":103.090963},{"id":"20933002","name":null,"lat":null,"lng":null},{"id":"20968001","name":"(DBI) Mường Nhé","lat":22.194326,"lng":102.4544052}],"total":12,"plottable":7},{"code":"HN02-999","region":"HN","stops":[{"id":"1121","name":"Kho Trung Chuyển Hà Nội 02","lat":21.03305892309558,"lng":105.9217335812912},{"id":"21084000","name":"Kho Giao Hàng Nặng - An Dương - Hải Phòng","lat":20.848707,"lng":106.62547},{"id":"21085000","name":"Kho Giao Hàng Nặng - TP Thái Nguyên - Thái Nguyên","lat":21.501389,"lng":105.871611},{"id":"21093000","name":"Kho Giao Hàng Nặng - Long Biên - Hà Nội","lat":21.01702845475376,"lng":105.9201518404746}],"total":4,"plottable":4},{"code":"HUE-300","region":"HUE","stops":[{"id":"21060000","name":"Kho Chuyển Tiếp Thừa Thiên Huế","lat":16.40782271403912,"lng":107.5890650846541},{"id":"20597000","name":"Bưu Cục 390 Phò Trạch-Phong Điền-Thừa Thiên Huế","lat":16.565158,"lng":107.385298},{"id":"20739000","name":null,"lat":null,"lng":null},{"id":"20128000","name":null,"lat":null,"lng":null},{"id":"20298000","name":null,"lat":null,"lng":null},{"id":"20787000","name":"Bưu Cục 955 Nguyễn Tất Thành-Hương Thủy-Thừa Thiên Huế","lat":16.4158959,"lng":107.6692454},{"id":"20616000","name":null,"lat":null,"lng":null},{"id":"20395000","name":null,"lat":null,"lng":null},{"id":"21051000","name":"Bưu Cục Thôn Quảng Phú-A Lưới-Thừa Thiên Huế","lat":16.248335,"lng":107.255592},{"id":"21115000","name":"Bưu Cục G22 Cao Đình Độ-Phường Trường An-TP Huế","lat":16.442524,"lng":107.584701}],"total":10,"plottable":5},{"code":"HUE-999","region":"HUE","stops":[{"id":"21060000","name":"Kho Chuyển Tiếp Thừa Thiên Huế","lat":16.40782271403912,"lng":107.5890650846541},{"id":"21096000","name":"Kho Giao Hàng Nặng - Hương Thủy - Huế","lat":16.407585,"lng":107.589418}],"total":2,"plottable":2},{"code":"KG-100","region":"KG","stops":[{"id":"20874000","name":"Kho Chuyển Tiếp Kiên Giang","lat":9.938522780087244,"lng":105.131917731924},{"id":"20903000","name":null,"lat":null,"lng":null},{"id":"20736000","name":null,"lat":null,"lng":null},{"id":"20230000","name":null,"lat":null,"lng":null},{"id":"20630000","name":"Bưu Cục Thạnh An-An Minh-Kiên Giang","lat":9.688047,"lng":104.957739},{"id":"20255000","name":null,"lat":null,"lng":null},{"id":"20542000","name":null,"lat":null,"lng":null},{"id":"20076000","name":null,"lat":null,"lng":null},{"id":"20500000","name":null,"lat":null,"lng":null},{"id":"2528","name":"Bưu Cục 154B Mai Thị Hồng Hạnh-Rạch Giá-Kiên Giang","lat":9.945293,"lng":105.12754},{"id":"20902000","name":"Bưu Cục 02 Lâm Văn Quang-Hà Tiên-Kiên Giang","lat":10.381045,"lng":104.484423},{"id":"21011000","name":"Bưu Cục Thạnh Yên-U Minh Thượng-Kiên Giang","lat":9.666104,"lng":105.130299},{"id":"21012000","name":"Bưu Cục Vĩnh Phước QL63-Vĩnh Thuận-Kiên Giang","lat":9.517589,"lng":105.250022},{"id":"20736001","name":null,"lat":null,"lng":null},{"id":"2434","name":"Bưu Cục Đảo Kiên Hải-Kiên Giang","lat":9.978412,"lng":105.100998}],"total":15,"plottable":7},{"code":"KH-100","region":"KH","stops":[{"id":"1909","name":"Kho Trung Chuyển Khánh Hòa","lat":12.281226,"lng":109.12599},{"id":"20927000","name":null,"lat":null,"lng":null},{"id":"21118000","name":null,"lat":null,"lng":null},{"id":"20838000","name":null,"lat":null,"lng":null},{"id":"20694000","name":"(KHO) Ninh Hòa 1","lat":12.499243,"lng":109.111033},{"id":"20543000","name":"(KHO) Ninh Hòa 2","lat":12.481844,"lng":109.128245},{"id":"20558000","name":"(KHO) Khánh Vĩnh","lat":12.278108,"lng":108.910131},{"id":"20143000","name":"(KHO) Diên Khánh 2","lat":12.2702688,"lng":109.1107013},{"id":"20550000","name":null,"lat":null,"lng":null},{"id":"20588000","name":"(KHO) Cam Lâm 2","lat":12.0575176,"lng":109.1576479},{"id":"2473","name":null,"lat":null,"lng":null},{"id":"1190","name":null,"lat":null,"lng":null},{"id":"20784000","name":"(KHO) Khánh Sơn","lat":12.00601,"lng":108.942225},{"id":"21046000","name":"(KHO) Vạn Ninh","lat":12.6997212,"lng":109.2254543}],"total":14,"plottable":8},{"code":"KH-200","region":"KH","stops":[{"id":"1909","name":"Kho Trung Chuyển Khánh Hòa","lat":12.281226,"lng":109.12599},{"id":"20320000","name":"(KHO) Tây Nha Trang","lat":12.2552989,"lng":109.1662552},{"id":"20367000","name":null,"lat":null,"lng":null},{"id":"20495000","name":"(KHO) Nha Trang","lat":12.250078,"lng":109.189427},{"id":"2399","name":"(KHO) Bắc Nha Trang","lat":12.287364,"lng":109.19073},{"id":"2502","name":"(KHO) Nam Nha Trang 5","lat":12.1907937,"lng":109.1706565},{"id":"21119000","name":null,"lat":null,"lng":null}],"total":7,"plottable":5},{"code":"KH-400","region":"KH","stops":[{"id":"1909","name":"Kho Trung Chuyển Khánh Hòa","lat":12.281226,"lng":109.12599},{"id":"20316000","name":"(NTH) Ninh Sơn","lat":11.7635539,"lng":108.7913525},{"id":"20499000","name":"(NTH) Phước Dinh","lat":11.547637,"lng":108.963719},{"id":"20648000","name":"(NTH) Ninh Chử","lat":11.597799,"lng":109.034536},{"id":"1192","name":null,"lat":null,"lng":null},{"id":"20150000","name":"(NTH) Bảo An","lat":11.5836725,"lng":108.9712828}],"total":6,"plottable":5},{"code":"KH-999","region":"KH","stops":[{"id":"1909","name":"Kho Trung Chuyển Khánh Hòa","lat":12.281226,"lng":109.12599},{"id":"21094000","name":"Kho Giao Hàng Nặng - Nha Trang - Khánh Hoà","lat":12.286755,"lng":109.1395}],"total":2,"plottable":2},{"code":"LD-100","region":"LD","stops":[{"id":"20336000","name":"Kho Chuyển Tiếp Đức Trọng-Lâm Đồng","lat":11.73825,"lng":108.3633611},{"id":"20710000","name":null,"lat":null,"lng":null},{"id":"20785000","name":"(LDO) B'Lao","lat":11.539558,"lng":107.817194},{"id":"20359000","name":null,"lat":null,"lng":null},{"id":"20711000","name":null,"lat":null,"lng":null},{"id":"20708000","name":null,"lat":null,"lng":null},{"id":"20942000","name":"(LDO) Di Linh","lat":11.6001412,"lng":108.0906939},{"id":"21131000","name":"Kho Giao Hàng Nặng - TP Bảo Lộc - Lâm Đồng","lat":11.519194,"lng":107.837531}],"total":8,"plottable":4},{"code":"LD-200","region":"LD","stops":[{"id":"20336000","name":"Kho Chuyển Tiếp Đức Trọng-Lâm Đồng","lat":11.73825,"lng":108.3633611},{"id":"20686000","name":null,"lat":null,"lng":null},{"id":"2477","name":null,"lat":null,"lng":null},{"id":"20705000","name":null,"lat":null,"lng":null},{"id":"20655000","name":null,"lat":null,"lng":null},{"id":"20688000","name":null,"lat":null,"lng":null},{"id":"20705001","name":null,"lat":null,"lng":null},{"id":"21126000","name":"(LDO) Xuân Hương - Đà Lạt","lat":11.931685,"lng":108.421442},{"id":"21130000","name":"Kho Giao Hàng Nặng - TP Đà Lạt - Lâm Đồng","lat":11.966674,"lng":108.436202}],"total":9,"plottable":3},{"code":"LD-300","region":"LD","stops":[{"id":"20336000","name":"Kho Chuyển Tiếp Đức Trọng-Lâm Đồng","lat":11.73825,"lng":108.3633611},{"id":"20663000","name":"(LDO) Đạ Tẻh","lat":11.5076196,"lng":107.4895656},{"id":"20669000","name":"(LDO) Cát Tiên","lat":11.5655413,"lng":107.3698576},{"id":"1896","name":"(LDO) Đạ Huoai","lat":11.388864,"lng":107.516161}],"total":4,"plottable":4},{"code":"LD-400","region":"LD","stops":[{"id":"20336000","name":"Kho Chuyển Tiếp Đức Trọng-Lâm Đồng","lat":11.73825,"lng":108.3633611},{"id":"20849000","name":"(LDO) Ninh Gia","lat":11.635972,"lng":108.30767},{"id":"20388000","name":null,"lat":null,"lng":null},{"id":"20452000","name":null,"lat":null,"lng":null},{"id":"20849001","name":"(LDO) Ninh Gia","lat":11.635972,"lng":108.30767}],"total":5,"plottable":3},