[{"id":"1070","name":"(BVT) Rạch Dừa","type":"BC","region":"HCM","province":"Bà Rịa - Vũng Tàu","wardCode":"520114","wardName":"Phường Thắng Nhất","address":"473A Bình Giã, Phường Thắng Nhất, Thành Phố Vùng Tàu","lat":10.3745864,"lng":107.1008391,"area":{"DELIVERY":{"nC":0,"nA":0.0,"oC":4,"oA":14.2},"PICK":{"nC":0,"nA":0.0,"oC":4,"oA":14.2},"RETURN":{"nC":0,"nA":0.0,"oC":4,"oA":14.2}}},{"id":"1083","name":"(DTH) Cao Lãnh","type":"BC","region":"DCL","province":"Đồng Tháp","wardCode":"500104","wardName":"Phường 3","address":"12,14 Bà Triệu Khóm Mỹ Hưng Phường 3 ,Thành phố Cao Lãnh","lat":10.4568613,"lng":105.644726,"area":{"DELIVERY":{"nC":2,"nA":120.2,"oC":14,"oA":116.2},"PICK":{"nC":2,"nA":120.2,"oC":14,"oA":116.2},"RETURN":{"nC":2,"nA":149.8,"oC":14,"oA":116.2}}},{"id":"1084","name":"Bưu Cục 16 Đỗ Nhuận-Long Xuyên-An Giang","type":"BC","region":"TNB","province":"An Giang","wardCode":"510108","wardName":"Phường Mỹ Quý","address":"16 Đỗ Nhuận, phường Mỹ Quí, Thành phố.Long Xuyên","lat":10.3649124,"lng":105.44694,"area":{"DELIVERY":{"nC":1,"nA":37.6,"oC":8,"oA":88.4},"PICK":{"nC":1,"nA":37.6,"oC":8,"oA":88.4},"RETURN":{"nC":1,"nA":37.6,"oC":8,"oA":88.4}}},{"id":"1119","name":"(QNI) Móng Cái 1","type":"BC","region":"XBG","province":"Quảng Ninh","wardCode":"170408","wardName":"Phường Trần Phú","address":"Phường Trần Phú-Thành Phố Móng Cái-Tỉnh Quảng Ninh","lat":21.533315,"lng":107.9690054,"area":{"DELIVERY":{"nC":6,"nA":403.2,"oC":17,"oA":418.9},"PICK":{"nC":6,"nA":403.2,"oC":17,"oA":418.9},"RETURN":{"nC":0,"nA":0.0,"oC":17,"oA":418.9}}},{"id":"1122","name":"(HPH) An Biên 3","type":"BC","region":"XBG","province":"Hải Phòng","wardCode":"30215","wardName":"Phường Vĩnh Niệm","address":"Tổ 8 cụm Công nghiệp Vĩnh Niệm, phường Vĩnh Niệm, quận Lê Chân, TP Hải Phòng","lat":20.8294562,"lng":106.6714786,"area":{"DELIVERY":{"nC":0,"nA":0.0,"oC":4,"oA":5.5},"PICK":{"nC":0,"nA":0.0,"oC":4,"oA":5.5},"RETURN":{"nC":0,"nA":0.0,"oC":4,"oA":5.5}}},{"id":"1124","name":"(HTI) Trần Phú","type":"BC","region":"BTB","province":"Hà Tĩnh","wardCode":"300116","wardName":"Xã Thạch Trung","address":"Số 67 , Tân Trung , Xã Thạch Trung , Thành phố Hà Tĩnh , Tỉnh Hà Tĩnh","lat":18.3539197,"lng":105.880253,"area":{"DELIVERY":{"nC":1,"nA":30.1,"oC":11,"oA":43.5},"PICK":{"nC":1,"nA":30.1,"oC":11,"oA":43.5},"RETURN":{"nC":0,"nA":0.0,"oC":11,"oA":43.5}}},{"id":"1166","name":"(BKA) Đức Xuân","type":"BC","region":"DBB","province":"Bắc Kạn","wardCode":"110101","wardName":"Phường Đức Xuân","address":"Tổ 11A, P. Đức Xuân, TP. Bắc Kan, tỉnh Bắc Kan","lat":22.14221,"lng":105.835268,"area":{"DELIVERY":{"nC":6,"nA":599.4,"oC":27,"oA":680.2},"PICK":{"nC":6,"nA":599.4,"oC":27,"oA":680.2},"RETURN":{"nC":6,"nA":599.4,"oC":27,"oA":680.2}}},{"id":"1170","name":"Bưu Cục Nguyễn An Ninh-Vị Thanh-Hậu Giang","type":"BC","region":"TNB","province":"Hậu Giang","wardCode":"640103","wardName":"Phường IV","address":"Đường Nguyễn An Ninh,KV3,P4,Thành phố Vị Thanh,Tỉnh Hậu Giang","lat":9.791423,"lng":105.467678,"area":{"DELIVERY":{"nC":3,"nA":120.2,"oC":9,"oA":117.4},"PICK":{"nC":3,"nA":120.2,"oC":9,"oA":117.4},"RETURN":{"nC":3,"nA":120.2,"oC":9,"oA":117.4}}},{"id":"1182","name":"Bưu Cục 45/2b Quốc Lộ 62-Tân An-Long An 01","type":"BC","region":"DNB","province":"Long An","wardCode":"490102","wardName":"Phường 2","address":"452b Quốc Lộ 62 phường 2 Tân An Long An","lat":10.541498,"lng":106.4062002,"area":{"DELIVERY":{"nC":2,"nA":48.0,"oC":14,"oA":80.7},"PICK":{"nC":2,"nA":48.0,"oC":14,"oA":80.7},"RETURN":{"nC":3,"nA":83.0,"oC":14,"oA":80.7}}},{"id":"1199","name":"(TGI) Đạo Thạnh","type":"BC","region":"DCL","province":"Tiền Giang","wardCode":"530106","wardName":"Phường 5","address":"206 A Đoàn Thị Nghiệp Phường 5 TP Mỹ Tho Tỉnh Tiền Giang","lat":10.3635225,"lng":106.3426538,"area":{"DELIVERY":{"nC":3,"nA":53.1,"oC":8,"oA":51.0},"PICK":{"nC":3,"nA":53.1,"oC":8,"oA":51.0},"RETURN":{"nC":0,"nA":0.0,"oC":8,"oA":51.0}}},{"id":"1215","name":"(HYE) Phố Hiến","type":"BC","region":"DSH","province":"Hưng Yên","wardCode":"220102","wardName":"Phường Hiến Nam","address":"Số 11 Chu Mạnh Trinh, phường Hiến Nam, TP Hưng Yên, tỉnh Hưng Yên","lat":20.658027,"lng":106.062617,"area":{"DELIVERY":{"nC":7,"nA":150.3,"oC":35,"oA":149.9},"PICK":{"nC":6,"nA":128.5,"oC":35,"oA":149.9},"RETURN":{"nC":7,"nA":150.3,"oC":35,"oA":149.9}}},{"id":"1243","name":"Bưu Cục Long Khánh-Đồng Nai","type":"BC","region":"DNB","province":"Đồng Nai","wardCode":"480612","wardName":"Xã Hàng Gòn","address":"21 , Ấp Tân Phong , Xã Hàng Gòn , Thị xã Long Khánh , Đồng Nai (Tân Phong 2)","lat":10.8918887,"lng":107.2177167,"area":{"DELIVERY":{"nC":2,"nA":74.6,"oC":7,"oA":81.6},"PICK":{"nC":2,"nA":74.6,"oC":8,"oA":85.3},"RETURN":{"nC":2,"nA":74.6,"oC":8,"oA":85.3}}},{"id":"1285","name":"Bưu cục Quốc Oai-HN","type":"BC","region":"HNO","province":"Hà Nội","wardCode":"1B2019","wardName":"Xã Thạch Thán","address":"Đội 5 Thạch Thán , Quốc Oai , Hà Nội (Xóm 6)","lat":20.987643,"lng":105.635981,"area":{"DELIVERY":{"nC":2,"nA":49.2,"oC":3,"oA":20.2},"PICK":{"nC":2,"nA":49.2,"oC":3,"oA":20.2},"RETURN":{"nC":3,"nA":82.9,"oC":3,"oA":20.2}}},{"id":"1290","name":"Bưu Cục 242 Tỉnh Lộ 2-Củ Chi-HCM","type":"BC","region":"HCM","province":"Hồ Chí Minh","wardCode":"22120","wardName":"Xã Trung Lập Hạ","address":"242 Tỉnh Lộ 2, Ấp Xóm Mới, Xã Trung Lập Hạ, Củ Chi, Thành phố.HCM","lat":11.009473,"lng":106.47105,"area":{"DELIVERY":{"nC":1,"nA":62.3,"oC":6,"oA":127.1},"PICK":{"nC":1,"nA":62.3,"oC":6,"oA":127.1},"RETURN":{"nC":1,"nA":62.3,"oC":6,"oA":127.1}}},{"id":"1297","name":"Key Account Warehouse Ha Noi","type":"KHL","region":"HNO","province":"Hà Nội","wardCode":"1A0912","wardName":"Phường Thạch Bàn","address":"Hà Nội Đài Tư (386 Nguyễn Văn Linh, Quận Long Biên, Hà Nội)..","lat":21.033113,"lng":105.921483,"area":{"DELIVERY":{"nC":0,"nA":0.0,"oC":1,"oA":0.0},"PICK":{"nC":0,"nA":0.0,"oC":0,"oA":0.0},"RETURN":{"nC":0,"nA":0.0,"oC":1,"oA":0.0}}},{"id":"1302","name":"Bưu Cục Cần Giờ-HCM","type":"BC","region":"HCM","province":"Hồ Chí Minh","wardCode":"22406","wardName":"Xã Tam Thôn Hiệp","address":"202 Ấp An Hòa Xã Tam Thôn Hiệp H Cần Giờ, TP.Hồ Chí Minh","lat":10.5878863,"lng":106.851401,"area":{"DELIVERY":{"nC":2,"nA":396.4,"oC":4,"oA":395.8},"PICK":{"nC":2,"nA":396.4,"oC":4,"oA":395.8},"RETURN":{"nC":4,"nA":665.2,"oC":4,"oA":395.8}}},{"id":"1310","name":"(BVT) Côn Đảo","type":"BC","region":"HCM","province":"Bà Rịa - Vũng Tàu","wardCode":"541305","wardName":"Côn Đảo","address":"Côn Đảo-Bà Rịa Vũng Tàu","lat":8.6900103,"lng":106.5968871,"area":{"DELIVERY":{"nC":1,"nA":75.3,"oC":2,"oA":0.0},"PICK":{"nC":1,"nA":75.3,"oC":2,"oA":0.0},"RETURN":{"nC":1,"nA":75.3,"oC":2,"oA":0.0}}},{"id":"1317","name":"(THO) Tĩnh Gia","type":"BC","region":"BTB","province":"Thanh Hóa","wardCode":"282610","wardName":"Phường Hải Hòa","address":"Thôn Đức Thành, Xã Ninh Hải, Huyện Tĩnh Gia, Tỉnh Thanh Hóa","lat":19.4669341,"lng":105.788506,"area":{"DELIVERY":{"nC":6,"nA":223.3,"oC":22,"oA":223.0},"PICK":{"nC":6,"nA":223.3,"oC":22,"oA":223.0},"RETURN":{"nC":0,"nA":0.0,"oC":22,"oA":223.0}}},{"id":"1319","name":"Bưu Cục 110 Nguyễn Huệ-Trảng Bom-Đồng Nai","type":"BC","region":"DNB","province":"Đồng Nai","wardCode":"481001","wardName":"Thị trấn Trảng Bom","address":"Đường Nguyễn Huệ, Khu phố 3, thị trấn Trảng Bom, H Trảng Bom, tỉnh Đồng Nai","lat":10.954525,"lng":107.006647,"area":{"DELIVERY":{"nC":0,"nA":0.0,"oC":5,"oA":128.9},"PICK":{"nC":0,"nA":0.0,"oC":5,"oA":128.9},"RETURN":{"nC":0,"nA":0.0,"oC":5,"oA":128.9}}},{"id":"1327","name":"Key Account Warehouse Ho Chi Minh","type":"KHL","region":"DNB","province":"Long An","wardCode":"490717","wardName":"Xã Mỹ Hạnh Bắc","address":"Kho số A03, Dự Án SLP Park Xuyên Á, tọa lạc tại Lô HH, Đường số 11 và Đường số 3, Khu Công Nghiệp Xuyên Á, Phường Mỹ Hạnh Bắc, Huyện Đức Hòa, Long An..","lat":10.893424,"lng":106.525196,"area":{"DELIVERY":{"nC":0,"nA":0.0,"oC":2,"oA":0.0},"PICK":{"nC":0,"nA":0.0,"oC":2,"oA":0.0},"RETURN":{"nC":0,"nA":0.0,"oC":2,"oA":0.0}}},{"id":"1333","name":"Bưu Cục Tân Kiên-Bình Chánh-HCM","type":"BC","region":"HCM","province":"Hồ Chí Minh","wardCode":"22012","wardName":"Xã Tân Kiên","address":"C1212A4, Ấp 3, xã Tân Kiên, huyện Bình Chánh, TP.HCM","lat":10.7115,"lng":106.600723,"area":{"DELIVERY":{"nC":0,"nA":0.0,"oC":2,"oA":33.4},"PICK":{"nC":0,"nA":0.0,"oC":2,"oA":33.4},"RETURN":{"nC":1,"nA":15.2,"oC":2,"oA":33.4}}},{"id":"1337","name":"Bưu Cục 63 Vĩnh Hội-Q.4-HCM","type":"BC","region":"HCM","province":"Hồ Chí Minh","wardCode":"20404","wardName":"Phường 4","address":"Số 63 Vĩnh Hội, Phường 4, Quận 4","lat":10.756358,"lng":106.703772,"area":{"DELIVERY":{"nC":1,"nA":2.1,"oC":9,"oA":1.6},"PICK":{"nC":1,"nA":2.1,"oC":9,"oA":1.6},"RETURN":{"nC":1,"nA":2.1,"oC":9,"oA":1.6}}},{"id":"1352","name":"Bưu Cục 114 Yên Lãng-Q.Đống Đa-HN","type":"BC","region":"HNO","province":"Hà Nội","wardCode":"1A0415","wardName":"Phường Thịnh Quang","address":"114 Yên Lãng, Đống Đa, Hà Nội (Số 60 Yên Lãng)","lat":21.010084,"lng":105.815667,"area":{"DELIVERY":{"nC":0,"nA":0.0,"oC":0,"oA":0.0},"PICK":{"nC":0,"nA":0.0,"oC":0,"oA":0.0},"RETURN":{"nC":0,"nA":0.0,"oC":0,"oA":0.0}}},{"id":"1353","name":"Bưu Cục 188 Khương Đình-Q.Thanh Xuân-HN","type":"BC","region":"HNO","province":"Hà Nội","wardCode":"1A0701","wardName":"Phường Hạ Đình","address":"Số 188 Khương Đình (Tổ 1 Cụm 1), Phường Hạ Đình, Quận Thanh Xuân, TP. Hà Nội","lat":20.993634,"lng":105.81394,"area":{"DELIVERY":{"nC":0,"nA":0.0,"oC":0,"oA":0.0},"PICK":{"nC":0,"nA":0.0,"oC":0,"oA":0.0},"RETURN":{"nC":1,"nA":3.0,"oC":0,"oA":0.0}}},{"id":"1356","name":"Bưu Cục 221 Kim Ngưu-Q.Hai Bà Trưng-HN","type":"BC","region":"HNO","province":"Hà Nội","wardCode":"1A0317","wardName":"Phường Thanh Lương","address":"221 Kim Ngưu, Phường Thanh Lương, Quận Hai Bà Trưng, Hà Nội","lat":21.00507788867048,"lng":105.8614152245288,"area":{"DELIVERY":{"nC":0,"nA":0.0,"oC":0,"oA":0.0},"PICK":{"nC":0,"nA":0.0,"oC":0,"oA":0.0},"RETURN":{"nC":0,"nA":0.0,"oC":0,"oA":0.0}}},{"id":"1378","name":"Bưu Cục 274 Điện Biên Phủ-Duy Xuyên-Quảng Nam","type":"BC","region":"TTB","province":"Quảng Nam","wardCode":"340301","wardName":"Thị trấn Nam Phước","address":"274 Điện Biên Phủ, thị trấn Nam Phước, H Duy Xuyên, tỉnh Quảng Nam","lat":15.8374899,"lng":108.284701,"area":{"DELIVERY":{"nC":4,"nA":311.3,"oC":17,"oA":345.1},"PICK":{"nC":4,"nA":311.3,"oC":17,"oA":345.1},"RETURN":{"nC":0,"nA":0.0,"oC":17,"oA":345.1}}},{"id":"1379","name":"Bưu Cục 97 Thiên Hiền-Q.Nam Từ Liêm-HN","type":"BC","region":"HNO","province":"Hà Nội","wardCode":"13004","wardName":"Phường Mỹ Đình 1","address":"Số 97 Thiên hiền , Phường Mỹ Đình 1, QUận Nam Từ Liêm , Hà Nội","lat":21.02294,"lng":105.775855,"area":{"DELIVERY":{"nC":0,"nA":0.0,"oC":1,"oA":2.2},"PICK":{"nC":0,"nA":0.0,"oC":0,"oA":0.0},"RETURN":{"nC":0,"nA":0.0,"oC":0,"oA":0.0}}},{"id":"1394","name":"Bưu Cục 29A Đường Số 5-Q.2-HCM","type":"BC","region":"HCM","province":"Hồ Chí Minh","wardCode":"20208","wardName":"Phường Cát Lái","address":"29A đường số 5, KP2, Phường cát lái, Quận 2, Hồ Chí Minh","lat":10.7751905,"lng":106.770249,"area":{"DELIVERY":{"nC":1,"nA":20.1,"oC":8,"oA":23.0},"PICK":{"nC":1,"nA":20.1,"oC":8,"oA":23.0},"RETURN":{"nC":2,"nA":34.8,"oC":8,"oA":23.0}}},{"id":"1398","name":"Bưu Cục Thống Nhất-Đồng Nai","type":"BC","region":"DNB","province":"Đồng Nai","wardCode":"800154","wardName":"Thị Trấn Dầu Giây","address":"Khu phố Trần Cao Vân, thị trấn Dầu Giây, huyện Thống Nhất, tỉnh Đồng Nai","lat":10.9453693,"lng":107.13537,"area":{"DELIVERY":{"nC":1,"nA":98.4,"oC":6,"oA":91.4},"PICK":{"nC":1,"nA":98.4,"oC":6,"oA":91.4},"RETURN":{"nC":1,"nA":98.4,"oC":6,"oA":91.4}}},{"id":"1402","name":"(NAN) Nghĩa Hưng","type":"BC","region":"BTB","province":"Nghệ An","wardCode":"290512","wardName":"Xã Nghĩa Liên","address":"Xóm Liên Hiệp 2, Xã Nghĩa Thành, Huyện Nghĩa Đàn, Tỉnh Nghệ An","lat":19.326061,"lng":105.354112,"area":{"DELIVERY":{"nC":5,"nA":361.4,"oC":21,"oA":378.3},"PICK":{"nC":5,"nA":361.4,"oC":21,"oA":378.3},"RETURN":{"nC":5,"nA":361.4,"oC":21,"oA":378.3}}},{"id":"1403","name":"(HPH) An Hải","type":"BC","region":"XBG","province":"Hải Phòng","wardCode":"31002","wardName":"Xã An Đồng","address":"Đường Máng Nước, Xã An Đồng, Huyện An Dương, Thành phố Hải Phòng","lat":20.861416,"lng":106.637908,"area":{"DELIVERY":{"nC":0,"nA":0.0,"oC":7,"oA":29.7},"PICK":{"nC":0,"nA":0.0,"oC":7,"oA":29.7},"RETURN":{"nC":0,"nA":0.0,"oC":7,"oA":29.7}}},{"id":"1409","name":"Bưu Cục Tân Châu-An Giang","type":"BC","region":"TNB","province":"An Giang","wardCode":"510401","wardName":"Phường Long Thạnh","address":"Đường lộ sau Sông Tiền, Phường Long Thạnh, Thị xã Tân Châu, An Giang","lat":10.795306,"lng":105.252056,"area":{"DELIVERY":{"nC":5,"nA":172.3,"oC":14,"oA":175.7},"PICK":{"nC":5,"nA":172.3,"oC":14,"oA":175.7},"RETURN":{"nC":4,"nA":134.5,"oC":14,"oA":175.7}}},{"id":"1418","name":"Bưu Cục 119 Nguyễn Văn Luông-Q.6-HCM","type":"BC","region":"HCM","province":"Hồ Chí Minh","wardCode":"20610","wardName":"Phường 10","address":"119 Nguyễn Văn Luông, Phường 10, Quận 6, TP.HCM","lat":10.73829,"lng":106.63353,"area":{"DELIVERY":{"nC":1,"nA":1.6,"oC":8,"oA":3.2},"PICK":{"nC":1,"nA":1.6,"oC":8,"oA":3.2},"RETURN":{"nC":1,"nA":1.6,"oC":8,"oA":3.2}}},{"id":"1423","name":"(NBI) Trung Sơn","type":"BC","region":"TNT","province":"Ninh Bình","wardCode":"270207","wardName":"Xã Đông Sơn","address":"Thôn 4C, Xã Đông Sơn, Thành phố Tam Điệp, Tỉnh Ninh Bình","lat":20.1467891,"lng":105.9227752,"area":{"DELIVERY":{"nC":3,"nA":114.1,"oC":9,"oA":113.6},"PICK":{"nC":3,"nA":114.1,"oC":9,"oA":113.6},"RETURN":{"nC":2,"nA":78.1,"oC":9,"oA":113.6}}},{"id":"1432","name":"Bưu Cục 183 Trần Phú-Vĩnh Linh-Quảng Trị","type":"BC","region":"TTB","province":"Quảng Trị","wardCode":"320303","wardName":"Thị trấn Hồ Xá","address":"183 Trần Phú, thị trấn Hồ Xá, H Vĩnh Linh, tỉnh Quảng Trị","lat":17.0664796,"lng":107.0132297,"area":{"DELIVERY":{"nC":5,"nA":619.0,"oC":25,"oA":618.8},"PICK":{"nC":5,"nA":619.0,"oC":25,"oA":618.8},"RETURN":{"nC":0,"nA":0.0,"oC":25,"oA":618.8}}},{"id":"1433","name":"(BVT) Hồ Tràm","type":"BC","region":"HCM","province":"Bà Rịa - Vũng Tàu","wardCode":"520301","wardName":"Thị trấn Phước Bửu","address":"Khu phố Xóm Rẫy, Phước Bửu , H Xuyên Mộc , Tỉnh Bà Rịa - Vũng Tàu","lat":10.5247562,"lng":107.4007476,"area":{"DELIVERY":{"nC":3,"nA":279.2,"oC":9,"oA":346.3},"PICK":{"nC":3,"nA":279.2,"oC":9,"oA":346.3},"RETURN":{"nC":2,"nA":176.8,"oC":9,"oA":346.3}}},{"id":"1434","name":"(BDI) Hoài Nhơn Nam 2","type":"BC","region":"TNG","province":"Bình Định","wardCode":"370412","wardName":"Phường Hoài Tân","address":"Dốc Võng Quốc Lộ 1A, An Dưỡng 2, Hoài Tân, Hoài Nhơn, Bình Định","lat":14.480658,"lng":109.03351,"area":{"DELIVERY":{"nC":3,"nA":183.2,"oC":7,"oA":180.5},"PICK":{"nC":3,"nA":183.2,"oC":7,"oA":180.5},"RETURN":{"nC":3,"nA":183.2,"oC":7,"oA":180.5}}},{"id":"1441","name":"(NDI) Trực Ninh","type":"BC","region":"TNT","province":"Nam Định","wardCode":"250813","wardName":"Xã Trực Nội","address":"Trực Nội, Trực Ninh, Nam Định","lat":20.247375,"lng":106.224672,"area":{"DELIVERY":{"nC":5,"nA":97.9,"oC":15,"oA":98.8},"PICK":{"nC":5,"nA":97.9,"oC":15,"oA":98.8},"RETURN":{"nC":4,"nA":79.6,"oC":15,"oA":98.8}}},{"id":"1443","name":"(HPH) Tân Minh","type":"BC","region":"XBG","province":"Hải Phòng","wardCode":"31103","wardName":"Xã Bạch Đằng","address":"Xã Bạch Đằng, Huyện Tiên Lãng, Tỉnh Hải Phòng","lat":20.709103,"lng":106.5655546,"area":{"DELIVERY":{"nC":6,"nA":180.2,"oC":24,"oA":185.8},"PICK":{"nC":6,"nA":180.2,"oC":24,"oA":185.8},"RETURN":{"nC":6,"nA":180.2,"oC":24,"oA":185.8}}},{"id":"1445","name":"Bưu Cục Tân Phú-Đồng Nai","type":"BC","region":"DNB","province":"Đồng Nai","wardCode":"480318","wardName":"Xã Trà Cổ","address":"Số 37 đường Bè 128, Ấp 4, xã Trà Cổ, H Tân Phú, tỉnh Đồng Nai","lat":11.259027,"lng":107.455536,"area":{"DELIVERY":{"nC":2,"nA":173.3,"oC":11,"oA":192.4},"PICK":{"nC":2,"nA":173.3,"oC":11,"oA":192.4},"RETURN":{"nC":2,"nA":173.3,"oC":11,"oA":192.4}}},{"id":"1446","name":"(BDU) Phước Hòa","type":"BC","region":"HCM","province":"Bình Dương","wardCode":"440611","wardName":"Xã Vĩnh Hoà","address":"37638 tổ 3, ấp Trảng sắn, xã vĩnh hòa, Phú Giáo, Bình Dương","lat":11.2751,"lng":106.778815,"area":{"DELIVERY":{"nC":3,"nA":442.8,"oC":9,"oA":468.3},"PICK":{"nC":3,"nA":442.8,"oC":9,"oA":468.3},"RETURN":{"nC":3,"nA":442.8,"oC":9,"oA":468.3}}},{"id":"1479","name":"Bưu Cục 104 Lương Ngọc Quyến-Q.Bình Thạnh-HCM","type":"BC","region":"HCM","province":"Hồ Chí Minh","wardCode":"21609","wardName":"Phường 13","address":"104 Lương Ngọc Quyến-Q.Bình Thạnh-HCM","lat":10.8245,"lng":106.701861,"area":{"DELIVERY":{"nC":0,"nA":0.0,"oC":2,"oA":3.7},"PICK":{"nC":0,"nA":0.0,"oC":2,"oA":3.7},"RETURN":{"nC":0,"nA":0.0,"oC":2,"oA":3.7}}},{"id":"1501","name":"(BDU) Bàu Bàng","type":"BC","region":"HCM","province":"Bình Dương","wardCode":"440803","wardName":"Xã Lai Hưng","address":"Xã Lai Uyên Huyện Bàu Bàng Tỉnh Bình Dương","lat":11.2418409,"lng":106.6328418,"area":{"DELIVERY":{"nC":1,"nA":84.8,"oC":5,"oA":266.7},"PICK":{"nC":1,"nA":84.8,"oC":5,"oA":266.7},"RETURN":{"nC":1,"nA":84.8,"oC":5,"oA":266.7}}},{"id":"1514","name":"Bưu Cục 393 Tôn Đức Thắng-Hòa Thành-Tây Ninh","type":"BC","region":"DNB","province":"Tây Ninh","wardCode":"460605","wardName":"Xã Long Thành Trung","address":"393 Tôn Đức Thắng Ấp Long Thành Xã Long thành Trung Huyện Hòa Thành Tỉnh tây Ninh","lat":11.265901,"lng":106.131211,"area":{"DELIVERY":{"nC":1,"nA":20.5,"oC":5,"oA":77.3},"PICK":{"nC":1,"nA":20.5,"oC":5,"oA":77.3},"RETURN":{"nC":0,"nA":0.0,"oC":5,"oA":77.3}}},{"id":"1515","name":"(TBI) Đông Hưng","type":"BC","region":"DSH","province":"Thái Bình","wardCode":"260417","wardName":"Xã Đông La","address":"khu công nghiệp đông la đông hưng thái bình","lat":20.5604181,"lng":106.3573092,"area":{"DELIVERY":{"nC":9,"nA":197.3,"oC":52,"oA":196.1},"PICK":{"nC":9,"nA":197.3,"oC":52,"oA":196.1},"RETURN":{"nC":0,"nA":0.0,"oC":47,"oA":157.4}}},{"id":"1519","name":"Bưu Cục Chơn Thành-Bình Phước","type":"BC","region":"DNB","province":"Bình Phước","wardCode":"430306","wardName":"Xã Minh Thành","address":"Số nhà 69, tổ 3, ấp 2, xã Minh Thành, huyện Chơn Thành, tỉnh Bình Phước","lat":11.442112,"lng":106.659952,"area":{"DELIVERY":{"nC":2,"nA":260.6,"oC":9,"oA":324.7},"PICK":{"nC":2,"nA":260.6,"oC":9,"oA":324.7},"RETURN":{"nC":2,"nA":260.6,"oC":9,"oA":324.7}}},{"id":"1892","name":"(QNI) Vân Đồn","type":"BC","region":"XBG","province":"Quảng Ninh","wardCode":"171307","wardName":"Xã Hạ Long","address":"Thôn 14, Xã Hạ Long, Huyện Vân Đồn, Tỉnh Quảng Ninh","lat":21.0709195,"lng":107.429446,"area":{"DELIVERY":{"nC":0,"nA":0.0,"oC":7,"oA":292.2},"PICK":{"nC":0,"nA":0.0,"oC":7,"oA":292.2},"RETURN":{"nC":0,"nA":0.0,"oC":7,"oA":292.2}}},{"id":"1896","name":"(LDO) Đạ Huoai","type":"BC","region":"NTB","province":"Lâm Đồng","wardCode":"420901","wardName":"Thị trấn Cát Tiên","address":"Huyện Cát Tiên-Lâm Đồng","lat":11.388864,"lng":107.516161,"area":{"DELIVERY":{"nC":3,"nA":493.1,"oC":11,"oA":491.0},"PICK":{"nC":3,"nA":493.1,"oC":11,"oA":491.0},"RETURN":{"nC":3,"nA":493.1,"oC":11,"oA":491.0}}},{"id":"1933","name":"(DTH) An Bình","type":"BC","region":"DCL","province":"Đồng Tháp","wardCode":"501204","wardName":"Xã An Bình A","address":"Ấp An Lợi, Xã An Bình A, Thị xã Hồng Ngự, Đồng Tháp","lat":10.7758664,"lng":105.3551587,"area":{"DELIVERY":{"nC":7,"nA":402.6,"oC":26,"oA":382.9},"PICK":{"nC":7,"nA":402.6,"oC":26,"oA":382.9},"RETURN":{"nC":7,"nA":402.6,"oC":26,"oA":382.9}}},{"id":"1934","name":"(BTR) Mỏ Cày","type":"BC","region":"DCL","province":"Bến Tre","wardCode":"560901","wardName":"Thị trấn Mỏ Cày","address":"Quốc Lộ 60 Khu phố 4 Thị Trấn Mỏ Cày,H Mỏ Cày Nam,Tỉnh Bến Tre","lat":10.12045,"lng":106.338258,"area":{"DELIVERY":{"nC":3,"nA":128.3,"oC":13,"oA":143.5},"PICK":{"nC":3,"nA":128.3,"oC":13,"oA":143.5},"RETURN":{"nC":5,"nA":229.8,"oC":12,"oA":127.9}}},{"id":"2276","name":"Bưu Cục 1135 Phan Văn Trị-Q.Gò Vấp-HCM","type":"BC","region":"HCM","province":"Hồ Chí Minh","wardCode":"21306","wardName":"Phường 10","address":"1135 Phan Văn Trị P.10, Q.Gò Vấp","lat":10.832417,"lng":106.673278,"area":{"DELIVERY":{"nC":0,"nA":0.0,"oC":2,"oA":1.9},"PICK":{"nC":0,"nA":0.0,"oC":1,"oA":1.0},"RETURN":{"nC":0,"nA":0.0,"oC":1,"oA":1.0}}},{"id":"2278","name":"Bưu Cục Cần Đước-Long An","type":"BC","region":"DNB","province":"Long An","wardCode":"491201","wardName":"Thị trấn Cần Đước","address":"Cần Đước, Long An","lat":10.5118799,"lng":106.6040482,"area":{"DELIVERY":{"nC":3,"nA":127.0,"oC":8,"oA":127.0},"PICK":{"nC":3,"nA":127.0,"oC":8,"oA":127.0},"RETURN":{"nC":3,"nA":127.0,"oC":8,"oA":127.0}}},{"id":"2309","name":"(DNO) Đức Lập","type":"BC","region":"NTB","province":"Đắk Nông","wardCode":"630307","wardName":"Xã Đức Mạnh","address":"Thôn Đức Tân, xã Đức Mạnh, huyện Đắk Mil, tình Đắk Nông","lat":12.4536119,"lng":107.6314262,"area":{"DELIVERY":{"nC":3,"nA":618.1,"oC":10,"oA":681.4},"PICK":{"nC":3,"nA":618.1,"oC":10,"oA":681.4},"RETURN":{"nC":3,"nA":618.1,"oC":10,"oA":681.4}}},{"id":"2320","name":"Bưu Cục Vận Hành Đảo Lý Sơn-Quảng Ngãi","type":"BC","region":"TTB","province":"Quảng Ngãi","wardCode":"350203","wardName":"Xã An Vĩnh","address":"Thôn Đông, xã An Vĩnh, huyện Lý Sơn, tỉnh Quảng Ngãi","lat":15.375175,"lng":109.12677,"area":{"DELIVERY":{"nC":1,"nA":10.2,"oC":3,"oA":0.0},"PICK":{"nC":1,"nA":10.2,"oC":3,"oA":0.0},"RETURN":{"nC":0,"nA":0.0,"oC":3,"oA":0.0}}},{"id":"2332","name":"Bưu Cục 55C Nguyễn Khoái-Q.Hai Bà Trưng-HN","type":"BC","region":"HNO","province":"Hà Nội","wardCode":"1A0301","wardName":"Phường Bạch Đằng","address":"55C Nguyễn Khoái, Phường Bạch Đằng, Quận Hai Bà Trưng, TP. Hà Nội","lat":21.015425,"lng":105.863139,"area":{"DELIVERY":{"nC":0,"nA":0.0,"oC":0,"oA":0.0},"PICK":{"nC":0,"nA":0.0,"oC":0,"oA":0.0},"RETURN":{"nC":0,"nA":0.0,"oC":0,"oA":0.0}}},{"id":"2357","name":"(BTH) Đồng Kho","type":"BC","region":"NTB","province":"Bình Thuận","wardCode":"470804","wardName":"Xã Đức Bình","address":"158 Quốc lộ 55, xã Đức Bình, huyện Tánh Linh, tỉnh Bình Thuận","lat":11.1069444,"lng":107.7306148,"area":{"DELIVERY":{"nC":5,"nA":1198.2,"oC":14,"oA":1204.9},"PICK":{"nC":5,"nA":1198.2,"oC":14,"oA":1204.9},"RETURN":{"nC":5,"nA":1198.2,"oC":14,"oA":1204.9}}},{"id":"2361","name":"Bưu Cục Tri Tôn-An Giang","type":"BC","region":"TNB","province":"An Giang","wardCode":"510704","wardName":"Xã Châu Lăng","address":"Ấp An Thuận, xã Châu Lăng, huyện Tri Tôn, tỉnh An Giang","lat":10.4378598,"lng":104.9961005,"area":{"DELIVERY":{"nC":7,"nA":774.3,"oC":21,"oA":804.8},"PICK":{"nC":7,"nA":774.3,"oC":21,"oA":804.8},"RETURN":{"nC":7,"nA":774.3,"oC":21,"oA":804.8}}},{"id":"2363","name":"Bưu Cục Khu Phố 2-Thạnh Hoá-Long An","type":"BC","region":"DNB","province":"Long An","wardCode":"490501","wardName":"Thị trấn Thạnh Hóa","address":"Khu phố 2, Thị trấn Thạnh Hóa, Huyện Thạnh Hóa, Long An","lat":10.64078,"lng":106.181572,"area":{"DELIVERY":{"nC":3,"nA":365.4,"oC":11,"oA":470.3},"PICK":{"nC":3,"nA":365.4,"oC":11,"oA":470.3},"RETURN":{"nC":3,"nA":365.4,"oC":11,"oA":470.3}}},{"id":"2376","name":"Bưu Cục 2999 Phạm Thế Hiển-Q.8-HCM","type":"BC","region":"HCM","province":"Hồ Chí Minh","wardCode":"20807","wardName":"Phường 7","address":"2999 Phạm Thế Hiển, Phường 7, Quận 8, TP.HCM","lat":10.7168692,"lng":106.6324732,"area":{"DELIVERY":{"nC":0,"nA":0.0,"oC":3,"oA":10.5},"PICK":{"nC":0,"nA":0.0,"oC":3,"oA":10.5},"RETURN":{"nC":0,"nA":0.0,"oC":3,"oA":10.5}}},{"id":"2389","name":"Bưu Cục 107 Nguyễn Chí Thanh-Q.Đống Đa-HN","type":"BC","region":"HNO","province":"Hà Nội","wardCode":"1A0407","wardName":"Phường Láng Thượng","address":"số 15, Ngõ 107 Nguyễn Chí Thanh","lat":21.015249,"lng":105.80551,"area":{"DELIVERY":{"nC":0,"nA":0.0,"oC":0,"oA":0.0},"PICK":{"nC":0,"nA":0.0,"oC":0,"oA":0.0},"RETURN":{"nC":1,"nA":1.6,"oC":0,"oA":0.0}}},{"id":"2393","name":"(TQU) Hàm Yên","type":"BC","region":"DBB","province":"Tuyên Quang","wardCode":"90501","wardName":"Thị trấn Tân Yên","address":"Số 868 tổ dân phố Tân Quang, thị trấn Tân Yên, huyện Hàm Yên, tỉnh Tuyên Quang","lat":22.039025,"lng":105.037502,"area":{"DELIVERY":{"nC":6,"nA":548.1,"oC":13,"oA":548.7},"PICK":{"nC":6,"nA":548.1,"oC":13,"oA":548.7},"RETURN":{"nC":0,"nA":0.0,"oC":13,"oA":548.7}}},{"id":"2399","name":"(KHO) Bắc Nha Trang","type":"BC","region":"NTB","province":"Khánh Hòa","wardCode":"410113","wardName":"Phường Vĩnh Hải","address":"41A đường 2 tháng 4, phường Vĩnh Hòa, thành phố Nha Trang, tỉnh Khánh Hòa","lat":12.287364,"lng":109.19073,"area":{"DELIVERY":{"nC":1,"nA":97.4,"oC":6,"oA":95.4},"PICK":{"nC":1,"nA":97.4,"oC":6,"oA":95.4},"RETURN":{"nC":0,"nA":0.0,"oC":6,"oA":95.4}}},{"id":"2409","name":"(QNI) Cửa Ông 2","type":"BC","region":"XBG","province":"Quảng Ninh","wardCode":"170211","wardName":"Phường Cửa Ông","address":"Số nhà 143 tổ 43 Khu 4B1, phường Cửa Ông, TP. Cẩm Phả, Tỉnh Quảng Ninh","lat":21.0389999,"lng":107.3586827,"area":{"DELIVERY":{"nC":1,"nA":168.3,"oC":7,"oA":283.3},"PICK":{"nC":1,"nA":168.3,"oC":7,"oA":283.3},"RETURN":{"nC":0,"nA":0.0,"oC":7,"oA":283.3}}},{"id":"2410","name":"(TVI) Duyên Hải","type":"BC","region":"DCL","province":"Trà Vinh","wardCode":"580907","wardName":"Xã Trường Long Hòa","address":"Trà Vinh","lat":9.6468369,"lng":106.5007387,"area":{"DELIVERY":{"nC":7,"nA":405.1,"oC":13,"oA":409.0},"PICK":{"nC":7,"nA":405.1,"oC":13,"oA":409.0},"RETURN":{"nC":0,"nA":0.0,"oC":13,"oA":409.0}}},{"id":"2417","name":"(BDU) Bình Dương 2","type":"BC","region":"HCM","province":"Bình Dương","wardCode":"440110","wardName":"Phường Phú Mỹ","address":"870 Huỳnh Văn Lũy, P.Phú Mỹ, TP.Thủ Dầu Một, Bình Dương","lat":11.0240777,"lng":106.6788661,"area":{"DELIVERY":{"nC":0,"nA":0.0,"oC":2,"oA":20.5},"PICK":{"nC":0,"nA":0.0,"oC":2,"oA":20.5},"RETURN":{"nC":0,"nA":0.0,"oC":2,"oA":20.5}}},{"id":"2429","name":"Bưu Cục Long Phước-Long Thành-Đồng Nai","type":"BC","region":"DNB","province":"Đồng Nai","wardCode":"480815","wardName":"Xã Tân Hiệp","address":"Tổ 5, Ấp 1, xã Tân Hiệp, huyện Long Thành, tình Đồng Nai","lat":10.685206,"lng":107.0364163,"area":{"DELIVERY":{"nC":1,"nA":86.4,"oC":3,"oA":87.1},"PICK":{"nC":1,"nA":86.4,"oC":3,"oA":87.1},"RETURN":{"nC":2,"nA":167.3,"oC":3,"oA":87.1}}},{"id":"2431","name":"Bưu Cục 54 Hùng Vương-Năm Căn-Cà Mau","type":"BC","region":"TNB","province":"Cà Mau","wardCode":"610801","wardName":"Thị Trấn Năm Căn","address":"Khu vực 3, khóm 3, thị trấn Năm Căn, huyện Năm Căn, tỉnh Cà Mau","lat":8.757212,"lng":104.980232,"area":{"DELIVERY":{"nC":2,"nA":267.9,"oC":9,"oA":593.6},"PICK":{"nC":2,"nA":267.9,"oC":9,"oA":593.6},"RETURN":{"nC":3,"nA":469.2,"oC":9,"oA":593.6}}},{"id":"2434","name":"Bưu Cục Đảo Kiên Hải-Kiên Giang","type":"BC","region":"TNB","province":"Kiên Giang","wardCode":"540101","wardName":"Phường An Bình","address":"L03-04 Trần Quang Khải, Phường An Bình, TP Rạch Giá, Tỉnh Kiên Giang","lat":9.978412,"lng":105.100998,"area":{"DELIVERY":{"nC":1,"nA":24.6,"oC":4,"oA":20.6},"PICK":{"nC":1,"nA":24.6,"oC":4,"oA":20.6},"RETURN":{"nC":1,"nA":24.6,"oC":4,"oA":20.6}}},{"id":"2439","name":"Bưu Cục 04 Nhất Chi Mai-Q.Tân Bình-HCM","type":"BC","region":"HCM","province":"Hồ Chí Minh","wardCode":"21413","wardName":"Phường 13","address":"Số 4 Nhất Chi Mai, Phường 13, Quận Tân Bình, TP.HCM","lat":10.8028396,"lng":106.639924,"area":{"DELIVERY":{"nC":0,"nA":0.0,"oC":2,"oA":1.6},"PICK":{"nC":0,"nA":0.0,"oC":2,"oA":1.6},"RETURN":{"nC":0,"nA":0.0,"oC":2,"oA":1.6}}},{"id":"2441","name":"Bưu Cục 16A Lê Hồng Phong-Q.10-HCM","type":"BC","region":"HCM","province":"Hồ Chí Minh","wardCode":"21012","wardName":"Phường 12","address":"16A Lê Hồng Phong, Phường 12, Quận 10, TPHCM","lat":10.77583,"lng":106.67049,"area":{"DELIVERY":{"nC":0,"nA":0.0,"oC":5,"oA":2.1},"PICK":{"nC":0,"nA":0.0,"oC":5,"oA":2.1},"RETURN":{"nC":1,"nA":2.6,"oC":5,"oA":2.1}}},{"id":"2451","name":"Bưu Cục 1130 Đông Hưng Thuận 05-Q.12-HCM","type":"BC","region":"HCM","province":"Hồ Chí Minh","wardCode":"21202","wardName":"Phường Đông Hưng Thuận","address":"Thửa đất số 1128, 1130, tờ bản đồ số 1, phường Đông Hưng Thuận, Quận 12, TP.HCM (gần số 22 Đông Hưng Thuận 5)","lat":10.8390821,"lng":106.621627,"area":{"DELIVERY":{"nC":0,"nA":0.0,"oC":2,"oA":3.9},"PICK":{"nC":0,"nA":0.0,"oC":2,"oA":3.9},"RETURN":{"nC":0,"nA":0.0,"oC":2,"oA":3.9}}},{"id":"2452","name":"Bưu Cục 198 Thạnh Lộc 15-Q.12-HCM","type":"BC","region":"HCM","province":"Hồ Chí Minh","wardCode":"21208","wardName":"Phường Thạnh Lộc","address":"198C Đường Thạnh Lộc 15, Khu Phố 3C, Phường Thạnh Lộc, Quận 12, TP.HCM","lat":10.8694847,"lng":106.6924142,"area":{"DELIVERY":{"nC":0,"nA":0.0,"oC":1,"oA":6.2},"PICK":{"nC":0,"nA":0.0,"oC":1,"oA":6.2},"RETURN":{"nC":0,"nA":0.0,"oC":1,"oA":6.2}}},{"id":"2455","name":"Bưu Cục Xã 10-Bù Đăng-Bình Phước","type":"BC","region":"DNB","province":"Bình Phước","wardCode":"430809","wardName":"Xã Đường 10","address":"Thôn 1, xã Đường 10, huyện Bù Đăng, tỉnh Bình Phước","lat":11.953694,"lng":107.182361,"area":{"DELIVERY":{"nC":2,"nA":425.6,"oC":4,"oA":427.9},"PICK":{"nC":2,"nA":425.6,"oC":4,"oA":427.9},"RETURN":{"nC":2,"nA":425.6,"oC":4,"oA":427.9}}},{"id":"2458","name":"Bưu Cục Vận Hành Ba Tơ-Quảng Ngãi","type":"BC","region":"TTB","province":"Quảng Ngãi","wardCode":"351001","wardName":"Thị trấn Mộ Đức","address":"10  Ngã tư Thạch Trụ - Mộ Đức,Quảng Ngãi","lat":14.761894,"lng":108.73295,"area":{"DELIVERY":{"nC":8,"nA":1132.4,"oC":20,"oA":1129.3},"PICK":{"nC":8,"nA":1132.4,"oC":20,"oA":1129.3},"RETURN":{"nC":0,"nA":0.0,"oC":20,"oA":1129.3}}},{"id":"2461","name":"Bưu Cục 229 Quan Nhân-Q.Thanh Xuân-HN","type":"BC","region":"HNO","province":"Hà Nội","wardCode":"1A0710","wardName":"Phường Thanh Xuân Trung","address":"229 Quan Nhân, Nhân Chính, Thanh Xuân","lat":21.001105,"lng":105.810285,"area":{"DELIVERY":{"nC":0,"nA":0.0,"oC":0,"oA":0.0},"PICK":{"nC":0,"nA":0.0,"oC":0,"oA":0.0},"RETURN":{"nC":0,"nA":0.0,"oC":0,"oA":0.0}}},{"id":"2467","name":"(HPH) Kiến Hưng","type":"BC","region":"XBG","province":"Hải Phòng","wardCode":"30811","wardName":"Xã Ngũ Đoan","address":"Thôn Đương Thắng, Xã Ngũ Đoan, Huyện Kiến Thụy, Thành phố Hải Phòng","lat":20.718398,"lng":106.675812,"area":{"DELIVERY":{"nC":4,"nA":78.0,"oC":17,"oA":90.2},"PICK":{"nC":4,"nA":78.0,"oC":17,"oA":90.2},"RETURN":{"nC":4,"nA":78.0,"oC":17,"oA":90.2}}},{"id":"2468","name":"(NBI) Gia Viễn","type":"BC","region":"TNT","province":"Ninh Bình","wardCode":"91429","wardName":"Thị trấn Thịnh Vượng","address":"Thị trấn Me, huyện Gia Viễn, tỉnh Ninh Bình","lat":20.346249,"lng":105.850577,"area":{"DELIVERY":{"nC":4,"nA":111.9,"oC":14,"oA":111.4},"PICK":{"nC":4,"nA":111.9,"oC":14,"oA":111.4},"RETURN":{"nC":4,"nA":111.9,"oC":14,"oA":111.4}}},{"id":"2474","name":"Bưu Cục Thoại Sơn-An Giang","type":"BC","region":"TNB","province":"An Giang","wardCode":"511101","wardName":"Thị trấn Núi Sập","address":"Ấp Tây Sơn, Thị Trấn Núi Sập, Huyện Thoại Sơn, Tỉnh An Giang","lat":10.2549404,"lng":105.260015,"area":{"DELIVERY":{"nC":6,"nA":472.9,"oC":17,"oA":469.3},"PICK":{"nC":6,"nA":472.9,"oC":17,"oA":469.3},"RETURN":{"nC":6,"nA":472.9,"oC":17,"oA":469.3}}},{"id":"2475","name":"Bưu Cục 15 Hàng Bún-Q.Ba Đình-HN","type":"BC","region":"HNO","province":"Hà Nội","wardCode":"1A0109","wardName":"Phường Nguyễn Trung Trực","address":"15 Hàng Bún-Nguyễn Trung Trực-Ba Đình-Hà Nội","lat":21.043324,"lng":105.845677,"area":{"DELIVERY":{"nC":0,"nA":0.0,"oC":0,"oA":0.0},"PICK":{"nC":0,"nA":0.0,"oC":0,"oA":0.0},"RETURN":{"nC":0,"nA":0.0,"oC":0,"oA":0.0}}},{"id":"2488","name":"Bưu Cục 480F Cao Thắng-Trường Sa-Q.3-HCM","type":"BC","region":"HCM","province":"Hồ Chí Minh","wardCode":"21012","wardName":"Phường 12","address":"16A Lê Hồng Phong P12 Quận 10","lat":10.77567262774388,"lng":106.6704441591177,"area":{"DELIVERY":{"nC":1,"nA":1.7,"oC":10,"oA":0.9},"PICK":{"nC":1,"nA":1.7,"oC":10,"oA":0.9},"RETURN":{"nC":1,"nA":1.7,"oC":10,"oA":0.9}}},{"id":"2489","name":"Bưu Cục 456 Nguyễn Kiệm-Q.Phú Nhuận-HCM","type":"BC","region":"HCM","province":"Hồ Chí Minh","wardCode":"21703","wardName":"Phường 3","address":"456 Nguyễn Kiệm, Phường 3, Quận Phú Nhuận, Thành Phố Hồ Chí Minh","lat":10.802363,"lng":106.679308,"area":{"DELIVERY":{"nC":1,"nA":2.1,"oC":7,"oA":2.1},"PICK":{"nC":1,"nA":2.1,"oC":7,"oA":2.1},"RETURN":{"nC":1,"nA":2.1,"oC":7,"oA":2.1}}},{"id":"2498","name":"(DTH) Tràm Chim","type":"BC","region":"DCL","province":"Đồng Tháp","wardCode":"500501","wardName":"Thị trấn Tràm Chim","address":"Huyện Tam Nông - Đồng Tháp","lat":10.673553,"lng":105.550231,"area":{"DELIVERY":{"nC":4,"nA":350.1,"oC":12,"oA":481.1},"PICK":{"nC":4,"nA":350.1,"oC":12,"oA":481.1},"RETURN":{"nC":4,"nA":367.2,"oC":12,"oA":481.1}}},{"id":"2500","name":"(HPH) Hải An 2","type":"BC","region":"XBG","province":"Hải Phòng","wardCode":"30502","wardName":"Phường Đằng Hải","address":"1056 Nguyễn Bỉnh Khiêm, Quận Hải An, Hải Phòng","lat":20.846282,"lng":106.715681,"area":{"DELIVERY":{"nC":0,"nA":0.0,"oC":2,"oA":7.5},"PICK":{"nC":0,"nA":0.0,"oC":2,"oA":7.5},"RETURN":{"nC":1,"nA":53.3,"oC":2,"oA":7.5}}},{"id":"2502","name":"(KHO) Nam Nha Trang 5","type":"BC","region":"NTB","province":"Khánh Hòa","wardCode":"410120","wardName":"Xã Phước Đồng","address":"Thôn Phước Trung, xã Phước Đồng, TP. Nha Trang, Khánh Hòa","lat":12.1907937,"lng":109.1706565,"area":{"DELIVERY":{"nC":0,"nA":0.0,"oC":1,"oA":55.6},"PICK":{"nC":0,"nA":0.0,"oC":1,"oA":55.6},"RETURN":{"nC":0,"nA":0.0,"oC":1,"oA":55.6}}},{"id":"2503","name":"Bưu cục 41 Trần Quốc Vượng-Q.Cầu giấy-HN","type":"BC","region":"HNO","province":"Hà Nội","wardCode":"1A0602","wardName":"Phường Dịch Vọng Hậu","address":"41 Trần Quốc Vượng, phường Dịch Vọng Hậu, Quận Cầu giấy, Hà Nội","lat":21.03559956,"lng":105.786288,"area":{"DELIVERY":{"nC":0,"nA":0.0,"oC":0,"oA":0.0},"PICK":{"nC":0,"nA":0.0,"oC":0,"oA":0.0},"RETURN":{"nC":0,"nA":0.0,"oC":0,"oA":0.0}}},{"id":"2520","name":"Bưu Cục 09 Hoàng Cầu-Q.Đống Đa-HN","type":"BC","region":"HNO","province":"Hà Nội","wardCode":"1A0410","wardName":"Phường Ô Chợ Dừa","address":"Số 09 Hoàng Cầu, Phường Ô Chợ Dừa, Quận Đống Đa, Hà Nội","lat":21.0162422,"lng":105.8213612,"area":{"DELIVERY":{"nC":0,"nA":0.0,"oC":0,"oA":0.0},"PICK":{"nC":0,"nA":0.0,"oC":0,"oA":0.0},"RETURN":{"nC":0,"nA":0.0,"oC":0,"oA":0.0}}},{"id":"2525","name":"Bưu Cục 22 Thanh Yên-Q.Hoàn Kiếm-HN","type":"BC","region":"HNO","province":"Hà Nội","wardCode":"1A0216","wardName":"Phường Phúc Tân","address":"Số 22 Thanh Yên, Phường Phúc Tân , Quận Hoàn Kiếm, Hà Nội","lat":21.037548,"lng":105.854078,"area":{"DELIVERY":{"nC":0,"nA":0.0,"oC":0,"oA":0.0},"PICK":{"nC":0,"nA":0.0,"oC":0,"oA":0.0},"RETURN":{"nC":0,"nA":0.0,"oC":0,"oA":0.0}}},{"id":"2528","name":"Bưu Cục 154B Mai Thị Hồng Hạnh-Rạch Giá-Kiên Giang","type":"BC","region":"TNB","province":"Kiên Giang","wardCode":"540103","wardName":"Phường Rạch Sỏi","address":"Số 154B, Mai Thị Hồng Hạnh, TP Rạch Giá, Tỉnh Kiên Giang","lat":9.945293,"lng":105.12754,"area":{"DELIVERY":{"nC":1,"nA":104.5,"oC":6,"oA":110.5},"PICK":{"nC":1,"nA":104.5,"oC":6,"oA":110.5},"RETURN":{"nC":2,"nA":176.8,"oC":6,"oA":110.5}}},{"id":"2534","name":"Bưu Cục 903B Tạ Quang Bửu-Q.8-HCM","type":"BC","region":"HCM","province":"Hồ Chí Minh","wardCode":"20805","wardName":"Phường 5","address":"903B Tạ Quang Bửu-P.5-Q.8-HCM","lat":10.7343536,"lng":106.6623223,"area":{"DELIVERY":{"nC":0,"nA":0.0,"oC":8,"oA":3.3},"PICK":{"nC":0,"nA":0.0,"oC":8,"oA":3.3},"RETURN":{"nC":0,"nA":0.0,"oC":8,"oA":3.3}}},{"id":"2535","name":"(HPH) An Phong","type":"BC","region":"XBG","province":"Hải Phòng","wardCode":"31010","wardName":"Xã Hồng Phong","address":"Xã Hồng Phong, huyện An Dương, Hải Phòng","lat":20.871231,"lng":106.575898,"area":{"DELIVERY":{"nC":0,"nA":0.0,"oC":4,"oA":24.7},"PICK":{"nC":0,"nA":0.0,"oC":4,"oA":24.7},"RETURN":{"nC":0,"nA":0.0,"oC":4,"oA":24.7}}},{"id":"20001000","name":"Bưu cục 896 Minh Khai-Q.Hai Bà Trưng-HN","type":"BC","region":"HNO","province":"Hà Nội","wardCode":"1A0317","wardName":"Phường Thanh Lương","address":"896 Minhkhai","lat":21.004527,"lng":105.869162,"area":{"DELIVERY":{"nC":0,"nA":0.0,"oC":0,"oA":0.0},"PICK":{"nC":0,"nA":0.0,"oC":0,"oA":0.0},"RETURN":{"nC":0,"nA":0.0,"oC":0,"oA":0.0}}},{"id":"20010000","name":"Bưu Cục Vân Hà-Đông Anh-HN","type":"BC","region":"HNO","province":"Hà Nội","wardCode":"1A1318","wardName":"Xã Vân Hà","address":"9 Thiết Úng, Xã Vân Hà, Huyện Đông Anh, Hà Nội","lat":21.1414,"lng":105.91642,"area":{"DELIVERY":{"nC":0,"nA":0.0,"oC":0,"oA":0.0},"PICK":{"nC":0,"nA":0.0,"oC":0,"oA":0.0},"RETURN":{"nC":0,"nA":0.0,"oC":0,"oA":0.0}}},{"id":"20020000","name":"Bưu cục 442 Nguyễn Trãi-Q.Thanh Xuân-HN","type":"BC","region":"HNO","province":"Hà Nội","wardCode":"1A0710","wardName":"Phường Thanh Xuân Trung","address":"Số 442 Nguyễn Trãi, Phường Thanh Xuân Trung, Quận Thanh Xuân, Thành phố Hà Nội","lat":20.9927328,"lng":105.80469,"area":{"DELIVERY":{"nC":0,"nA":0.0,"oC":0,"oA":0.0},"PICK":{"nC":0,"nA":0.0,"oC":0,"oA":0.0},"RETURN":{"nC":0,"nA":0.0,"oC":0,"oA":0.0}}},{"id":"20023000","name":"(HTI) Can Lộc","type":"BC","region":"BTB","province":"Hà Tĩnh","wardCode":"300601","wardName":"Thị trấn Nghèn","address":"Khối 9 - Quốc lộ 1A Bắc Nghèn - Thị Trấn Can Lộc - Huyện Can Lộc - Hà Tĩnh","lat":18.46308,"lng":105.768628,"area":{"DELIVERY":{"nC":5,"nA":252.3,"oC":19,"oA":250.6},"PICK":{"nC":5,"nA":252.3,"oC":19,"oA":250.6},"RETURN":{"nC":4,"nA":207.0,"oC":19,"oA":250.6}}},{"id":"20026000","name":"Bưu Cục 63 Ký Hòa-Q.5-HCM","type":"BC","region":"HCM","province":"Hồ Chí Minh","wardCode":"20511","wardName":"Phường 11","address":"63 Ký Hòa, Phường 11, Quận 5, TP.HCM","lat":10.75432,"lng":106.66064,"area":{"DELIVERY":{"nC":1,"nA":1.8,"oC":8,"oA":0.7},"PICK":{"nC":1,"nA":1.8,"oC":8,"oA":0.7},"RETURN":{"nC":1,"nA":1.8,"oC":8,"oA":0.7}}},{"id":"20027000","name":"Bưu Cục 117 Hùng Vương-Q.5-HCM","type":"BC","region":"HCM","province":"Hồ Chí Minh","wardCode":"20511","wardName":"Phường 11","address":"117 Hùng Vương, Phường 4, Quận 5, TP.HCM","lat":10.7617,"lng":106.67578,"area":{"DELIVERY":{"nC":1,"nA":1.2,"oC":7,"oA":0.9},"PICK":{"nC":1,"nA":1.2,"oC":7,"oA":0.9},"RETURN":{"nC":1,"nA":1.2,"oC":7,"oA":0.9}}},{"id":"20032000","name":"Bưu Cục 24 ngõ 80 La Nội-Q.Hà Đông-HN","type":"BC","region":"HNO","province":"Hà Nội","wardCode":"1B1503","wardName":"Phường Dương Nội","address":"số 28 ngõ 80 đường La Nội, Phường Dương Nội, Quận Hà Đông, Hà Nội","lat":20.97984481,"lng":105.7492971,"area":{"DELIVERY":{"nC":0,"nA":0.0,"oC":0,"oA":0.0},"PICK":{"nC":0,"nA":0.0,"oC":0,"oA":0.0},"RETURN":{"nC":0,"nA":0.0,"oC":0,"oA":0.0}}},{"id":"20038000","name":"Bưu cục 296 đường Ỷ Lan-Gia Lâm-HN","type":"BC","region":"HNO","province":"Hà Nội","wardCode":"1A1206","wardName":"Xã Đặng Xá","address":"296 đường Ỷ Lan, Huyện Gia Lâm, Xã Đặng Xá, Hà Nội","lat":21.0212845,"lng":105.9644118,"area":{"DELIVERY":{"nC":1,"nA":29.8,"oC":1,"oA":12.7},"PICK":{"nC":1,"nA":29.8,"oC":1,"oA":12.7},"RETURN":{"nC":1,"nA":29.8,"oC":1,"oA":12.7}}},{"id":"20040000","name":"Bưu cục 126 Hoàng Ngân-Q.Cầu Giấy-HN","type":"BC","region":"HNO","province":"Hà Nội","wardCode":"1A0607","wardName":"Phường Trung Hoà","address":"126 Hoàng Ngân, Phường Trung Hòa, Quận Cầu Giấy, Hà Nội","lat":21.00974856,"lng":105.8066455,"area":{"DELIVERY":{"nC":0,"nA":0.0,"oC":0,"oA":0.0},"PICK":{"nC":0,"nA":0.0,"oC":0,"oA":0.0},"RETURN":{"nC":0,"nA":0.0,"oC":0,"oA":0.0}}},{"id":"20047000","name":"Bưu Cục 53 Lãng Yên-Q.Hai Bà Trưng-HN","type":"BC","region":"HNO","province":"Hà Nội","wardCode":"1A0301","wardName":"Phường Bạch Đằng","address":"53 Lãng Yên, Phường Bạch Đằng, Quận Hai Bà Trưng, Thành phố Hà Nội","lat":21.0089985,"lng":105.8666449,"area":{"DELIVERY":{"nC":0,"nA":0.0,"oC":0,"oA":0.0},"PICK":{"nC":0,"nA":0.0,"oC":0,"oA":0.0},"RETURN":{"nC":0,"nA":0.0,"oC":0,"oA":0.0}}},{"id":"20049000","name":"Bưu Cục 109 E3-Q.Hai Bà Trưng-HN","type":"BC","region":"HNO","province":"Hà Nội","wardCode":"1A0303","wardName":"Phường Bạch Mai","address":"109 E3, Phường Bạch Mai, Quận Hai Bà Trưng, Thành phố Hà Nội","lat":21.003327,"lng":105.849394,"area":{"DELIVERY":{"nC":0,"nA":0.0,"oC":0,"oA":0.0},"PICK":{"nC":0,"nA":0.0,"oC":0,"oA":0.0},"RETURN":{"nC":0,"nA":0.0,"oC":0,"oA":0.0}}},{"id":"20052000","name":"Bưu Cục 295F Lý Thường Kiệt-Quận 11-HCM","type":"BC","region":"HCM","province":"Hồ Chí Minh","wardCode":"21115","wardName":"Phường 15","address":"295F Lý Thường Kiệt, Phường 15, Quận 11, TP.HCM","lat":10.7762921,"lng":106.6562777,"area":{"DELIVERY":{"nC":0,"nA":0.0,"oC":4,"oA":0.7},"PICK":{"nC":0,"nA":0.0,"oC":4,"oA":0.7},"RETURN":{"nC":0,"nA":0.0,"oC":4,"oA":0.7}}},{"id":"20053000","name":"Bưu Cục 303 Hoàng Hoa Thám-Q.Ba Đình-HN","type":"BC","region":"HNO","province":"Hà Nội","wardCode":"1A0106","wardName":"Phường Liễu Giai","address":"303 Hoàng Hoa Thám, Liễu Giai, Ba Đình, Hà Nội","lat":21.04225556,"lng":105.8184068,"area":{"DELIVERY":{"nC":0,"nA":0.0,"oC":0,"oA":0.0},"PICK":{"nC":0,"nA":0.0,"oC":0,"oA":0.0},"RETURN":{"nC":0,"nA":0.0,"oC":0,"oA":0.0}}},{"id":"20059000","name":"Bưu cục Đồng Đăng-Cao Lộc-Lạng Sơn","type":"BC","region":"XBG","province":"Lạng Sơn","wardCode":"100702","wardName":"Thị trấn Đồng Đăng","address":"Thị Trấn Đồng Đăng, Huyện Cao Lộc, Tỉnh Lạng Sơn","lat":21.950466,"lng":106.699845,"area":{"DELIVERY":{"nC":7,"nA":723.1,"oC":37,"oA":760.4},"PICK":{"nC":7,"nA":723.1,"oC":37,"oA":760.4},"RETURN":{"nC":7,"nA":723.1,"oC":37,"oA":760.4}}},{"id":"20060000","name":"Bưu cục Lộc Bình-Lạng Sơn","type":"BC","region":"XBG","province":"Lạng Sơn","wardCode":"100801","wardName":"Thị trấn Lộc Bình","address":"Thị Trấn Lộc Bình, Huyện Lộc Bình, Tỉnh Lạng Sơn","lat":21.75149,"lng":106.928509,"area":{"DELIVERY":{"nC":7,"nA":985.7,"oC":32,"oA":984.8},"PICK":{"nC":7,"nA":985.7,"oC":32,"oA":984.8},"RETURN":{"nC":7,"nA":985.7,"oC":32,"oA":984.8}}},{"id":"20061000","name":"(HPH) An Biên 2","type":"BC","region":"XBG","province":"Hải Phòng","wardCode":"30209","wardName":"Phường Kênh Dương","address":"Tổ 12, P.Kênh Dương, Q.Lê Chân, Thành phố Hải Phòng","lat":20.833657,"lng":106.679396,"area":{"DELIVERY":{"nC":1,"nA":5.2,"oC":8,"oA":6.1},"PICK":{"nC":1,"nA":5.2,"oC":8,"oA":6.1},"RETURN":{"nC":0,"nA":0.0,"oC":8,"oA":6.1}}},{"id":"20071000","name":"(BVT) Bà Rịa","type":"BC","region":"HCM","province":"Bà Rịa - Vũng Tàu","wardCode":"520205","wardName":"Phường Phước Hiệp","address":"39 Tôn Đức Thắng, Phường Phước Hiệp , Thành Phố  Bà Rịa, Bà Rịa - Vũng Tàu","lat":10.4948172,"lng":107.1750766,"area":{"DELIVERY":{"nC":0,"nA":0.0,"oC":5,"oA":40.3},"PICK":{"nC":0,"nA":0.0,"oC":5,"oA":40.3},"RETURN":{"nC":0,"nA":0.0,"oC":5,"oA":40.3}}},{"id":"20075000","name":"Bưu Cục T30 Nguyễn Hữu Hào-Q.4-HCM","type":"BC","region":"HCM","province":"Hồ Chí Minh","wardCode":"20406","wardName":"Phường 6","address":"T30 Nguyễn Hữu Hào, Phường 6, Quận 4, Tp. Hồ Chí Minh","lat":10.75995,"lng":106.70209,"area":{"DELIVERY":{"nC":0,"nA":0.0,"oC":6,"oA":0.9},"PICK":{"nC":0,"nA":0.0,"oC":6,"oA":0.9},"RETURN":{"nC":1,"nA":1.1,"oC":6,"oA":0.9}}},{"id":"20078000","name":"Bưu Cục 9 Hồng Bàng-Q.Bình Thạnh-HCM","type":"BC","region":"HCM","province":"Hồ Chí Minh","wardCode":"21601","wardName":"Phường 1","address":"9 Hồng Bàng. Phường 1, bình Thạnh, TP Hồ Chí Minh","lat":10.8025201,"lng":106.698029,"area":{"DELIVERY":{"nC":0,"nA":0.0,"oC":5,"oA":1.4},"PICK":{"nC":0,"nA":0.0,"oC":0,"oA":0.0},"RETURN":{"nC":0,"nA":0.0,"oC":0,"oA":0.0}}},{"id":"20081000","name":"Bưu Cục 16A Hòa Mã -Q.Hai Bà Trưng-HN","type":"BC","region":"HNO","province":"Hà Nội","wardCode":"1A0313","wardName":"Phường Phạm Đình Hổ","address":"16A Hòa Mã, Phường Phạm Đình Hổ, Quận Hai Bà Trưng, Hà Nội","lat":21.0156138,"lng":105.8556383,"area":{"DELIVERY":{"nC":0,"nA":0.0,"oC":0,"oA":0.0},"PICK":{"nC":0,"nA":0.0,"oC":0,"oA":0.0},"RETURN":{"nC":0,"nA":0.0,"oC":0,"oA":0.0}}},{"id":"20090000","name":"(HDU) Tân Hưng","type":"BC","region":"XBG","province":"Hải Dương","wardCode":"210104","wardName":"Phường Hải Tân","address":"18 Bạch Năng Thi, phường Hải Tân, tp. Hải Dương","lat":20.9325507,"lng":106.3366227,"area":{"DELIVERY":{"nC":1,"nA":7.5,"oC":8,"oA":20.7},"PICK":{"nC":1,"nA":7.5,"oC":8,"oA":20.7},"RETURN":{"nC":1,"nA":7.5,"oC":8,"oA":20.7}}},{"id":"20092000","name":"Bưu cục 253 Phạm Văn Đồng-Q.Bắc Từ Liêm-Hà Nội","type":"BC","region":"HNO","province":"Hà Nội","wardCode":"11012","wardName":"Phường Xuân Đỉnh","address":"253 Phạm Văn Đồng, Phường Xuân Đỉnh, Quận Bắc Từ Liêm, HN","lat":21.073257,"lng":105.785887,"area":{"DELIVERY":{"nC":0,"nA":0.0,"oC":2,"oA":5.3},"PICK":{"nC":0,"nA":0.0,"oC":1,"oA":2.4},"RETURN":{"nC":0,"nA":0.0,"oC":1,"oA":2.4}}},{"id":"20093000","name":"(QNI) Quang Hanh","type":"BC","region":"XBG","province":"Quảng Ninh","wardCode":"170206","wardName":"Phường Cẩm Thạch","address":"Tổ 12 phường Cẩm Thạch, Thành phố Cẩm Phả, Tỉnh Quảng Ninh","lat":21.0076,"lng":107.257537,"area":{"DELIVERY":{"nC":1,"nA":58.4,"oC":5,"oA":60.9},"PICK":{"nC":1,"nA":58.4,"oC":5,"oA":60.9},"RETURN":{"nC":0,"nA":0.0,"oC":5,"oA":60.9}}},{"id":"20097000","name":"Bưu cục Thạch Hòa-Thạch Thất-Hà Nội","type":"BC","region":"HNO","province":"Hà Nội","wardCode":"1B1919","wardName":"Xã Thạch Hoà","address":"Thôn 2, Thạch Hòa, Thạch Thất, Hà Nội","lat":20.9869341,"lng":105.5276892,"area":{"DELIVERY":{"nC":1,"nA":71.2,"oC":0,"oA":0.0},"PICK":{"nC":1,"nA":71.2,"oC":0,"oA":0.0},"RETURN":{"nC":1,"nA":71.2,"oC":0,"oA":0.0}}},{"id":"20099000","name":"Bưu cục 148 Trâu Quỳ-Gia Lâm-HN","type":"BC","region":"HNO","province":"Hà Nội","wardCode":"1A1201","wardName":"Thị trấn Trâu Quỳ","address":"148 Trâu Quỳ, Thị Trấn Trâu Quỳ, Huyện Gia Lâm, Hà Nội","lat":21.0014959,"lng":105.9390521,"area":{"DELIVERY":{"nC":0,"nA":0.0,"oC":0,"oA":0.0},"PICK":{"nC":0,"nA":0.0,"oC":0,"oA":0.0},"RETURN":{"nC":0,"nA":0.0,"oC":0,"oA":0.0}}},{"id":"20102000","name":"Bưu cục 58 Vũ Tông Phan-Q.2-HCM","type":"BC","region":"HCM","province":"Hồ Chí Minh","wardCode":"20203","wardName":"Phường An Phú","address":"Bưu cục 58 Vũ Tông Phan, Phường An Phú, Quận 2, Thành phố Hồ Chí Minh","lat":10.79734195904519,"lng":106.7418189408406,"area":{"DELIVERY":{"nC":0,"nA":0.0,"oC":3,"oA":10.4},"PICK":{"nC":0,"nA":0.0,"oC":3,"oA":10.4},"RETURN":{"nC":0,"nA":0.0,"oC":3,"oA":10.4}}},{"id":"20108000","name":"Bưu Cục 39 Gò Sỏi-Sóc Sơn-HN","type":"BC","region":"HNO","province":"Hà Nội","wardCode":"1A1407","wardName":"Xã Hồng Kỳ","address":"39 Gò Sỏi , xã Hồng Kỳ , huyện Sóc Sơn , TP Hà Nội","lat":21.289057,"lng":105.861237,"area":{"DELIVERY":{"nC":1,"nA":77.1,"oC":0,"oA":0.0},"PICK":{"nC":1,"nA":77.1,"oC":0,"oA":0.0},"RETURN":{"nC":1,"nA":77.1,"oC":0,"oA":0.0}}},{"id":"20110000","name":"Bưu cục Thôn 6-Ba Vì-HN","type":"BC","region":"HNO","province":"Hà Nội","wardCode":"1B1702","wardName":"Xã Ba Trại","address":"Thôn 6, Xã Ba Trại, Huyện Ba Vì, Hà Nội","lat":21.124075,"lng":105.364579,"area":{"DELIVERY":{"nC":2,"nA":135.5,"oC":0,"oA":0.0},"PICK":{"nC":2,"nA":135.5,"oC":0,"oA":0.0},"RETURN":{"nC":3,"nA":189.8,"oC":0,"oA":0.0}}},{"id":"20114000","name":"Bưu Cục 893 Quốc Lộ 14-Đồng Xoài-Bình Phước","type":"BC","region":"DNB","province":"Bình Phước","wardCode":"430101","wardName":"Phường Tân Bình","address":"Số nhà 893 Đường Quốc Lộ 14, Phường Tân Bình, Thành Phố Đồng Xoài, Bình Phước","lat":11.5302149,"lng":106.8771833,"area":{"DELIVERY":{"nC":1,"nA":81.4,"oC":6,"oA":156.1},"PICK":{"nC":1,"nA":81.4,"oC":6,"oA":156.1},"RETURN":{"nC":1,"nA":81.4,"oC":6,"oA":156.1}}},{"id":"20121005","name":"Điểm xử lý hàng hoá cho Sìn Hồ Thấp-Lai Châu","type":"BC","region":"TBB","province":"Lai Châu","wardCode":"70101","wardName":"Phường Đoàn Kết","address":"Số nhà 167 Đường 19 Tháng 8, Tổ 3, Phường Đoàn Kết, TP Lai Châu, Lai Châu","lat":22.156994,"lng":103.459317,"area":{"DELIVERY":{"nC":4,"nA":681.6,"oC":11,"oA":733.9},"PICK":{"nC":4,"nA":681.6,"oC":11,"oA":733.9},"RETURN":{"nC":4,"nA":681.6,"oC":11,"oA":733.9}}},{"id":"20125000","name":"Bưu cục Ngọc Hồi-Thanh Trì-HN","type":"BC","region":"HNO","province":"Hà Nội","wardCode":"1A1107","wardName":"Xã Ngọc Hồi","address":"Yên Kiện, Ngọc Hồi , Thanh Trì, Hà Nội","lat":20.924,"lng":105.84216,"area":{"DELIVERY":{"nC":0,"nA":0.0,"oC":0,"oA":0.0},"PICK":{"nC":0,"nA":0.0,"oC":0,"oA":0.0},"RETURN":{"nC":0,"nA":0.0,"oC":0,"oA":0.0}}},{"id":"20126000","name":"Bưu cục Yên Xá-Thanh Trì-HN","type":"BC","region":"HNO","province":"Hà Nội","wardCode":"1A1111","wardName":"Xã Tân Triều","address":"Số 65 NV1, Tổng cục 5 Yên Xá, Tân triều, HN","lat":20.972782,"lng":105.796357,"area":{"DELIVERY":{"nC":0,"nA":0.0,"oC":0,"oA":0.0},"PICK":{"nC":0,"nA":0.0,"oC":0,"oA":0.0},"RETURN":{"nC":0,"nA":0.0,"oC":0,"oA":0.0}}},{"id":"20133000","name":"(HYE) Lương Bằng","type":"BC","region":"DSH","province":"Hưng Yên","wardCode":"220201","wardName":"Thị trấn Lương Bằng","address":"Số 90 Nguyễn Lương Bằng, Huyện Kim Động, Thị trấn Lương Bằng, tỉnh Hưng Yên","lat":20.744761,"lng":106.059322,"area":{"DELIVERY":{"nC":4,"nA":103.5,"oC":19,"oA":101.9},"PICK":{"nC":4,"nA":103.5,"oC":19,"oA":101.9},"RETURN":{"nC":4,"nA":103.5,"oC":19,"oA":101.9}}},{"id":"20136000","name":"Bưu Cục 105C Đồng Khởi-Biên Hòa-Đồng Nai","type":"BC","region":"DNB","province":"Đồng Nai","wardCode":"480117","wardName":"Phường Tân Phong","address":"105C Đường Đồng Khởi KP 8 - Biên Hòa Đồng Nai","lat":10.9745989,"lng":106.8510147,"area":{"DELIVERY":{"nC":0,"nA":0.0,"oC":1,"oA":17.1},"PICK":{"nC":0,"nA":0.0,"oC":1,"oA":17.1},"RETURN":{"nC":0,"nA":0.0,"oC":1,"oA":17.1}}},{"id":"20137000","name":"Bưu Cục 106 Quang Trung-Đại Lộc-Quảng Nam","type":"BC","region":"TTB","province":"Quảng Nam","wardCode":"340501","wardName":"Thị Trấn Ái Nghĩa","address":"106 Quang Trung, Thị trấn Ái Nghĩa, Huyện Đại Lộc, Quảng Nam","lat":15.8867113,"lng":108.119545,"area":{"DELIVERY":{"nC":5,"nA":578.6,"oC":18,"oA":578.1},"PICK":{"nC":5,"nA":578.6,"oC":18,"oA":578.1},"RETURN":{"nC":0,"nA":0.0,"oC":18,"oA":578.1}}},{"id":"20137001","name":"Bưu Cục Vận Hành Xã Thạnh Mỹ-Đà Nẵng","type":"BC","region":"TTB","province":"Quảng Nam","wardCode":"341301","wardName":"Thị trấn Thạnh Mỹ","address":"Tổ 9- TT Thạnh Mỹ- Nam Giang- Quảng Nam","lat":15.748522,"lng":107.837075,"area":{"DELIVERY":{"nC":2,"nA":741.6,"oC":5,"oA":741.9},"PICK":{"nC":2,"nA":741.6,"oC":5,"oA":741.9},"RETURN":{"nC":0,"nA":0.0,"oC":5,"oA":741.9}}},{"id":"20137002","name":"Bưu Cục Vận Hành Xã Nam Giang-Đà Nẵng","type":"BC","region":"TTB","province":"Quảng Nam","wardCode":"341303","wardName":"Xã Chà Vàl","address":" Vị trí: Thôn A Bát- Chal Val- Nam Giang- Quảng Nam","lat":15.619334,"lng":107.512197,"area":{"DELIVERY":{"nC":4,"nA":1100.3,"oC":9,"oA":1104.4},"PICK":{"nC":4,"nA":1100.3,"oC":9,"oA":1104.4},"RETURN":{"nC":0,"nA":0.0,"oC":9,"oA":1104.4}}},{"id":"20139000","name":"(DTH) Thanh Bình","type":"BC","region":"DCL","province":"Đồng Tháp","wardCode":"500601","wardName":"Thị trấn Thanh Bình","address":"Quốc lộ 30, Thị trấn Thanh Bình, Huyện Thanh Bình, Đồng Tháp","lat":10.5569375,"lng":105.4921875,"area":{"DELIVERY":{"nC":4,"nA":316.2,"oC":13,"oA":329.9},"PICK":{"nC":4,"nA":316.2,"oC":13,"oA":329.9},"RETURN":{"nC":4,"nA":316.2,"oC":13,"oA":329.9}}},{"id":"20141000","name":"Bưu Cục 280 Lê Đại Hành-Q.Cẩm Lệ-Đà Nẵng","type":"BC","region":"TTB","province":"Đà Nẵng","wardCode":"40702","wardName":"Phường Hòa Phát","address":"280 Lê Đại Hành","lat":16.021260928504,"lng":108.197465855506,"area":{"DELIVERY":{"nC":1,"nA":14.6,"oC":5,"oA":23.0},"PICK":{"nC":1,"nA":14.6,"oC":5,"oA":23.0},"RETURN":{"nC":1,"nA":14.6,"oC":5,"oA":23.0}}},{"id":"20143000","name":"(KHO) Diên Khánh 2","type":"BC","region":"NTB","province":"Khánh Hòa","wardCode":"410401","wardName":"Thị trấn Diên Khánh","address":"39 Hùng Vương, Thị Trấn Diên Khánh, Huyện Diên Khánh, Khánh Hòa","lat":12.2702688,"lng":109.1107013,"area":{"DELIVERY":{"nC":2,"nA":118.6,"oC":10,"oA":126.6},"PICK":{"nC":2,"nA":118.6,"oC":10,"oA":126.6},"RETURN":{"nC":2,"nA":118.6,"oC":10,"oA":126.6}}},{"id":"20144000","name":"(BTH) Mũi Né","type":"BC","region":"NTB","province":"Bình Thuận","wardCode":"470105","wardName":"Phường Hàm Tiến","address":"16 Huỳnh Thúc Kháng, P.Hàm Tiến, TP.Phan Thiết, Bình Thuận","lat":10.952493,"lng":108.2525145,"area":{"DELIVERY":{"nC":1,"nA":122.1,"oC":3,"oA":120.6},"PICK":{"nC":1,"nA":122.1,"oC":3,"oA":120.6},"RETURN":{"nC":1,"nA":122.1,"oC":3,"oA":120.6}}},{"id":"20148000","name":"(HYE) Mỹ Hào","type":"BC","region":"DSH","province":"Hưng Yên","wardCode":"220810","wardName":"Xã Nhân Hòa","address":"Phường Nhân Hòa, Thị xã Mỹ Hào, Hưng Yên","lat":20.933305,"lng":106.067694,"area":{"DELIVERY":{"nC":3,"nA":80.0,"oC":13,"oA":78.0},"PICK":{"nC":3,"nA":80.0,"oC":13,"oA":78.0},"RETURN":{"nC":3,"nA":80.0,"oC":13,"oA":78.0}}},{"id":"20150000","name":"(NTH) Bảo An","type":"BC","region":"NTB","province":"Ninh Thuận","wardCode":"450112","wardName":"Phường Phước Mỹ","address":"254A Đường 21 tháng 8, P.Phước Mỹ, TP.Phan Rang-Tháp Chàm, Ninh Thuận","lat":11.5836725,"lng":108.9712828,"area":{"DELIVERY":{"nC":2,"nA":81.2,"oC":9,"oA":86.5},"PICK":{"nC":2,"nA":81.2,"oC":9,"oA":86.5},"RETURN":{"nC":0,"nA":0.0,"oC":9,"oA":86.5}}},{"id":"20153000","name":"(BTR) Giồng Trôm","type":"BC","region":"DCL","province":"Bến Tre","wardCode":"560501","wardName":"Thị trấn Giồng Trôm","address":"Dạ 5A, DT 885 Thị Trấn Giồng Trôm-Giồng Trôm-Bến Tre","lat":10.168789,"lng":106.495115,"area":{"DELIVERY":{"nC":5,"nA":229.8,"oC":15,"oA":230.5},"PICK":{"nC":5,"nA":229.8,"oC":15,"oA":230.5},"RETURN":{"nC":5,"nA":229.8,"oC":15,"oA":230.5}}},{"id":"20162000","name":"Bưu Cục 2C Châu Văn Liêm-Ngã Bảy-Hậu Giang","type":"BC","region":"TNB","province":"Hậu Giang","wardCode":"640703","wardName":"Phường Ngã Bảy","address":"2C Châu Văn Liêm, F.Ngã Bảy, Thành Phố Ngã Bảy, Hậu Giang","lat":9.815063,"lng":105.820538,"area":{"DELIVERY":{"nC":2,"nA":78.2,"oC":8,"oA":139.9},"PICK":{"nC":2,"nA":78.2,"oC":8,"oA":139.9},"RETURN":{"nC":2,"nA":78.2,"oC":8,"oA":139.9}}},{"id":"20166000","name":"(THO) Yên Định","type":"BC","region":"BTB","province":"Thanh Hóa","wardCode":"282701","wardName":"Thị trấn Quán Lào","address":"Đường 10 tháng 6, Khu 4, Thị Trấn Quán Lào, Huyện Yên Định, Tỉnh Thanh Hóa","lat":19.9643905,"lng":105.6601108,"area":{"DELIVERY":{"nC":2,"nA":60.2,"oC":13,"oA":97.2},"PICK":{"nC":2,"nA":60.2,"oC":13,"oA":97.2},"RETURN":{"nC":0,"nA":0.0,"oC":13,"oA":97.2}}},{"id":"20172000","name":"(BDI) Tây Sơn","type":"BC","region":"TNG","province":"Bình Định","wardCode":"370801","wardName":"Thị trấn Phú Phong","address":"Số 44 Quang Trung, Thị trần Phú Phong, Huyện Tây Sơn, Bình Định","lat":13.9103602,"lng":108.9131764,"area":{"DELIVERY":{"nC":5,"nA":692.2,"oC":15,"oA":686.3},"PICK":{"nC":5,"nA":692.2,"oC":15,"oA":686.3},"RETURN":{"nC":5,"nA":692.2,"oC":15,"oA":686.3}}},{"id":"20173000","name":"(BDI) Quy Nhơn Nam","type":"BC","region":"TNG","province":"Bình Định","wardCode":"370112","wardName":"Phường Quang Trung","address":"Số 269 Tây Sơn, Quang Trung, Thành phố Quy Nhơn, Bình Định","lat":13.762727,"lng":109.2009277,"area":{"DELIVERY":{"nC":1,"nA":36.1,"oC":4,"oA":33.2},"PICK":{"nC":1,"nA":36.1,"oC":4,"oA":33.2},"RETURN":{"nC":1,"nA":36.1,"oC":4,"oA":33.2}}},{"id":"20179000","name":"(BGI) Việt Yên","type":"BC","region":"XBG","province":"Bắc Giang","wardCode":"180901","wardName":"Thị trấn Bích Động","address":"TDP Vàng, Thị Trấn Bích Động, Việt Yên, Bắc Giang","lat":21.281078,"lng":106.087627,"area":{"DELIVERY":{"nC":2,"nA":83.9,"oC":13,"oA":129.1},"PICK":{"nC":2,"nA":83.9,"oC":13,"oA":129.1},"RETURN":{"nC":2,"nA":83.9,"oC":13,"oA":129.1}}},{"id":"20182000","name":"Bưu cục 171 Đồng Cam-Thạch Thất-Hà Nội","type":"BC","region":"HNO","province":"Hà Nội","wardCode":"1B1901","wardName":"Thị trấn Liên Quan","address":"171 Đồng Cam , TT Liên Quan, Huyện Thạch Thất, Hà Nội","lat":21.052531,"lng":105.581319,"area":{"DELIVERY":{"nC":1,"nA":31.9,"oC":2,"oA":13.9},"PICK":{"nC":1,"nA":31.9,"oC":2,"oA":13.9},"RETURN":{"nC":1,"nA":31.9,"oC":2,"oA":13.9}}},{"id":"20184000","name":"(VPH) Xuân Hòa","type":"BC","region":"TNT","province":"Vĩnh Phúc","wardCode":"160806","wardName":"Phường Xuân Hoà","address":"Thôn Xuân Hòa 1, đường Nguyễn Văn Linh, Thành phố Phúc Yên, Tỉnh Vĩnh Phúc","lat":21.293161,"lng":105.714988,"area":{"DELIVERY":{"nC":1,"nA":95.6,"oC":5,"oA":99.8},"PICK":{"nC":1,"nA":95.6,"oC":5,"oA":99.8},"RETURN":{"nC":0,"nA":0.0,"oC":5,"oA":99.8}}},{"id":"20187000","name":"(NAN) Tân Kỳ","type":"BC","region":"BTB","province":"Nghệ An","wardCode":"291001","wardName":"Thị trấn Tân Kỳ","address":"Khối 3, Thị trấn Tân Kỳ, Tân Kỳ, Nghệ An","lat":19.04969,"lng":105.273147,"area":{"DELIVERY":{"nC":4,"nA":437.6,"oC":15,"oA":494.9},"PICK":{"nC":4,"nA":437.6,"oC":15,"oA":494.9},"RETURN":{"nC":4,"nA":437.6,"oC":15,"oA":494.9}}},{"id":"20196000","name":"Bưu Cục 129 Võ Nguyên Giáp-Minh Hóa-Quảng Bình","type":"BC","region":"TTB","province":"Quảng Bình","wardCode":"310301","wardName":"Thị trấn Quy Đạt","address":"129 Võ Nguyên Giáp, Thị Trấn Quy Đạt, Minh Hóa, Quảng Bình","lat":17.815167,"lng":105.9675,"area":{"DELIVERY":{"nC":5,"nA":1383.9,"oC":18,"oA":1504.6},"PICK":{"nC":5,"nA":1383.9,"oC":18,"oA":1504.6},"RETURN":{"nC":0,"nA":0.0,"oC":18,"oA":1504.6}}},{"id":"20199000","name":"Bưu cục Thôn Đông-Ba Vì-Hà Nội","type":"BC","region":"HNO","province":"Hà Nội","wardCode":"1B1701","wardName":"Thị trấn Tây Đằng","address":"Thôn Đông, Thị trấn Tây Đằng, Huyện Ba Vì, Hà Nội","lat":21.195205,"lng":105.424168,"area":{"DELIVERY":{"nC":3,"nA":103.9,"oC":1,"oA":15.6},"PICK":{"nC":3,"nA":103.9,"oC":1,"oA":15.6},"RETURN":{"nC":3,"nA":109.4,"oC":1,"oA":15.6}}},{"id":"20200000","name":"(GLA) Thống Nhất","type":"BC","region":"TNG","province":"Gia Lai","wardCode":"380103","wardName":"Phường Đống Đa","address":"499 Phạm Văn Đồng, Phường Đống Đa, TP Pleiku, Gia Lai","lat":14.01273531033766,"lng":107.9928856818537,"area":{"DELIVERY":{"nC":1,"nA":23.1,"oC":7,"oA":90.6},"PICK":{"nC":1,"nA":23.1,"oC":7,"oA":90.6},"RETURN":{"nC":1,"nA":23.1,"oC":7,"oA":90.6}}},{"id":"20204000","name":"(THO) Vĩnh Lộc","type":"BC","region":"BTB","province":"Thanh Hóa","wardCode":"281601","wardName":"Thị trấn Vĩnh Lộc","address":"196 Khu 1, Thị trấn Vĩnh Lộc, Huyện Vĩnh Lộc, Tỉnh Thanh Hóa","lat":20.0592759,"lng":105.6163728,"area":{"DELIVERY":{"nC":3,"nA":157.0,"oC":18,"oA":156.2},"PICK":{"nC":3,"nA":157.0,"oC":18,"oA":156.2},"RETURN":{"nC":0,"nA":0.0,"oC":18,"oA":156.2}}},{"id":"20206000","name":"(SLA) Phù Yên","type":"BC","region":"TBB","province":"Sơn La","wardCode":"140401","wardName":"Thị trấn Thuận Châu","address":"Tiểu khu 6, Thị Trấn Phù Yên, Phù Yên, Sơn La","lat":21.265364,"lng":104.6449799,"area":{"DELIVERY":{"nC":8,"nA":1232.4,"oC":27,"oA":1232.0},"PICK":{"nC":8,"nA":1232.4,"oC":27,"oA":1232.0},"RETURN":{"nC":0,"nA":0.0,"oC":27,"oA":1232.0}}},{"id":"20210000","name":"Bưu Cục TT03 Tây Nam Linh Đàm-Q.Hoàng Mai-HN","type":"BC","region":"HNO","province":"Hà Nội","wardCode":"1A0804","wardName":"Phường Hoàng Liệt","address":"03 TT03 KDT tây nam linh đàm, Phường Hoàng Liệt, Quận Hoàng Mai, Thành phố Hà Nội","lat":20.958025,"lng":105.824172,"area":{"DELIVERY":{"nC":0,"nA":0.0,"oC":0,"oA":0.0},"PICK":{"nC":0,"nA":0.0,"oC":0,"oA":0.0},"RETURN":{"nC":0,"nA":0.0,"oC":0,"oA":0.0}}},{"id":"20211000","name":"Bưu cục 602 Hà Huy Tập-Gia Lâm-HN","type":"BC","region":"HNO","province":"Hà Nội","wardCode":"1A1202","wardName":"Thị trấn Yên Viên","address":"602 Hà Huy Tập, Yên Viên, Gia Lâm, Hà Nội","lat":21.0911315,"lng":105.9229204,"area":{"DELIVERY":{"nC":0,"nA":0.0,"oC":0,"oA":0.0},"PICK":{"nC":0,"nA":0.0,"oC":0,"oA":0.0},"RETURN":{"nC":0,"nA":0.0,"oC":0,"oA":0.0}}},{"id":"20218000","name":"(PYE) Tuy Hòa 3","type":"BC","region":"TNG","province":"Phú Yên","wardCode":"390101","wardName":"Phường 1","address":"27 Nguyễn Tất Thành, Phường 1, Tuy Hòa, Phú Yên ","lat":13.080185,"lng":109.298897,"area":{"DELIVERY":{"nC":0,"nA":0.0,"oC":8,"oA":44.7},"PICK":{"nC":0,"nA":0.0,"oC":8,"oA":44.7},"RETURN":{"nC":0,"nA":0.0,"oC":8,"oA":44.7}}},{"id":"20222000","name":"(SLA) Sông Mã","type":"BC","region":"TBB","province":"Sơn La","wardCode":"140901","wardName":"Thị trấn Sông Mã","address":"136 Đường Cách Mạng Tháng Tám, Thị Trấn Sông Mã, Sông Mã, Sơn La","lat":21.0512968,"lng":103.7498952,"area":{"DELIVERY":{"nC":9,"nA":1646.6,"oC":19,"oA":1639.3},"PICK":{"nC":9,"nA":1646.6,"oC":19,"oA":1639.3},"RETURN":{"nC":0,"nA":0.0,"oC":19,"oA":1639.3}}},{"id":"20227000","name":"(TGI) Tân Phước 1","type":"BC","region":"DCL","province":"Tiền Giang","wardCode":"530901","wardName":"Thị trấn Mỹ Phước","address":"Khu phố 1, Thị trấn Mỹ Phước, Tân Phước, Tiền Giang","lat":10.472133,"lng":106.196926,"area":{"DELIVERY":{"nC":3,"nA":255.8,"oC":12,"oA":304.3},"PICK":{"nC":3,"nA":255.8,"oC":12,"oA":304.3},"RETURN":{"nC":0,"nA":0.0,"oC":12,"oA":304.3}}},{"id":"20229000","name":"Bưu Cục 64 Đường 30/04 Vĩnh Châu-Sóc Trăng","type":"BC","region":"TNB","province":"Sóc Trăng","wardCode":"590701","wardName":"Phường 1","address":"64 Đường 30/4 Khóm 2 Phường 1 Thị xã Vĩnh Châu Tỉnh Sóc Trăng","lat":9.333495,"lng":105.979427,"area":{"DELIVERY":{"nC":5,"nA":474.8,"oC":10,"oA":470.3},"PICK":{"nC":5,"nA":474.8,"oC":10,"oA":470.3},"RETURN":{"nC":0,"nA":0.0,"oC":10,"oA":470.3}}},{"id":"20236000","name":"(HDU) Kẻ Sặt","type":"BC","region":"XBG","province":"Hải Dương","wardCode":"211217","wardName":"Xã Vĩnh Hồng","address":"Thôn Phục Lễ, xã Vĩnh Hồng, Bình Giang, Hải Dương","lat":20.899315,"lng":106.17707,"area":{"DELIVERY":{"nC":3,"nA":77.2,"oC":24,"oA":105.2},"PICK":{"nC":3,"nA":77.2,"oC":24,"oA":105.2},"RETURN":{"nC":3,"nA":77.2,"oC":24,"oA":105.2}}},{"id":"20239000","name":"(THO) Như Thanh","type":"BC","region":"BTB","province":"Thanh Hóa","wardCode":"281001","wardName":"Thị trấn Bến Sung","address":"219 Khu Phố 1, Thị trấn Bến Sung, Huyện Như Thanh, Tỉnh Thanh Hoá","lat":19.6323073,"lng":105.5810675,"area":{"DELIVERY":{"nC":6,"nA":583.3,"oC":17,"oA":589.0},"PICK":{"nC":6,"nA":583.3,"oC":17,"oA":589.0},"RETURN":{"nC":0,"nA":0.0,"oC":17,"oA":589.0}}},{"id":"20240000","name":"(THO) Nông Cống","type":"BC","region":"BTB","province":"Thanh Hóa","wardCode":"281901","wardName":"Thị trấn Nông Cống","address":"399 Lam Sơn, Thị trấn Nông Cống, Huyện Nông Cống, Tỉnh Thanh Hóa","lat":19.6325978,"lng":105.6592085,"area":{"DELIVERY":{"nC":6,"nA":231.6,"oC":32,"oA":282.9},"PICK":{"nC":6,"nA":231.6,"oC":32,"oA":282.9},"RETURN":{"nC":0,"nA":0.0,"oC":32,"oA":282.9}}},{"id":"20245000","name":"(GLA) Pleiku","type":"BC","region":"TNG","province":"Gia Lai","wardCode":"380104","wardName":"Phường Hoa Lư","address":"327A Cách Mạng Tháng 8, Thành Phố Pleiku, Hoa Lư, Gia Lai","lat":13.98760694010786,"lng":108.022871195856,"area":{"DELIVERY":{"nC":2,"nA":58.1,"oC":8,"oA":54.0},"PICK":{"nC":2,"nA":58.1,"oC":8,"oA":54.0},"RETURN":{"nC":0,"nA":0.0,"oC":8,"oA":54.0}}},{"id":"20253000","name":"(QNI) Quảng Yên","type":"BC","region":"XBG","province":"Quảng Ninh","wardCode":"171108","wardName":"Phường Quảng Yên","address":"226 - 228 Nguyễn Bình, Phường Quảng Yên, thị xã Quảng Yên. tỉnh Quảng Ninh","lat":20.939873,"lng":106.817752,"area":{"DELIVERY":{"nC":6,"nA":274.1,"oC":19,"oA":274.3},"PICK":{"nC":6,"nA":274.1,"oC":19,"oA":274.3},"RETURN":{"nC":0,"nA":0.0,"oC":19,"oA":274.3}}},{"id":"20257000","name":"Bưu Cục 215 Hùng Vương-Đắk Hà-Kon Tum","type":"BC","region":"TTB","province":"Kon Tum","wardCode":"360701","wardName":"Thị trấn Đắk Hà","address":"215 Hùng Vương, Thị trấn Đắk Hà, Huyện Đắk Hà, KonTum","lat":14.507,"lng":107.92304,"area":{"DELIVERY":{"nC":5,"nA":839.3,"oC":11,"oA":845.5},"PICK":{"nC":5,"nA":839.3,"oC":11,"oA":845.5},"RETURN":{"nC":5,"nA":839.3,"oC":11,"oA":845.5}}},{"id":"20257001","name":"Bưu Cục Vận Hành Tu Mơ Rông-Đắk Tô-Kon Tum","type":"BC","region":"TTB","province":"Kon Tum","wardCode":"360409","wardName":"Xã Văn Lem","address":" Toàn bộ huyện Đăk Tô","lat":14.822616,"lng":107.947561,"area":{"DELIVERY":{"nC":4,"nA":859.7,"oC":11,"oA":858.6},"PICK":{"nC":4,"nA":859.7,"oC":11,"oA":858.6},"RETURN":{"nC":4,"nA":859.7,"oC":11,"oA":858.6}}},{"id":"20257002","name":"Bưu Cục Vận Hành Đắk Tô-Quảng Ngãi","type":"BC","region":"TTB","province":"Kon Tum","wardCode":"360910","wardName":"Xã Tu Mơ Rông","address":"Toàn bộ huyện Tu Mơ Rông","lat":14.646811,"lng":107.845273,"area":{"DELIVERY":{"nC":3,"nA":508.9,"oC":9,"oA":508.3},"PICK":{"nC":3,"nA":508.9,"oC":9,"oA":508.3},"RETURN":{"nC":3,"nA":508.9,"oC":9,"oA":508.3}}},{"id":"20261000","name":"(TBI) Vũ Quý","type":"BC","region":"DSH","province":"Thái Bình","wardCode":"260632","wardName":"Xã Vũ Ninh","address":"Quốc lộ 39B Thái Bình, Vũ Ninh, Kiến Xương, Thái Bình","lat":20.4234142,"lng":106.3719153,"area":{"DELIVERY":{"nC":9,"nA":190.1,"oC":46,"oA":220.2},"PICK":{"nC":9,"nA":190.1,"oC":46,"oA":220.2},"RETURN":{"nC":0,"nA":0.0,"oC":46,"oA":220.2}}},{"id":"20269000","name":"(DNO) Kiến Đức","type":"BC","region":"NTB","province":"Đắk Nông","wardCode":"630201","wardName":"Thị trấn Kiến Đức","address":"01 Nguyễn Tất Thành, Thị Trấn Kiến Đức, Huyện Đắk R'Lấp, Đắk Nông","lat":11.999575,"lng":107.527199,"area":{"DELIVERY":{"nC":1,"nA":166.4,"oC":5,"oA":295.7},"PICK":{"nC":1,"nA":166.4,"oC":5,"oA":295.7},"RETURN":{"nC":1,"nA":166.4,"oC":5,"oA":295.7}}},{"id":"20269003","name":"Điểm Xử Lý Hàng Thôn 2-Xã Nhân Cơ-Đắk Nông","type":"BC","region":"NTB","province":"Đắk Nông","wardCode":"630204","wardName":"Xã Đắk Wer","address":"Thôn 2, xã Đắk Wer, huyện Đắk RLấp, tỉnh Đắk Nông","lat":11.984897,"lng":107.569637,"area":{"DELIVERY":{"nC":1,"nA":157.7,"oC":3,"oA":157.2},"PICK":{"nC":1,"nA":157.7,"oC":3,"oA":157.2},"RETURN":{"nC":1,"nA":157.7,"oC":3,"oA":157.2}}},{"id":"20270000","name":"Bưu Cục 322 Trần Phú-Xuân Lộc-Đồng Nai","type":"BC","region":"DNB","province":"Đồng Nai","wardCode":"480701","wardName":"Thị trấn Gia Ray","address":"322 đường Trần Phú, Huyện Xuân Lộc, Thị trấn Giá Ray, Đồng Nai","lat":10.9255652,"lng":107.4058683,"area":{"DELIVERY":{"nC":1,"nA":122.9,"oC":5,"oA":211.2},"PICK":{"nC":1,"nA":122.9,"oC":5,"oA":211.2},"RETURN":{"nC":1,"nA":122.9,"oC":5,"oA":211.2}}},{"id":"20271000","name":"(HTI) Hương Sơn","type":"BC","region":"BTB","province":"Hà Tĩnh","wardCode":"300302","wardName":"Thị trấn Phố Châu","address":"242 Lê Lợi, Thị Trấn Phố Châu, Hương Sơn, Hà Tĩnh","lat":18.508743,"lng":105.426118,"area":{"DELIVERY":{"nC":5,"nA":325.1,"oC":33,"oA":326.3},"PICK":{"nC":5,"nA":325.1,"oC":33,"oA":326.3},"RETURN":{"nC":5,"nA":325.1,"oC":33,"oA":326.3}}},{"id":"20271001","name":"Điểm xử lý hàng Huyện Vũ Quang-Hà Tĩnh","type":"BC","region":"BTB","province":"Hà Tĩnh","wardCode":"301101","wardName":"Thị trấn Vũ Quang","address":"GC5G+FCH Hương Sơn, Ha Tinh","lat":18.508702,"lng":105.42611,"area":{"DELIVERY":{"nC":7,"nA":1405.0,"oC":24,"oA":1405.9},"PICK":{"nC":7,"nA":1405.0,"oC":24,"oA":1405.9},"RETURN":{"nC":7,"nA":1405.0,"oC":24,"oA":1405.9}}},{"id":"20275000","name":"(DLA) Krông Pắc","type":"BC","region":"TNG","province":"Đắk Lắk","wardCode":"400701","wardName":"Thị trấn Phước An","address":"03 Trần Hưng Đạo, Thị trấn Phước An, Huyện Krông Pắc, Đắk Lắk","lat":12.7102068,"lng":108.3109466,"area":{"DELIVERY":{"nC":3,"nA":323.5,"oC":10,"oA":329.6},"PICK":{"nC":3,"nA":323.5,"oC":10,"oA":329.6},"RETURN":{"nC":3,"nA":323.5,"oC":10,"oA":329.6}}},{"id":"20276000","name":"Bưu Cục 305 QL14-Bù Đăng-Bình Phước","type":"BC","region":"DNB","province":"Bình Phước","wardCode":"430801","wardName":"Thị trấn Đức Phong","address":"Số 305 Quốc Lộ 14, Thị trấn Đức Phong, Huyện Bù Đăng, Tỉnh Bình Phước","lat":11.8115023,"lng":107.2376812,"area":{"DELIVERY":{"nC":2,"nA":462.7,"oC":7,"oA":546.6},"PICK":{"nC":2,"nA":462.7,"oC":7,"oA":546.6},"RETURN":{"nC":2,"nA":462.7,"oC":7,"oA":546.6}}},{"id":"20278000","name":"Bưu Cục Trường Sơn-Hòa Vang-Đà Nẵng","type":"BC","region":"TTB","province":"Đà Nẵng","wardCode":"40605","wardName":"Xã Hòa Nhơn","address":"Đường Trường Sơn, Thạch Nham Tây, Hòa Nhơn, Hòa Vang, Đà Nẵng","lat":16.00726,"lng":108.14923,"area":{"DELIVERY":{"nC":3,"nA":308.5,"oC":9,"oA":351.7},"PICK":{"nC":3,"nA":308.5,"oC":9,"oA":351.7},"RETURN":{"nC":3,"nA":308.5,"oC":9,"oA":351.7}}},{"id":"20283000","name":"(BVT) Vũng Tàu 2","type":"BC","region":"HCM","province":"Bà Rịa - Vũng Tàu","wardCode":"520115","wardName":"Phường Thắng Nhì","address":"87 Nguyễn An Ninh, Phường Thắng Nhì, Tp.Vũng Tàu, Bà Rịa-Vũng Tàu","lat":10.37013,"lng":107.07888,"area":{"DELIVERY":{"nC":0,"nA":0.0,"oC":5,"oA":11.5},"PICK":{"nC":0,"nA":0.0,"oC":5,"oA":11.5},"RETURN":{"nC":0,"nA":0.0,"oC":5,"oA":11.5}}},{"id":"20287000","name":"(THO) Hậu Lộc","type":"BC","region":"BTB","province":"Thanh Hóa","wardCode":"282401","wardName":"Thị trấn Hậu Lộc","address":"25 Khu Phú Cường, Thị trấn Hậu Lộc, Huyện Hậu Lộc, Tỉnh Thanh Hóa","lat":19.916787,"lng":105.88267,"area":{"DELIVERY":{"nC":5,"nA":139.7,"oC":27,"oA":140.0},"PICK":{"nC":5,"nA":139.7,"oC":27,"oA":140.0},"RETURN":{"nC":0,"nA":0.0,"oC":27,"oA":140.0}}},{"id":"20291000","name":"(THO) Trúc Lâm","type":"BC","region":"BTB","province":"Thanh Hóa","wardCode":"282633","wardName":"Xã Tùng Lâm","address":"Thôn Khoa Trường, Xã Tùng Lâm, Huyện Tĩnh Gia, Tỉnh Thanh Hóa","lat":19.370872,"lng":105.7316933,"area":{"DELIVERY":{"nC":4,"nA":231.7,"oC":12,"oA":228.2},"PICK":{"nC":4,"nA":231.7,"oC":12,"oA":228.2},"RETURN":{"nC":0,"nA":0.0,"oC":12,"oA":228.2}}},{"id":"20295000","name":"(DLA) Ea Wer","type":"BC","region":"TNG","province":"Đắk Lắk","wardCode":"400121","wardName":"Xã Hòa Xuân","address":"Km 30, Phường Tân Hòa, Huyện Buôn Đôn, Tỉnh Đắk Lắk","lat":12.807245,"lng":107.898751,"area":{"DELIVERY":{"nC":3,"nA":1405.0,"oC":7,"oA":1408.6},"PICK":{"nC":3,"nA":1405.0,"oC":7,"oA":1408.6},"RETURN":{"nC":3,"nA":1405.0,"oC":7,"oA":1408.6}}},{"id":"20296000","name":"(PYE) Tuy Hòa 2","type":"BC","region":"TNG","province":"Phú Yên","wardCode":"390107","wardName":"Phường 7","address":"274 Hùng Vương, Phường 7, Thành phố Tuy Hòa, Phú Yên ","lat":13.096285,"lng":109.312201,"area":{"DELIVERY":{"nC":1,"nA":73.9,"oC":9,"oA":79.8},"PICK":{"nC":1,"nA":73.9,"oC":9,"oA":79.8},"RETURN":{"nC":0,"nA":0.0,"oC":9,"oA":79.8}}},{"id":"20299000","name":"(DLA) Dray Bhăng","type":"BC","region":"TNG","province":"Đắk Lắk","wardCode":"401402","wardName":"Xã Dray Bhăng","address":"Km 18 thôn Kim Châu, Dray Bhăng, Cư Kuin, Đắk Lắk","lat":12.56339,"lng":108.168602,"area":{"DELIVERY":{"nC":3,"nA":290.4,"oC":8,"oA":285.9},"PICK":{"nC":3,"nA":290.4,"oC":8,"oA":285.9},"RETURN":{"nC":3,"nA":290.4,"oC":8,"oA":285.9}}},{"id":"20306000","name":"(HNA) Bình Mỹ","type":"BC","region":"TNT","province":"Hà Nam","wardCode":"240601","wardName":"Thị trấn Bình Mỹ","address":"150 Trần Hưng Đạo, Thị trấn Bình Mỹ, Bình Lục, Hà Nam","lat":20.484271,"lng":106.027276,"area":{"DELIVERY":{"nC":5,"nA":144.1,"oC":21,"oA":138.2},"PICK":{"nC":5,"nA":144.1,"oC":21,"oA":138.2},"RETURN":{"nC":5,"nA":144.1,"oC":21,"oA":138.2}}},{"id":"20310000","name":"(NDI) Hải Hậu","type":"BC","region":"TNT","province":"Nam Định","wardCode":"251003","wardName":"Thị trấn Yên Định","address":"Khu 3, Thị Trấn Yên Định, Huyện Hải Hậu, Tỉnh Nam Định","lat":20.188909,"lng":106.291478,"area":{"DELIVERY":{"nC":4,"nA":115.1,"oC":20,"oA":114.2},"PICK":{"nC":4,"nA":115.1,"oC":20,"oA":114.2},"RETURN":{"nC":3,"nA":88.1,"oC":20,"oA":114.2}}},{"id":"20312000","name":"Bưu Cục Đường Núi Đôi-Sóc Sơn-HN","type":"BC","region":"HNO","province":"Hà Nội","wardCode":"1A1401","wardName":"Thị trấn Sóc Sơn","address":"Đường Núi Đôi, Thị Trấn Sóc Sơn, Huyện Sóc Sơn, Hà Nội","lat":21.257079,"lng":105.857532,"area":{"DELIVERY":{"nC":0,"nA":0.0,"oC":0,"oA":0.0},"PICK":{"nC":0,"nA":0.0,"oC":0,"oA":0.0},"RETURN":{"nC":0,"nA":0.0,"oC":0,"oA":0.0}}},{"id":"20315000","name":"Bưu Cục 12 Nguyễn Thị Minh Khai-Bắc Sơn-Lạng Sơn","type":"BC","region":"XBG","province":"Lạng Sơn","wardCode":"100501","wardName":"Thị trấn Bắc Sơn","address":"Số 12 Nguyễn Thị Minh Khai, Thị trấn Bắc Sơn, Huyện Bắc Sơn,Tỉnh Lạng Sơn","lat":21.900985,"lng":106.319072,"area":{"DELIVERY":{"nC":6,"nA":699.2,"oC":21,"oA":698.6},"PICK":{"nC":6,"nA":699.2,"oC":21,"oA":698.6},"RETURN":{"nC":6,"nA":699.2,"oC":21,"oA":698.6}}},{"id":"20316000","name":"(NTH) Ninh Sơn","type":"BC","region":"NTB","province":"Ninh Thuận","wardCode":"450201","wardName":"Thị trấn Tân Sơn","address":"26A Lê Duẩn, Thị Trấn Tân Sơn, Huyện Ninh Sơn, Ninh Thuận","lat":11.7635539,"lng":108.7913525,"area":{"DELIVERY":{"nC":7,"nA":1762.2,"oC":16,"oA":1764.3},"PICK":{"nC":7,"nA":1762.2,"oC":16,"oA":1764.3},"RETURN":{"nC":0,"nA":0.0,"oC":16,"oA":1764.3}}},{"id":"20320000","name":"(KHO) Tây Nha Trang","type":"BC","region":"NTB","province":"Khánh Hòa","wardCode":"410121","wardName":"Xã Vĩnh Hiệp","address":"466 đường 23/10, Xã Vĩnh Hiệp, Tp.Nha Trang, Khánh Hòa","lat":12.2552989,"lng":109.1662552,"area":{"DELIVERY":{"nC":0,"nA":0.0,"oC":4,"oA":14.2},"PICK":{"nC":0,"nA":0.0,"oC":4,"oA":14.2},"RETURN":{"nC":0,"nA":0.0,"oC":4,"oA":14.2}}},{"id":"20324000","name":"Bưu Cục 36 Lý Thái Tổ-Điện Bàn-Quảng Nam","type":"BC","region":"TTB","province":"Quảng Nam","wardCode":"340401","wardName":"Phường Điện An","address":"36 Lý Thái Tổ, Phường Điện An, Thị xã Điện Bàn, Tỉnh Quảng Nam","lat":15.9040239,"lng":108.2414253,"area":{"DELIVERY":{"nC":5,"nA":154.9,"oC":15,"oA":154.0},"PICK":{"nC":5,"nA":154.9,"oC":15,"oA":154.0},"RETURN":{"nC":0,"nA":0.0,"oC":15,"oA":154.0}}},{"id":"20325000","name":"(VPH) Yên Lãng","type":"BC","region":"TNT","province":"Vĩnh Phúc","wardCode":"160709","wardName":"Xã Lãng Công","address":"Thôn Lãng Sơn, Xã Lãng Công, Huyện Sông Lô, Tỉnh Vĩnh Phúc","lat":21.46973,"lng":105.37879,"area":{"DELIVERY":{"nC":1,"nA":37.9,"oC":4,"oA":51.1},"PICK":{"nC":1,"nA":37.9,"oC":4,"oA":51.1},"RETURN":{"nC":0,"nA":0.0,"oC":4,"oA":51.1}}},{"id":"20327000","name":"(GLA) Đak Đoa","type":"BC","region":"TNG","province":"Gia Lai","wardCode":"381301","wardName":"Thị trấn Đăk Đoa","address":"236A Nguyễn Huệ, TT Đăk Đoa, Huyện Đăk Đoa, Gia Lai","lat":13.995906,"lng":108.115577,"area":{"DELIVERY":{"nC":5,"nA":866.2,"oC":16,"oA":911.4},"PICK":{"nC":5,"nA":866.2,"oC":16,"oA":911.4},"RETURN":{"nC":5,"nA":866.2,"oC":16,"oA":911.4}}},{"id":"20328000","name":"(GLA) Chư Păh","type":"BC","region":"TNG","province":"Gia Lai","wardCode":"380202","wardName":"Thị trấn Phú Hòa","address":"73 Lê Lợi, Thị trấn Phú Hòa, Huyện Chư Păh, Tỉnh Gia Lai","lat":14.102216,"lng":107.973014,"area":{"DELIVERY":{"nC":4,"nA":883.7,"oC":15,"oA":968.6},"PICK":{"nC":4,"nA":883.7,"oC":15,"oA":968.6},"RETURN":{"nC":4,"nA":883.7,"oC":15,"oA":968.6}}},{"id":"20329000","name":"(THO) Quảng Phú","type":"BC","region":"BTB","province":"Thanh Hóa","wardCode":"280115","wardName":"Phường Quảng Hưng","address":"Khu phố 1, Phường Quảng Hưng, Thành phố Thanh Hóa, Tỉnh Thanh Hóa","lat":19.7904246,"lng":105.7977821,"area":{"DELIVERY":{"nC":0,"nA":0.0,"oC":11,"oA":45.4},"PICK":{"nC":0,"nA":0.0,"oC":11,"oA":45.4},"RETURN":{"nC":0,"nA":0.0,"oC":11,"oA":45.4}}},{"id":"20339000","name":"Bưu Cục 106 Kỳ Đồng-Q.Thanh Khê-Đà Nẵng","type":"BC","region":"TTB","province":"Đà Nẵng","wardCode":"40210","wardName":"Phường Xuân Hà","address":"106 Kỳ Đồng, Phường Xuân Hà, Quận Thanh Khê, Đà Nẵng","lat":16.07025,"lng":108.18898,"area":{"DELIVERY":{"nC":0,"nA":0.0,"oC":5,"oA":1.6},"PICK":{"nC":0,"nA":0.0,"oC":5,"oA":1.6},"RETURN":{"nC":0,"nA":0.0,"oC":5,"oA":1.6}}},{"id":"20341000","name":"(GLA) Đức Cơ","type":"BC","region":"TNG","province":"Gia Lai","wardCode":"380701","wardName":"Thị trấn Chư Ty","address":"172 Quang Trung , TT Chư Ty, Huyện Đức Cơ, Tỉnh Gia Lai","lat":13.806076,"lng":107.701065,"area":{"DELIVERY":{"nC":6,"nA":720.9,"oC":10,"oA":717.7},"PICK":{"nC":6,"nA":720.9,"oC":10,"oA":717.7},"RETURN":{"nC":6,"nA":720.9,"oC":10,"oA":717.7}}},{"id":"20342000","name":"(GLA) Chư Sê","type":"BC","region":"TNG","province":"Gia Lai","wardCode":"380901","wardName":"Thị trấn Chư Sê","address":"56 Đường 17 Tháng 3, TT Chư Sê, Huyện Chư Sê, Tỉnh Gia Lai","lat":13.689551,"lng":108.082649,"area":{"DELIVERY":{"nC":4,"nA":616.9,"oC":15,"oA":619.1},"PICK":{"nC":4,"nA":616.9,"oC":15,"oA":619.1},"RETURN":{"nC":3,"nA":406.2,"oC":15,"oA":619.1}}},{"id":"20349000","name":"(TGI) Đồng Sơn","type":"BC","region":"DCL","province":"Tiền Giang","wardCode":"530702","wardName":"Xã Bình Nhì","address":"Quốc Lộ 50, Ấp Thạnh Lạc, Xã Bình Nhì, Huyện Gò Công Tây, Tiền Giang","lat":10.357446,"lng":106.576769,"area":{"DELIVERY":{"nC":7,"nA":328.5,"oC":19,"oA":334.7},"PICK":{"nC":7,"nA":328.5,"oC":19,"oA":334.7},"RETURN":{"nC":0,"nA":0.0,"oC":19,"oA":334.7}}},{"id":"20353000","name":"(NBI) Yên Mô","type":"BC","region":"TNT","province":"Ninh Bình","wardCode":"270601","wardName":"Thị trấn Yên Thịnh","address":"Đường 480 QL12B, Thị trấn Yên Thịnh, Huyện Yên Mô, Tỉnh Ninh Bình","lat":20.162693,"lng":106.003394,"area":{"DELIVERY":{"nC":5,"nA":154.6,"oC":18,"oA":151.9},"PICK":{"nC":5,"nA":154.6,"oC":18,"oA":151.9},"RETURN":{"nC":4,"nA":122.5,"oC":18,"oA":151.9}}},{"id":"20355000","name":"(QNI) Hoành Bồ","type":"BC","region":"XBG","province":"Quảng Ninh","wardCode":"171201","wardName":"Thị trấn Trới","address":"281 Nguyễn Trãi, Thị trấn Trới, Huyện Hoành Bồ, Tỉnh Quảng Ninh","lat":21.032098,"lng":106.992132,"area":{"DELIVERY":{"nC":3,"nA":602.3,"oC":28,"oA":865.8},"PICK":{"nC":3,"nA":602.3,"oC":28,"oA":865.8},"RETURN":{"nC":0,"nA":0.0,"oC":28,"oA":865.8}}},{"id":"20358000","name":"Bưu Cục 137 Đường 30/04-Trần Văn Thời-Cà Mau","type":"BC","region":"TNB","province":"Cà Mau","wardCode":"610402","wardName":"Thị trấn Trần Văn Thời","address":"Số 137 Đường 30/04, Khóm 7, Thị Trấn Trần Văn Thời, Huyện Trần Văn Thời, Cà Mau","lat":9.0766818,"lng":104.9714343,"area":{"DELIVERY":{"nC":1,"nA":105.0,"oC":8,"oA":394.8},"PICK":{"nC":1,"nA":105.0,"oC":8,"oA":394.8},"RETURN":{"nC":2,"nA":238.0,"oC":8,"oA":394.8}}},{"id":"20364000","name":"Bưu Cục Số 1 Tân Khai-Q.Hoàng Mai-HN","type":"BC","region":"HNO","province":"Hà Nội","wardCode":"1A0813","wardName":"Phường Vĩnh Hưng","address":"Số 1 Tân Khai, Phường Vĩnh Hưng, Quận Hoàng Mai, Thành phố Hà Nội","lat":20.9925395,"lng":105.8733538,"area":{"DELIVERY":{"nC":0,"nA":0.0,"oC":0,"oA":0.0},"PICK":{"nC":0,"nA":0.0,"oC":0,"oA":0.0},"RETURN":{"nC":1,"nA":2.2,"oC":0,"oA":0.0}}},{"id":"20365000","name":"(HAG) Quang Bình","type":"BC","region":"DBB","province":"Hà Giang","wardCode":"51101","wardName":"Thị trấn Yên Bình","address":"Số 92 Đường 279, Thị trấn Yên Bình, Huyện Quang Bình, Tỉnh Hà Giang","lat":22.413448,"lng":104.579224,"area":{"DELIVERY":{"nC":6,"nA":591.2,"oC":14,"oA":692.7},"PICK":{"nC":6,"nA":591.2,"oC":14,"oA":692.7},"RETURN":{"nC":6,"nA":591.2,"oC":14,"oA":692.7}}},{"id":"20365001","name":"Điểm xử lý hàng Xín Mần 2-Hà Giang","type":"BC","region":"DBB","province":"Hà Giang","wardCode":"51101","wardName":"Thị trấn Yên Bình","address":"Số 92 Đường 279, Thị trấn Yên Bình, Huyện Quang Bình, Tỉnh Hà Giang","lat":22.413628,"lng":104.579256,"area":{"DELIVERY":{"nC":2,"nA":219.9,"oC":4,"oA":300.2},"PICK":{"nC":2,"nA":219.9,"oC":4,"oA":300.2},"RETURN":{"nC":2,"nA":219.9,"oC":4,"oA":300.2}}},{"id":"20373000","name":"(HPH) Bạch Đằng","type":"BC","region":"XBG","province":"Hải Phòng","wardCode":"30926","wardName":"Xã Ngũ Lão","address":"DT359, Xã Ngũ Lão, Huyện Thủy Nguyên, Thành phố Hải Phòng","lat":20.941975,"lng":106.728829,"area":{"DELIVERY":{"nC":1,"nA":28.8,"oC":12,"oA":82.5},"PICK":{"nC":1,"nA":28.8,"oC":12,"oA":82.5},"RETURN":{"nC":1,"nA":28.8,"oC":12,"oA":82.5}}},{"id":"20374000","name":"Bưu Cục 219 Sơn Đồng-Hoài Đức-HN","type":"BC","region":"HNO","province":"Hà Nội","wardCode":"1B2315","wardName":"Xã Sơn Đồng","address":"219 Đường Sơn Đồng Cát Quế, Xã Sơn Đồng, Huyện Hoà Đức, Hà Nội","lat":21.0472,"lng":105.69787,"area":{"DELIVERY":{"nC":1,"nA":17.8,"oC":0,"oA":0.0},"PICK":{"nC":1,"nA":17.8,"oC":0,"oA":0.0},"RETURN":{"nC":1,"nA":17.8,"oC":0,"oA":0.0}}},{"id":"20377000","name":"(HPH) Thủy Nguyên","type":"BC","region":"XBG","province":"Hải Phòng","wardCode":"30932","wardName":"Xã Tân Dương","address":"Phố Mới, Xã Tân Dương, Huyện Thủy Nguyên, Hải Phòng","lat":20.893081,"lng":106.67326,"area":{"DELIVERY":{"nC":1,"nA":20.8,"oC":13,"oA":55.6},"PICK":{"nC":1,"nA":20.8,"oC":13,"oA":55.6},"RETURN":{"nC":1,"nA":20.8,"oC":13,"oA":55.6}}},{"id":"20381000","name":"(QNI) Uông Bí","type":"BC","region":"XBG","province":"Quảng Ninh","wardCode":"170305","wardName":"Phường Quang Trung","address":"132 Quang Trung, Phường Quang Trung, TP. Uông Bí, Tỉnh Quảng Ninh","lat":21.035331,"lng":106.78093,"area":{"DELIVERY":{"nC":3,"nA":255.6,"oC":11,"oA":256.3},"PICK":{"nC":3,"nA":255.6,"oC":11,"oA":256.3},"RETURN":{"nC":0,"nA":0.0,"oC":11,"oA":256.3}}},{"id":"20384000","name":"Bưu Cục 8B Nguyễn Lân-Q.Thanh Xuân-HN","type":"BC","region":"HNO","province":"Hà Nội","wardCode":"1A0707","wardName":"Phường Phương Liệt","address":"8B Nguyễn Lân, Phường Phương Liệt, Quận Thanh Xuân, Hà Nội","lat":20.9961017,"lng":105.8362074,"area":{"DELIVERY":{"nC":0,"nA":0.0,"oC":0,"oA":0.0},"PICK":{"nC":0,"nA":0.0,"oC":0,"oA":0.0},"RETURN":{"nC":0,"nA":0.0,"oC":0,"oA":0.0}}},{"id":"20385000","name":"(BDI) Quy Nhơn Bắc","type":"BC","region":"TNG","province":"Bình Định","wardCode":"370111","wardName":"Phường Nhơn Phú","address":"767 Hùng Vương, Phường Nhơn Phú, Thành phố Quy Nhơn, Bình Định","lat":13.7954762,"lng":109.1779576,"area":{"DELIVERY":{"nC":1,"nA":82.8,"oC":4,"oA":80.6},"PICK":{"nC":1,"nA":82.8,"oC":4,"oA":80.6},"RETURN":{"nC":0,"nA":0.0,"oC":4,"oA":80.6}}},{"id":"20391000","name":"(NAN) Đô Lương","type":"BC","region":"BTB","province":"Nghệ An","wardCode":"291401","wardName":"Thị trấn Đô Lương","address":"Khối 9, Thị Trấn Đô Lương, Huyện Đô Lương, Nghệ An","lat":18.897108,"lng":105.302903,"area":{"DELIVERY":{"nC":3,"nA":167.0,"oC":24,"oA":209.1},"PICK":{"nC":3,"nA":167.0,"oC":24,"oA":209.1},"RETURN":{"nC":4,"nA":222.4,"oC":24,"oA":209.1}}},{"id":"20396000","name":"(BGI) Nhã Nam","type":"BC","region":"XBG","province":"Bắc Giang","wardCode":"180602","wardName":"Thị trấn Nhã Nam","address":"Thị trấn Nhã Nam, Huyện Tân Yên, Tỉnh Bắc Giang","lat":21.441093,"lng":106.089223,"area":{"DELIVERY":{"nC":2,"nA":66.5,"oC":16,"oA":102.2},"PICK":{"nC":2,"nA":66.5,"oC":16,"oA":102.2},"RETURN":{"nC":2,"nA":66.5,"oC":16,"oA":102.2}}},{"id":"20398000","name":"(NBI) Yên Khánh","type":"BC","region":"TNT","province":"Ninh Bình","wardCode":"270801","wardName":"Thị trấn Yên Ninh","address":" Đường Quốc lộ 10, Thị trấn Yên Ninh, Huyện Yên Khánh, Tỉnh Ninh Bình","lat":20.171771,"lng":106.072393,"area":{"DELIVERY":{"nC":5,"nA":123.5,"oC":16,"oA":122.3},"PICK":{"nC":5,"nA":123.5,"oC":16,"oA":122.3},"RETURN":{"nC":5,"nA":123.5,"oC":16,"oA":122.3}}},{"id":"20400000","name":"(NBI) Hoa Lư 1","type":"BC","region":"TNT","province":"Ninh Bình","wardCode":"270105","wardName":"Phường Ninh Khánh","address":"64 Trần Hưng Đạo, Phường Ninh Khánh, TP. Ninh Bình, Tỉnh Ninh Bình","lat":20.286076,"lng":105.958887,"area":{"DELIVERY":{"nC":0,"nA":0.0,"oC":13,"oA":42.6},"PICK":{"nC":0,"nA":0.0,"oC":13,"oA":42.6},"RETURN":{"nC":0,"nA":0.0,"oC":13,"oA":42.6}}},{"id":"20404000","name":"Bưu Cục 139 Thụy Phương-Q.Bắc Từ Liêm-HN","type":"BC","region":"HNO","province":"Hà Nội","wardCode":"11011","wardName":"Phường Thụy Phương","address":"139 Thụy Phương, Phường Thụy Phương, Quận Bắc Từ Liêm, Hà Nội","lat":21.09094109,"lng":105.7775882,"area":{"DELIVERY":{"nC":0,"nA":0.0,"oC":3,"oA":6.6},"PICK":{"nC":0,"nA":0.0,"oC":3,"oA":6.6},"RETURN":{"nC":1,"nA":8.6,"oC":3,"oA":6.6}}},{"id":"20458000","name":"(DLA) Buôn Ma Thuột 2","type":"BC","region":"TNG","province":"Đắk Lắk","wardCode":"400108","wardName":"Phường Tân Tiến","address":"132 Hoàng Hoa Thám, Phường Tân Tiến, Thành phố Buôn Ma Thuột, Tỉnh Đắk Lắk","lat":12.67423,"lng":108.029545,"area":{"DELIVERY":{"nC":0,"nA":0.0,"oC":4,"oA":50.9},"PICK":{"nC":0,"nA":0.0,"oC":4,"oA":50.9},"RETURN":{"nC":0,"nA":0.0,"oC":4,"oA":50.9}}},{"id":"20459000","name":"(HDU) Nam Sách","type":"BC","region":"XBG","province":"Hải Dương","wardCode":"210301","wardName":"Thị trấn Nam Sách","address":"102 Nguyễn Đăng Lành, Thị trấn Nam Sách, Huyện Nam Sách, Hải Dương","lat":21.002885,"lng":106.335296,"area":{"DELIVERY":{"nC":5,"nA":110.7,"oC":26,"oA":107.0},"PICK":{"nC":5,"nA":110.7,"oC":26,"oA":107.0},"RETURN":{"nC":5,"nA":110.7,"oC":26,"oA":107.0}}},{"id":"20470000","name":"(GLA) Hội Phú","type":"BC","region":"TNG","province":"Gia Lai","wardCode":"380101","wardName":"Phường Chi Lăng","address":"569 Trường Chinh, Phường Chi Lăng, Tp Pleiku, Gia Lai","lat":13.9433557,"lng":108.0109317,"area":{"DELIVERY":{"nC":1,"nA":33.5,"oC":8,"oA":89.5},"PICK":{"nC":1,"nA":33.5,"oC":8,"oA":89.5},"RETURN":{"nC":1,"nA":33.5,"oC":8,"oA":89.5}}},{"id":"20471000","name":"(BGI) Yên Thế","type":"BC","region":"XBG","province":"Bắc Giang","wardCode":"180215","wardName":"Thị trấn Phồn Xương","address":"215 Đề Nắm, Thị trấn Phồn Xương, Huyện Yên Thế, Tỉnh Bắc Giang","lat":21.481123,"lng":106.123091,"area":{"DELIVERY":{"nC":2,"nA":158.5,"oC":12,"oA":212.4},"PICK":{"nC":2,"nA":158.5,"oC":12,"oA":212.4},"RETURN":{"nC":2,"nA":158.5,"oC":12,"oA":212.4}}},{"id":"20472000","name":"Bưu Cục Tổ 4 KP7 767- Vĩnh Cửu-Đồng Nai","type":"BC","region":"DNB","province":"Đồng Nai","wardCode":"480201","wardName":"Thị trấn Vĩnh An","address":"Tổ 4 KP7 767 , Thị trấn Vĩnh An, Huyện Vĩnh Cửu, Tỉnh Đồng Nai ","lat":11.0615692,"lng":107.0252301,"area":{"DELIVERY":{"nC":2,"nA":938.3,"oC":6,"oA":966.6},"PICK":{"nC":2,"nA":938.3,"oC":6,"oA":966.6},"RETURN":{"nC":2,"nA":938.3,"oC":6,"oA":966.6}}},{"id":"20473000","name":"Bưu Cục 68 Quốc Lộ 1A-Trảng Bom-Đồng Nai","type":"BC","region":"DNB","province":"Đồng Nai","wardCode":"481005","wardName":"Xã Bình Minh","address":" 68 Quốc Lộ 1A, Xã Bình Minh, Huyện Trảng Bom, Tỉnh Đồng Nai ","lat":10.9553138,"lng":106.9673351,"area":{"DELIVERY":{"nC":0,"nA":0.0,"oC":4,"oA":52.7},"PICK":{"nC":0,"nA":0.0,"oC":4,"oA":52.7},"RETURN":{"nC":0,"nA":0.0,"oC":4,"oA":52.7}}},{"id":"20478000","name":"(VLO) Trà Ôn","type":"BC","region":"DCL","province":"Vĩnh Long","wardCode":"570601","wardName":"Thị trấn Trà Ôn","address":"Tổ 1, Đường 30/4 , TT.Trà Ôn, Huyện Trà Ôn, Tỉnh Vĩnh Long","lat":9.964779,"lng":105.925512,"area":{"DELIVERY":{"nC":3,"nA":153.3,"oC":8,"oA":152.2},"PICK":{"nC":3,"nA":153.3,"oC":8,"oA":152.2},"RETURN":{"nC":0,"nA":0.0,"oC":8,"oA":152.2}}},{"id":"20479000","name":"(BVT) Phước Thắng","type":"BC","region":"HCM","province":"Bà Rịa - Vũng Tàu","wardCode":"520104","wardName":"Phường 12","address":"1459 Đường 30/4, Phường 12, Thành phố Vũng Tàu, Bà Rịa Vũng Tàu","lat":10.419124,"lng":107.149475,"area":{"DELIVERY":{"nC":2,"nA":99.0,"oC":4,"oA":102.0},"PICK":{"nC":2,"nA":99.0,"oC":4,"oA":102.0},"RETURN":{"nC":2,"nA":99.0,"oC":4,"oA":102.0}}},{"id":"20487000","name":"(BNI) Đào Viên","type":"BC","region":"XBG","province":"Bắc Ninh","wardCode":"190308","wardName":"Xã Đào Viên","address":"Đào Viên, Huyện Quế Võ, Tỉnh Bắc Ninh","lat":21.130831,"lng":106.2037,"area":{"DELIVERY":{"nC":2,"nA":55.4,"oC":12,"oA":98.4},"PICK":{"nC":2,"nA":55.4,"oC":12,"oA":98.4},"RETURN":{"nC":2,"nA":55.4,"oC":12,"oA":98.4}}},{"id":"20488000","name":"(BDU) Bắc Tân Uyên","type":"BC","region":"HCM","province":"Bình Dương","wardCode":"440910","wardName":"Xã Thường Tân","address":"Khu Phố 4, Thị Trấn Tân Thành, Huyện Bắc Tân Uyên, Tỉnh Bình Dương","lat":11.155679,"lng":106.843927,"area":{"DELIVERY":{"nC":2,"nA":265.7,"oC":8,"oA":313.4},"PICK":{"nC":2,"nA":265.7,"oC":8,"oA":313.4},"RETURN":{"nC":2,"nA":265.7,"oC":8,"oA":313.4}}},{"id":"20492000","name":"Bưu Cục 107 Nguyễn Chí Thanh-Tân Biên-Tây Ninh","type":"BC","region":"DNB","province":"Tây Ninh","wardCode":"460201","wardName":"Thị trấn Tân Biên","address":"107 Nguyễn Chí Thanh, Tân Biên, Tây Ninh","lat":11.5437577,"lng":106.0127918,"area":{"DELIVERY":{"nC":2,"nA":263.1,"oC":6,"oA":365.5},"PICK":{"nC":2,"nA":263.1,"oC":6,"oA":365.5},"RETURN":{"nC":0,"nA":0.0,"oC":6,"oA":365.5}}},{"id":"20494000","name":"Bưu Cục KP1 Quốc Lộ 13-Hớn Quản-Bình Phước","type":"BC","region":"DNB","province":"Bình Phước","wardCode":"430909","wardName":"Xã Tân Khai","address":"Khu Phố 1, Quốc Lộ 13, Thị trấn Tân Khai, Huyện Hớn Quản, Tỉnh Bình Phước","lat":11.568175,"lng":106.616933,"area":{"DELIVERY":{"nC":2,"nA":366.1,"oC":9,"oA":486.5},"PICK":{"nC":2,"nA":366.1,"oC":9,"oA":486.5},"RETURN":{"nC":2,"nA":366.1,"oC":9,"oA":486.5}}},{"id":"20495000","name":"(KHO) Nha Trang","type":"BC","region":"NTB","province":"Khánh Hòa","wardCode":"410112","wardName":"Phường Vạn Thạnh","address":"40A Yết Kiêu, Phường Vạn Thạnh, Nha Trang, Khánh Hoà","lat":12.250078,"lng":109.189427,"area":{"DELIVERY":{"nC":0,"nA":0.0,"oC":4,"oA":2.3},"PICK":{"nC":0,"nA":0.0,"oC":4,"oA":2.3},"RETURN":{"nC":0,"nA":0.0,"oC":4,"oA":2.3}}},{"id":"20497000","name":"Bưu Cục 24 Khu Phố Thanh Bình-Bù Đốp-Bình Phước","type":"BC","region":"DNB","province":"Bình Phước","wardCode":"430601","wardName":"Thị trấn Thanh Bình","address":"Số Nhà 24, Khu Phố Thanh Bình, Thị trấn Thanh Bình, Huyện Bù Đốp, Tỉnh Bình Phước","lat":11.9660944,"lng":106.798149,"area":{"DELIVERY":{"nC":2,"nA":297.1,"oC":7,"oA":376.1},"PICK":{"nC":2,"nA":297.1,"oC":7,"oA":376.1},"RETURN":{"nC":2,"nA":297.1,"oC":7,"oA":376.1}}},{"id":"20499000","name":"(NTH) Phước Dinh","type":"BC","region":"NTB","province":"Ninh Thuận","wardCode":"450402","wardName":"Xã An Hải","address":"Quốc Lộ 1A, Thôn Long Bình 2, An Hải, Ninh Phước, Ninh Thuận","lat":11.547637,"lng":108.963719,"area":{"DELIVERY":{"nC":3,"nA":316.9,"oC":10,"oA":472.1},"PICK":{"nC":3,"nA":316.9,"oC":10,"oA":472.1},"RETURN":{"nC":0,"nA":0.0,"oC":10,"oA":472.1}}},{"id":"20501000","name":"(HDU) Thành Đông","type":"BC","region":"XBG","province":"Hải Dương","wardCode":"210102","wardName":"Phường Bình Hàn","address":"120 An Định, Phường Bình Hàn, Thành Phố Hải Dương, Hải Dương","lat":20.951105,"lng":106.32933,"area":{"DELIVERY":{"nC":2,"nA":20.1,"oC":12,"oA":34.4},"PICK":{"nC":2,"nA":20.1,"oC":12,"oA":34.4},"RETURN":{"nC":2,"nA":20.1,"oC":12,"oA":34.4}}},{"id":"20507000","name":"(THN) Đồng Hỷ","type":"BC","region":"DBB","province":"Thái Nguyên","wardCode":"120706","wardName":"Xã Hóa Thượng","address":"Đường Lê Qúy Đôn, Xã Hóa Thượng, Huyện Đồng Hỷ, Tỉnh Thái Nguyên","lat":21.636695,"lng":105.845766,"area":{"DELIVERY":{"nC":1,"nA":75.8,"oC":12,"oA":172.2},"PICK":{"nC":1,"nA":75.8,"oC":12,"oA":172.2},"RETURN":{"nC":0,"nA":0.0,"oC":12,"oA":172.2}}},{"id":"20508000","name":"(HNA) Vĩnh Trụ","type":"BC","region":"TNT","province":"Hà Nam","wardCode":"240401","wardName":"Thị trấn Vĩnh Trụ","address":"Thị trấn Vĩnh Trụ, Lý Nhân, Hà Nam","lat":20.553684,"lng":106.039105,"area":{"DELIVERY":{"nC":7,"nA":167.4,"oC":24,"oA":165.8},"PICK":{"nC":7,"nA":167.4,"oC":24,"oA":165.8},"RETURN":{"nC":7,"nA":167.4,"oC":24,"oA":165.8}}},{"id":"20511000","name":"(BDU) Tân Hiệp 2","type":"BC","region":"HCM","province":"Bình Dương","wardCode":"440302","wardName":"Phường Tân Hiệp","address":"Đường Tân Hiệp 04, Tân Hiệp, Tân Uyên, Bình Dương","lat":11.064461,"lng":106.746061,"area":{"DELIVERY":{"nC":0,"nA":0.0,"oC":2,"oA":34.4},"PICK":{"nC":0,"nA":0.0,"oC":2,"oA":34.4},"RETURN":{"nC":0,"nA":0.0,"oC":2,"oA":34.4}}},{"id":"20512000","name":"(BDU) Bến Cát","type":"BC","region":"HCM","province":"Bình Dương","wardCode":"440203","wardName":"Phường Mỹ Phước","address":"Đường DA 1-1 Khu Phố 3, Phường Mỹ Phước,Thị xã Bến Cát, Bình Dương","lat":11.147391,"lng":106.611843,"area":{"DELIVERY":{"nC":0,"nA":0.0,"oC":1,"oA":21.0},"PICK":{"nC":0,"nA":0.0,"oC":1,"oA":21.0},"RETURN":{"nC":0,"nA":0.0,"oC":1,"oA":21.0}}},{"id":"20514000","name":"(BNI) Thuận Thành","type":"BC","region":"XBG","province":"Bắc Ninh","wardCode":"190605","wardName":"Xã Gia Đông","address":"Tam Á, Xã Gia Đông, Huyện Thuận Thành, Bắc Ninh","lat":21.034801,"lng":106.06588,"area":{"DELIVERY":{"nC":6,"nA":117.7,"oC":18,"oA":116.7},"PICK":{"nC":6,"nA":117.7,"oC":18,"oA":116.7},"RETURN":{"nC":6,"nA":117.7,"oC":18,"oA":116.7}}},{"id":"20519000","name":"Bưu Cục 10 Đường số 8-Linh Xuân-Q.Thủ Đức-HCM","type":"BC","region":"HCM","province":"Hồ Chí Minh","wardCode":"90735","wardName":"Phường Linh Xuân","address":"Số 10 Đường số 8, KP1, Phường Linh Xuân, Q.Thủ Đức, HCM","lat":10.881968,"lng":106.770494,"area":{"DELIVERY":{"nC":0,"nA":0.0,"oC":4,"oA":10.3},"PICK":{"nC":0,"nA":0.0,"oC":4,"oA":10.3},"RETURN":{"nC":0,"nA":0.0,"oC":4,"oA":10.3}}},{"id":"20520000","name":"Bưu Cục Thị Trấn Cây Dương-Phụng Hiệp-Hậu Giang","type":"BC","region":"TNB","province":"Hậu Giang","wardCode":"640402","wardName":"Thị trấn Cây Dương","address":"Ấp Mỹ Quới, thị trấn Cây Dương, huyện Phụng Hiệp, tỉnh Hậu Giang","lat":9.7815522,"lng":105.7386734,"area":{"DELIVERY":{"nC":4,"nA":284.8,"oC":10,"oA":322.2},"PICK":{"nC":4,"nA":284.8,"oC":10,"oA":322.2},"RETURN":{"nC":4,"nA":284.8,"oC":10,"oA":322.2}}},{"id":"20527000","name":"(NAN) Tương Dương","type":"BC","region":"BTB","province":"Nghệ An","wardCode":"290801","wardName":"Thị trấn Hòa Bình","address":"357 Khối Hòa Tây, Thị Trấn Hòa Bình, Huyện Tương Dương, Nghệ An","lat":19.264078,"lng":104.466515,"area":{"DELIVERY":{"nC":10,"nA":3139.4,"oC":21,"oA":3133.2},"PICK":{"nC":10,"nA":3139.4,"oC":21,"oA":3133.2},"RETURN":{"nC":10,"nA":3139.4,"oC":21,"oA":3133.2}}},{"id":"20527002","name":"Điểm xử lý hàng Thị Trấn Mường Xén-Kỳ Sơn-Nghệ An","type":"BC","region":"BTB","province":"Nghệ An","wardCode":"29071","wardName":"Thị trấn Mường Xén","address":"Khối 5, Thị Trấn Mường Xén, Huyện Kỳ Sơn, Tỉnh Nghệ An","lat":19.263988,"lng":104.466434,"area":{"DELIVERY":{"nC":11,"nA":1765.4,"oC":19,"oA":1763.3},"PICK":{"nC":11,"nA":1765.4,"oC":19,"oA":1763.3},"RETURN":{"nC":11,"nA":1765.4,"oC":19,"oA":1763.3}}},{"id":"20528000","name":"Bưu Cục Lô B2 TTTM Vĩnh Thạnh-Vĩnh Thạnh-Cần Thơ","type":"BC","region":"TNB","province":"Cần Thơ","wardCode":"55072","wardName":"Thị trấn Vĩnh Thạnh","address":"Ô đất số 8 thuộc lô B2, khu dân cư và thương mại huyện Vĩnh Thạnh, TP Cần Thơ","lat":10.22977,"lng":105.396484,"area":{"DELIVERY":{"nC":4,"nA":308.1,"oC":11,"oA":303.8},"PICK":{"nC":4,"nA":308.1,"oC":11,"oA":303.8},"RETURN":{"nC":4,"nA":308.1,"oC":11,"oA":303.8}}},{"id":"20529000","name":"Bưu Cục 108 Khu Phố 2-Đức Huệ-Long An","type":"BC","region":"DNB","province":"Long An","wardCode":"490601","wardName":"Thị trấn Đông Thành","address":"108 khu phố 2, Thị Trấn Đông Thành, Huyện Đức Huệ, Tỉnh Long An","lat":10.8923729,"lng":106.3043427,"area":{"DELIVERY":{"nC":3,"nA":395.0,"oC":13,"oA":457.5},"PICK":{"nC":3,"nA":395.0,"oC":13,"oA":457.5},"RETURN":{"nC":3,"nA":395.0,"oC":13,"oA":457.5}}},{"id":"20530000","name":"Bưu Cục 224 Lê Trọng Tấn-Q.Hà Đông-HN","type":"BC","region":"HNO","province":"Hà Nội","wardCode":"1B1506","wardName":"Phường La Khê","address":"224 Lê Trọng Tấn, phường La Khê , quận Hà Đông, Hà Nội","lat":20.9672133,"lng":105.7566865,"area":{"DELIVERY":{"nC":0,"nA":0.0,"oC":0,"oA":0.0},"PICK":{"nC":0,"nA":0.0,"oC":0,"oA":0.0},"RETURN":{"nC":0,"nA":0.0,"oC":0,"oA":0.0}}},{"id":"20536000","name":"(BDU) Bình Hòa","type":"BC","region":"HCM","province":"Bình Dương","wardCode":"440803","wardName":"Xã Lai Hưng","address":"Đường 743B, Phường Bình Hòa, Thuận An, Bình Dương","lat":10.907825,"lng":106.738217,"area":{"DELIVERY":{"nC":0,"nA":0.0,"oC":1,"oA":14.0},"PICK":{"nC":0,"nA":0.0,"oC":1,"oA":14.0},"RETURN":{"nC":1,"nA":18.5,"oC":1,"oA":14.0}}},{"id":"20543000","name":"(KHO) Ninh Hòa 2","type":"BC","region":"NTB","province":"Khánh Hòa","wardCode":"410306","wardName":"Phường Ninh Hiệp","address":"Tổ Dân phố 2, Ninh Hiệp, Ninh Hoà, Khánh Hoà","lat":12.481844,"lng":109.128245,"area":{"DELIVERY":{"nC":2,"nA":280.7,"oC":13,"oA":353.5},"PICK":{"nC":2,"nA":280.7,"oC":13,"oA":353.5},"RETURN":{"nC":2,"nA":280.7,"oC":13,"oA":353.5}}},{"id":"20551000","name":"(GLA) Phú Thiện","type":"BC","region":"TNG","province":"Gia Lai","wardCode":"381601","wardName":"Thị trấn Phú Thiện","address":"138 Hùng Vương, TT Phú Thiện, TT Phú Thiện, Gia Lai","lat":13.527979,"lng":108.323563,"area":{"DELIVERY":{"nC":6,"nA":1370.2,"oC":19,"oA":1369.7},"PICK":{"nC":6,"nA":1370.2,"oC":19,"oA":1369.7},"RETURN":{"nC":6,"nA":1370.2,"oC":19,"oA":1369.7}}},{"id":"20553000","name":"(NAN) Quỳ Hợp","type":"BC","region":"BTB","province":"Nghệ An","wardCode":"290401","wardName":"Thị trấn Quỳ Hợp","address":"Khối Hợp Xuân, Thị trấn Quỳ Hợp, Quỳ Hợp, Nghệ An","lat":19.321535,"lng":105.185944,"area":{"DELIVERY":{"nC":7,"nA":940.5,"oC":21,"oA":938.7},"PICK":{"nC":7,"nA":940.5,"oC":21,"oA":938.7},"RETURN":{"nC":7,"nA":940.5,"oC":21,"oA":938.7}}},{"id":"20554000","name":"(PTH) Cẩm Khê","type":"BC","region":"TNT","province":"Phú Thọ","wardCode":"800094","wardName":"Thị Trấn Cẩm Khê","address":"Tân Lập, TT Cẩm Khê, Cẩm Khê, Phú Thọ","lat":21.4259914,"lng":105.1335446,"area":{"DELIVERY":{"nC":6,"nA":235.1,"oC":37,"oA":232.0},"PICK":{"nC":6,"nA":235.1,"oC":37,"oA":232.0},"RETURN":{"nC":0,"nA":0.0,"oC":37,"oA":232.0}}},{"id":"20555000","name":"Bưu Cục 58 Trương Quốc Dung-Q.Phú Nhuận-HCM","type":"BC","region":"HCM","province":"Hồ Chí Minh","wardCode":"21709","wardName":"Phường 10","address":"58 Trương Quốc Dung, Phường 10, Q.Phú Nhuận, TP. HCM","lat":10.7965103,"lng":106.6724583,"area":{"DELIVERY":{"nC":1,"nA":1.6,"oC":8,"oA":0.9},"PICK":{"nC":1,"nA":1.6,"oC":8,"oA":0.9},"RETURN":{"nC":1,"nA":1.6,"oC":8,"oA":0.9}}},{"id":"20558000","name":"(KHO) Khánh Vĩnh","type":"BC","region":"NTB","province":"Khánh Hòa","wardCode":"410501","wardName":"Thị trấn Khánh Vĩnh","address":"Tổ 5 Đường Ngô Gia Tự, Thị Trấn Khánh Vĩnh, Khánh Vĩnh, Khánh Hoà","lat":12.278108,"lng":108.910131,"area":{"DELIVERY":{"nC":5,"nA":1168.4,"oC":14,"oA":1166.7},"PICK":{"nC":5,"nA":1168.4,"oC":14,"oA":1166.7},"RETURN":{"nC":5,"nA":1168.4,"oC":14,"oA":1166.7}}},{"id":"20560000","name":"(NAN) Bạch Hà","type":"BC","region":"BTB","province":"Nghệ An","wardCode":"291418","wardName":"Xã Mỹ Sơn","address":"Xóm 7, Mỹ Sơn, Đô Lương, Nghệ An","lat":18.817284,"lng":105.399059,"area":{"DELIVERY":{"nC":1,"nA":79.5,"oC":10,"oA":140.3},"PICK":{"nC":1,"nA":79.5,"oC":10,"oA":140.3},"RETURN":{"nC":1,"nA":79.5,"oC":10,"oA":140.3}}},{"id":"20562000","name":"Bưu Cục 28 Xuân Hồng-Bình Thuỷ-Cần Thơ","type":"BC","region":"TNB","province":"Cần Thơ","wardCode":"550205","wardName":"Phường Long Tuyền","address":"28 Xuân Hồng, Long Tuyền, Bình Thuỷ, Cần Thơ","lat":10.0173251,"lng":105.7373679,"area":{"DELIVERY":{"nC":0,"nA":0.0,"oC":2,"oA":21.4},"PICK":{"nC":0,"nA":0.0,"oC":2,"oA":21.4},"RETURN":{"nC":0,"nA":0.0,"oC":2,"oA":21.4}}},{"id":"20565000","name":"Bưu Cục 63A Trần Đình Xu-Q.1-HCM","type":"BC","region":"HCM","province":"Hồ Chí Minh","wardCode":"20103","wardName":"Phường Cầu Kho","address":"63A Trần Đình Xu, Phường Cầu Kho, Quận 1, Hồ Chí Minh","lat":10.76120374596973,"lng":106.6905808125565,"area":{"DELIVERY":{"nC":0,"nA":0.0,"oC":3,"oA":1.8},"PICK":{"nC":0,"nA":0.0,"oC":3,"oA":1.8},"RETURN":{"nC":0,"nA":0.0,"oC":3,"oA":1.8}}},{"id":"20566000","name":"(DLA) Ea Kar","type":"BC","region":"TNG","province":"Đắk Lắk","wardCode":"400801","wardName":"Thị trấn Ea Kar","address":"34 Quang Trung, Thị trấn Ea Kar, Huyện Ea Kar, Đắk Lắk","lat":12.808412,"lng":108.451196,"area":{"DELIVERY":{"nC":2,"nA":336.0,"oC":8,"oA":336.0},"PICK":{"nC":2,"nA":336.0,"oC":8,"oA":336.0},"RETURN":{"nC":1,"nA":137.5,"oC":8,"oA":336.0}}},{"id":"20567000","name":"(BNI) Từ Sơn","type":"BC","region":"XBG","province":"Bắc Ninh","wardCode":"190506","wardName":"Phường Tân Hồng","address":"Khu phố mới Yên Lã, Tân Hồng, Từ Sơn, Bắc Ninh","lat":21.117445,"lng":105.971049,"area":{"DELIVERY":{"nC":0,"nA":0.0,"oC":5,"oA":22.0},"PICK":{"nC":0,"nA":0.0,"oC":5,"oA":22.0},"RETURN":{"nC":0,"nA":0.0,"oC":5,"oA":22.0}}},{"id":"20571000","name":"(GLA) Chư Pưh","type":"BC","region":"TNG","province":"Gia Lai","wardCode":"381701","wardName":"Thị trấn Nhơn Hoà","address":"274 Hùng Vương, TT Nhơn Hòa, Huyện Chư Pưh, Gia Lai","lat":13.540641,"lng":108.102699,"area":{"DELIVERY":{"nC":3,"nA":743.9,"oC":9,"oA":740.0},"PICK":{"nC":3,"nA":743.9,"oC":9,"oA":740.0},"RETURN":{"nC":2,"nA":502.7,"oC":9,"oA":740.0}}},{"id":"20572000","name":"(GLA) An Khê","type":"BC","region":"TNG","province":"Gia Lai","wardCode":"380502","wardName":"Phường An Phú","address":"15 Hoàng Văn Thụ, Phường An Phú, Thị xã An Khê, Gia Lai","lat":13.950136,"lng":108.655641,"area":{"DELIVERY":{"nC":11,"nA":2142.0,"oC":33,"oA":2137.6},"PICK":{"nC":11,"nA":2142.0,"oC":33,"oA":2137.6},"RETURN":{"nC":10,"nA":2008.9,"oC":33,"oA":2137.6}}},{"id":"20573000","name":"Điểm xử lý hàng Thôn Xuân Phong Nam-An Lão-Bình Định","type":"BC","region":"TNG","province":"Bình Định","wardCode":"370203","wardName":"Xã An Hòa","address":"Thôn Xuân Phong Nam, An Hòa, Huyện An Lão, Bình Định","lat":14.55455,"lng":108.9004447,"area":{"DELIVERY":{"nC":4,"nA":695.8,"oC":10,"oA":698.2},"PICK":{"nC":4,"nA":695.8,"oC":10,"oA":698.2},