[{"id":"1070","name":"(BVT) Rạch Dừa","type":"BC","isVirtual":false,"region":"HCM","province":"Bà Rịa - Vũng Tàu","wardName":"Phường Thắng Nhất","address":"","lat":10.3745864,"lng":107.1008391,"sets":[],"area":{"DELIVERY":{"nC":0,"nA":0.0,"oC":4,"oA":14.2},"PICK":{"nC":0,"nA":0.0,"oC":4,"oA":14.2},"RETURN":{"nC":0,"nA":0.0,"oC":4,"oA":14.2}}},{"id":"1083","name":"(DTH) Cao Lãnh","type":"BC","isVirtual":false,"region":"DCL","province":"Đồng Tháp","wardName":"Phường 3","address":"","lat":10.4568613,"lng":105.644726,"sets":[],"area":{"DELIVERY":{"nC":2,"nA":120.2,"oC":14,"oA":116.2},"PICK":{"nC":2,"nA":120.2,"oC":14,"oA":116.2},"RETURN":{"nC":2,"nA":149.8,"oC":14,"oA":116.2}}},{"id":"1084","name":"Bưu Cục 16 Đỗ Nhuận-Long Xuyên-An Giang","type":"BC","isVirtual":false,"region":"TNB","province":"An Giang","wardName":"Phường Mỹ Quý","address":"","lat":10.3649124,"lng":105.44694,"sets":[],"area":{"DELIVERY":{"nC":1,"nA":37.6,"oC":8,"oA":88.4},"PICK":{"nC":1,"nA":37.6,"oC":8,"oA":88.4},"RETURN":{"nC":1,"nA":37.6,"oC":8,"oA":88.4}}},{"id":"1100","name":"Bưu cục TECH GHN 02","type":"BC","isVirtual":false,"region":"HNO","province":"Hà Nội","wardName":null,"address":"","lat":10.7877567,"lng":106.6737018,"sets":["TECHTEST"],"area":{"DELIVERY":{"nC":0,"nA":0.0,"oC":0,"oA":0.0},"PICK":{"nC":0,"nA":0.0,"oC":0,"oA":0.0},"RETURN":{"nC":0,"nA":0.0,"oC":0,"oA":0.0}}},{"id":"1111","name":"Bưu Cục Tech","type":"BC","isVirtual":false,"region":"HCM","province":"Hồ Chí Minh","wardName":null,"address":"","lat":10.7695371,"lng":106.6636191,"sets":["DEV_TEST","TECHTEST","TEST"],"area":{"DELIVERY":{"nC":0,"nA":0.0,"oC":0,"oA":0.0},"PICK":{"nC":0,"nA":0.0,"oC":0,"oA":0.0},"RETURN":{"nC":0,"nA":0.0,"oC":0,"oA":0.0}}},{"id":"1119","name":"(QNI) Móng Cái 1","type":"BC","isVirtual":false,"region":"XBG","province":"Quảng Ninh","wardName":"Phường Trần Phú","address":"","lat":21.533315,"lng":107.9690054,"sets":[],"area":{"DELIVERY":{"nC":6,"nA":403.2,"oC":17,"oA":418.9},"PICK":{"nC":6,"nA":403.2,"oC":17,"oA":418.9},"RETURN":{"nC":0,"nA":0.0,"oC":17,"oA":418.9}}},{"id":"1121","name":"Kho Trung Chuyển Hà Nội 02","type":"KTC","isVirtual":false,"region":"HNO","province":"Hà Nội","wardName":"Phường Phúc Đồng","address":"","lat":21.03305892309558,"lng":105.9217335812912,"sets":["BGTK","BGTKSENDO","GIAO_B2B","GXT_LAY","GXT_TRA","LHTK"],"area":{"DELIVERY":{"nC":0,"nA":0.0,"oC":0,"oA":0.0},"PICK":{"nC":0,"nA":0.0,"oC":0,"oA":0.0},"RETURN":{"nC":0,"nA":0.0,"oC":0,"oA":0.0}}},{"id":"1122","name":"(HPH) An Biên 3","type":"BC","isVirtual":false,"region":"XBG","province":"Hải Phòng","wardName":"Phường Vĩnh Niệm","address":"","lat":20.8294562,"lng":106.6714786,"sets":[],"area":{"DELIVERY":{"nC":0,"nA":0.0,"oC":4,"oA":5.5},"PICK":{"nC":0,"nA":0.0,"oC":4,"oA":5.5},"RETURN":{"nC":0,"nA":0.0,"oC":4,"oA":5.5}}},{"id":"1124","name":"(HTI) Trần Phú","type":"BC","isVirtual":false,"region":"BTB","province":"Hà Tĩnh","wardName":"Xã Thạch Trung","address":"","lat":18.3539197,"lng":105.880253,"sets":[],"area":{"DELIVERY":{"nC":1,"nA":30.1,"oC":11,"oA":43.5},"PICK":{"nC":1,"nA":30.1,"oC":11,"oA":43.5},"RETURN":{"nC":0,"nA":0.0,"oC":11,"oA":43.5}}},{"id":"1141","name":"Kho Trung Chuyển Đà Nẵng","type":"KTC","isVirtual":false,"region":"TTB","province":"Đà Nẵng","wardName":"Phường Hòa Hiệp Bắc","address":"","lat":16.1310833,"lng":108.1189167,"sets":["GIAO_B2B","GXT_LAY","GXT_TRA"],"area":{"DELIVERY":{"nC":0,"nA":0.0,"oC":0,"oA":0.0},"PICK":{"nC":0,"nA":0.0,"oC":0,"oA":0.0},"RETURN":{"nC":0,"nA":0.0,"oC":0,"oA":0.0}}},{"id":"1166","name":"(BKA) Đức Xuân","type":"BC","isVirtual":false,"region":"DBB","province":"Bắc Kạn","wardName":"Phường Đức Xuân","address":"","lat":22.14221,"lng":105.835268,"sets":[],"area":{"DELIVERY":{"nC":6,"nA":599.4,"oC":27,"oA":680.2},"PICK":{"nC":6,"nA":599.4,"oC":27,"oA":680.2},"RETURN":{"nC":6,"nA":599.4,"oC":27,"oA":680.2}}},{"id":"1170","name":"Bưu Cục Nguyễn An Ninh-Vị Thanh-Hậu Giang","type":"BC","isVirtual":false,"region":"TNB","province":"Hậu Giang","wardName":"Phường IV","address":"","lat":9.791423,"lng":105.467678,"sets":[],"area":{"DELIVERY":{"nC":3,"nA":120.2,"oC":9,"oA":117.4},"PICK":{"nC":3,"nA":120.2,"oC":9,"oA":117.4},"RETURN":{"nC":3,"nA":120.2,"oC":9,"oA":117.4}}},{"id":"1182","name":"Bưu Cục 45/2b Quốc Lộ 62-Tân An-Long An 01","type":"BC","isVirtual":false,"region":"DNB","province":"Long An","wardName":"Phường 2","address":"","lat":10.541498,"lng":106.4062002,"sets":[],"area":{"DELIVERY":{"nC":2,"nA":48.0,"oC":14,"oA":80.7},"PICK":{"nC":2,"nA":48.0,"oC":14,"oA":80.7},"RETURN":{"nC":3,"nA":83.0,"oC":14,"oA":80.7}}},{"id":"1199","name":"(TGI) Đạo Thạnh","type":"BC","isVirtual":false,"region":"DCL","province":"Tiền Giang","wardName":"Phường 5","address":"","lat":10.3635225,"lng":106.3426538,"sets":[],"area":{"DELIVERY":{"nC":3,"nA":53.1,"oC":8,"oA":51.0},"PICK":{"nC":3,"nA":53.1,"oC":8,"oA":51.0},"RETURN":{"nC":0,"nA":0.0,"oC":8,"oA":51.0}}},{"id":"1215","name":"(HYE) Phố Hiến","type":"BC","isVirtual":false,"region":"DSH","province":"Hưng Yên","wardName":"Phường Hiến Nam","address":"","lat":20.658027,"lng":106.062617,"sets":[],"area":{"DELIVERY":{"nC":7,"nA":150.3,"oC":35,"oA":149.9},"PICK":{"nC":6,"nA":128.5,"oC":35,"oA":149.9},"RETURN":{"nC":7,"nA":150.3,"oC":35,"oA":149.9}}},{"id":"1243","name":"Bưu Cục Long Khánh-Đồng Nai","type":"BC","isVirtual":false,"region":"DNB","province":"Đồng Nai","wardName":"Xã Hàng Gòn","address":"","lat":10.8918887,"lng":107.2177167,"sets":[],"area":{"DELIVERY":{"nC":2,"nA":74.6,"oC":7,"oA":81.6},"PICK":{"nC":2,"nA":74.6,"oC":8,"oA":85.3},"RETURN":{"nC":2,"nA":74.6,"oC":8,"oA":85.3}}},{"id":"1285","name":"Bưu cục Quốc Oai-HN","type":"BC","isVirtual":false,"region":"HNO","province":"Hà Nội","wardName":"Xã Thạch Thán","address":"","lat":20.987643,"lng":105.635981,"sets":[],"area":{"DELIVERY":{"nC":2,"nA":49.2,"oC":21,"oA":20.2},"PICK":{"nC":2,"nA":49.2,"oC":21,"oA":20.2},"RETURN":{"nC":3,"nA":82.9,"oC":21,"oA":20.2}}},{"id":"1290","name":"Bưu Cục 242 Tỉnh Lộ 2-Củ Chi-HCM","type":"BC","isVirtual":false,"region":"HCM","province":"Hồ Chí Minh","wardName":"Xã Trung Lập Hạ","address":"","lat":11.009473,"lng":106.47105,"sets":[],"area":{"DELIVERY":{"nC":1,"nA":62.3,"oC":6,"oA":127.1},"PICK":{"nC":1,"nA":62.3,"oC":6,"oA":127.1},"RETURN":{"nC":1,"nA":62.3,"oC":6,"oA":127.1}}},{"id":"1297","name":"Key Account Warehouse Ha Noi","type":"KHL","isVirtual":false,"region":"HNO","province":"Hà Nội","wardName":"Phường Thạch Bàn","address":"","lat":21.033113,"lng":105.921483,"sets":["BGTK","GIAO_YODY","HCK_2","HCK_LV2","HNHCK","KHLPICKUP","KHLRETURN","KHL_HCMHN","LAZADA","LHTK","LOREAL","LOREAL RETURN","PICK_YODY","RHCK_LV2","RHNHCK","TRA_YODY"],"area":{"DELIVERY":{"nC":0,"nA":0.0,"oC":2,"oA":0.0},"PICK":{"nC":0,"nA":0.0,"oC":1,"oA":0.0},"RETURN":{"nC":0,"nA":0.0,"oC":2,"oA":0.0}}},{"id":"1302","name":"Bưu Cục Cần Giờ-HCM","type":"BC","isVirtual":false,"region":"HCM","province":"Hồ Chí Minh","wardName":"Xã Tam Thôn Hiệp","address":"","lat":10.5878863,"lng":106.851401,"sets":[],"area":{"DELIVERY":{"nC":2,"nA":396.4,"oC":4,"oA":395.8},"PICK":{"nC":2,"nA":396.4,"oC":4,"oA":395.8},"RETURN":{"nC":4,"nA":665.2,"oC":4,"oA":395.8}}},{"id":"1310","name":"(BVT) Côn Đảo","type":"BC","isVirtual":false,"region":"HCM","province":"Bà Rịa - Vũng Tàu","wardName":"Côn Đảo","address":"","lat":8.6900103,"lng":106.5968871,"sets":[],"area":{"DELIVERY":{"nC":1,"nA":75.3,"oC":2,"oA":0.0},"PICK":{"nC":1,"nA":75.3,"oC":2,"oA":0.0},"RETURN":{"nC":1,"nA":75.3,"oC":2,"oA":0.0}}},{"id":"1317","name":"(THO) Tĩnh Gia","type":"BC","isVirtual":false,"region":"BTB","province":"Thanh Hóa","wardName":"Phường Hải Hòa","address":"","lat":19.4669341,"lng":105.788506,"sets":[],"area":{"DELIVERY":{"nC":6,"nA":223.3,"oC":22,"oA":223.0},"PICK":{"nC":6,"nA":223.3,"oC":22,"oA":223.0},"RETURN":{"nC":0,"nA":0.0,"oC":22,"oA":223.0}}},{"id":"1319","name":"Bưu Cục 110 Nguyễn Huệ-Trảng Bom-Đồng Nai","type":"BC","isVirtual":false,"region":"DNB","province":"Đồng Nai","wardName":"Thị trấn Trảng Bom","address":"","lat":10.954525,"lng":107.006647,"sets":[],"area":{"DELIVERY":{"nC":0,"nA":0.0,"oC":5,"oA":128.9},"PICK":{"nC":0,"nA":0.0,"oC":5,"oA":128.9},"RETURN":{"nC":0,"nA":0.0,"oC":5,"oA":128.9}}},{"id":"1327","name":"Key Account Warehouse Ho Chi Minh","type":"KHL","isVirtual":false,"region":"DNB","province":"Long An","wardName":"Xã Mỹ Hạnh Bắc","address":"","lat":10.893424,"lng":106.525196,"sets":["HCK_2","HCK_LV2","KHLPICKUP","KHLRETURN","KHL_HCMHN","LOREAL","LOREAL RETURN","PICK_BOXME","PICK_YODY","RETURN_BOXME","RHCK_LV2","TEST1505"],"area":{"DELIVERY":{"nC":0,"nA":0.0,"oC":1,"oA":0.0},"PICK":{"nC":0,"nA":0.0,"oC":1,"oA":0.0},"RETURN":{"nC":0,"nA":0.0,"oC":1,"oA":0.0}}},{"id":"1333","name":"Bưu Cục Tân Kiên-Bình Chánh-HCM","type":"BC","isVirtual":false,"region":"HCM","province":"Hồ Chí Minh","wardName":"Xã Tân Kiên","address":"","lat":10.7115,"lng":106.600723,"sets":[],"area":{"DELIVERY":{"nC":0,"nA":0.0,"oC":2,"oA":33.4},"PICK":{"nC":0,"nA":0.0,"oC":2,"oA":33.4},"RETURN":{"nC":1,"nA":15.2,"oC":2,"oA":33.4}}},{"id":"1337","name":"Bưu Cục 63 Vĩnh Hội-Q.4-HCM","type":"BC","isVirtual":false,"region":"HCM","province":"Hồ Chí Minh","wardName":"Phường 4","address":"","lat":10.756358,"lng":106.703772,"sets":[],"area":{"DELIVERY":{"nC":1,"nA":2.1,"oC":9,"oA":1.6},"PICK":{"nC":1,"nA":2.1,"oC":9,"oA":1.6},"RETURN":{"nC":1,"nA":2.1,"oC":9,"oA":1.6}}},{"id":"1352","name":"Bưu Cục 114 Yên Lãng-Q.Đống Đa-HN","type":"BC","isVirtual":false,"region":"HNO","province":"Hà Nội","wardName":"Phường Thịnh Quang","address":"","lat":21.010084,"lng":105.815667,"sets":[],"area":{"DELIVERY":{"nC":0,"nA":0.0,"oC":3,"oA":0.0},"PICK":{"nC":0,"nA":0.0,"oC":3,"oA":0.0},"RETURN":{"nC":0,"nA":0.0,"oC":3,"oA":0.0}}},{"id":"1353","name":"Bưu Cục 188 Khương Đình-Q.Thanh Xuân-HN","type":"BC","isVirtual":false,"region":"HNO","province":"Hà Nội","wardName":"Phường Hạ Đình","address":"","lat":20.993634,"lng":105.81394,"sets":[],"area":{"DELIVERY":{"nC":0,"nA":0.0,"oC":2,"oA":0.0},"PICK":{"nC":0,"nA":0.0,"oC":2,"oA":0.0},"RETURN":{"nC":1,"nA":3.0,"oC":2,"oA":0.0}}},{"id":"1356","name":"Bưu Cục 221 Kim Ngưu-Q.Hai Bà Trưng-HN","type":"BC","isVirtual":false,"region":"HNO","province":"Hà Nội","wardName":"Phường Thanh Lương","address":"","lat":21.00507788867048,"lng":105.8614152245288,"sets":[],"area":{"DELIVERY":{"nC":0,"nA":0.0,"oC":4,"oA":0.0},"PICK":{"nC":0,"nA":0.0,"oC":0,"oA":0.0},"RETURN":{"nC":0,"nA":0.0,"oC":0,"oA":0.0}}},{"id":"1378","name":"Bưu Cục 274 Điện Biên Phủ-Duy Xuyên-Quảng Nam","type":"BC","isVirtual":false,"region":"TTB","province":"Quảng Nam","wardName":"Thị trấn Nam Phước","address":"","lat":15.8374899,"lng":108.284701,"sets":[],"area":{"DELIVERY":{"nC":4,"nA":311.3,"oC":17,"oA":345.1},"PICK":{"nC":4,"nA":311.3,"oC":17,"oA":345.1},"RETURN":{"nC":0,"nA":0.0,"oC":17,"oA":345.1}}},{"id":"1379","name":"Bưu Cục 97 Thiên Hiền-Q.Nam Từ Liêm-HN","type":"BC","isVirtual":false,"region":"HNO","province":"Hà Nội","wardName":"Phường Mỹ Đình 1","address":"","lat":21.02294,"lng":105.775855,"sets":[],"area":{"DELIVERY":{"nC":0,"nA":0.0,"oC":1,"oA":2.2},"PICK":{"nC":0,"nA":0.0,"oC":0,"oA":0.0},"RETURN":{"nC":0,"nA":0.0,"oC":0,"oA":0.0}}},{"id":"1394","name":"Bưu Cục 29A Đường Số 5-Q.2-HCM","type":"BC","isVirtual":false,"region":"HCM","province":"Hồ Chí Minh","wardName":"Phường Cát Lái","address":"","lat":10.7751905,"lng":106.770249,"sets":[],"area":{"DELIVERY":{"nC":1,"nA":20.1,"oC":8,"oA":23.0},"PICK":{"nC":1,"nA":20.1,"oC":8,"oA":23.0},"RETURN":{"nC":2,"nA":34.8,"oC":8,"oA":23.0}}},{"id":"1398","name":"Bưu Cục Thống Nhất-Đồng Nai","type":"BC","isVirtual":false,"region":"DNB","province":"Đồng Nai","wardName":"Thị Trấn Dầu Giây","address":"","lat":10.9453693,"lng":107.13537,"sets":[],"area":{"DELIVERY":{"nC":1,"nA":98.4,"oC":6,"oA":91.4},"PICK":{"nC":1,"nA":98.4,"oC":6,"oA":91.4},"RETURN":{"nC":1,"nA":98.4,"oC":6,"oA":91.4}}},{"id":"1402","name":"(NAN) Nghĩa Hưng","type":"BC","isVirtual":false,"region":"BTB","province":"Nghệ An","wardName":"Xã Nghĩa Liên","address":"","lat":19.326061,"lng":105.354112,"sets":[],"area":{"DELIVERY":{"nC":5,"nA":361.4,"oC":21,"oA":378.3},"PICK":{"nC":5,"nA":361.4,"oC":21,"oA":378.3},"RETURN":{"nC":5,"nA":361.4,"oC":21,"oA":378.3}}},{"id":"1403","name":"(HPH) An Hải","type":"BC","isVirtual":false,"region":"XBG","province":"Hải Phòng","wardName":"Xã An Đồng","address":"","lat":20.861416,"lng":106.637908,"sets":[],"area":{"DELIVERY":{"nC":0,"nA":0.0,"oC":7,"oA":29.7},"PICK":{"nC":0,"nA":0.0,"oC":7,"oA":29.7},"RETURN":{"nC":0,"nA":0.0,"oC":7,"oA":29.7}}},{"id":"1409","name":"Bưu Cục Tân Châu-An Giang","type":"BC","isVirtual":false,"region":"TNB","province":"An Giang","wardName":"Phường Long Thạnh","address":"","lat":10.795306,"lng":105.252056,"sets":[],"area":{"DELIVERY":{"nC":5,"nA":172.3,"oC":14,"oA":175.7},"PICK":{"nC":5,"nA":172.3,"oC":14,"oA":175.7},"RETURN":{"nC":4,"nA":134.5,"oC":14,"oA":175.7}}},{"id":"1418","name":"Bưu Cục 119 Nguyễn Văn Luông-Q.6-HCM","type":"BC","isVirtual":false,"region":"HCM","province":"Hồ Chí Minh","wardName":"Phường 10","address":"","lat":10.73829,"lng":106.63353,"sets":[],"area":{"DELIVERY":{"nC":1,"nA":1.6,"oC":8,"oA":3.2},"PICK":{"nC":1,"nA":1.6,"oC":8,"oA":3.2},"RETURN":{"nC":1,"nA":1.6,"oC":8,"oA":3.2}}},{"id":"1423","name":"(NBI) Trung Sơn","type":"BC","isVirtual":false,"region":"TNT","province":"Ninh Bình","wardName":"Xã Đông Sơn","address":"","lat":20.1467891,"lng":105.9227752,"sets":[],"area":{"DELIVERY":{"nC":3,"nA":114.1,"oC":9,"oA":113.6},"PICK":{"nC":3,"nA":114.1,"oC":9,"oA":113.6},"RETURN":{"nC":2,"nA":78.1,"oC":9,"oA":113.6}}},{"id":"1432","name":"Bưu Cục 183 Trần Phú-Vĩnh Linh-Quảng Trị","type":"BC","isVirtual":false,"region":"TTB","province":"Quảng Trị","wardName":"Thị trấn Hồ Xá","address":"","lat":17.0664796,"lng":107.0132297,"sets":[],"area":{"DELIVERY":{"nC":5,"nA":619.0,"oC":25,"oA":618.8},"PICK":{"nC":5,"nA":619.0,"oC":25,"oA":618.8},"RETURN":{"nC":0,"nA":0.0,"oC":25,"oA":618.8}}},{"id":"1433","name":"(BVT) Hồ Tràm","type":"BC","isVirtual":false,"region":"HCM","province":"Bà Rịa - Vũng Tàu","wardName":"Thị trấn Phước Bửu","address":"","lat":10.5247562,"lng":107.4007476,"sets":[],"area":{"DELIVERY":{"nC":3,"nA":279.2,"oC":9,"oA":346.3},"PICK":{"nC":3,"nA":279.2,"oC":9,"oA":346.3},"RETURN":{"nC":2,"nA":176.8,"oC":9,"oA":346.3}}},{"id":"1434","name":"(BDI) Hoài Nhơn Nam 2","type":"BC","isVirtual":false,"region":"TNG","province":"Bình Định","wardName":"Phường Hoài Tân","address":"","lat":14.480658,"lng":109.03351,"sets":[],"area":{"DELIVERY":{"nC":3,"nA":183.2,"oC":7,"oA":180.5},"PICK":{"nC":3,"nA":183.2,"oC":7,"oA":180.5},"RETURN":{"nC":3,"nA":183.2,"oC":7,"oA":180.5}}},{"id":"1441","name":"(NDI) Trực Ninh","type":"BC","isVirtual":false,"region":"TNT","province":"Nam Định","wardName":"Xã Trực Nội","address":"","lat":20.247375,"lng":106.224672,"sets":[],"area":{"DELIVERY":{"nC":5,"nA":97.9,"oC":15,"oA":98.8},"PICK":{"nC":5,"nA":97.9,"oC":15,"oA":98.8},"RETURN":{"nC":4,"nA":79.6,"oC":15,"oA":98.8}}},{"id":"1443","name":"(HPH) Tân Minh","type":"BC","isVirtual":false,"region":"XBG","province":"Hải Phòng","wardName":"Xã Bạch Đằng","address":"","lat":20.709103,"lng":106.5655546,"sets":[],"area":{"DELIVERY":{"nC":6,"nA":180.2,"oC":24,"oA":185.8},"PICK":{"nC":6,"nA":180.2,"oC":24,"oA":185.8},"RETURN":{"nC":6,"nA":180.2,"oC":24,"oA":185.8}}},{"id":"1445","name":"Bưu Cục Tân Phú-Đồng Nai","type":"BC","isVirtual":false,"region":"DNB","province":"Đồng Nai","wardName":"Xã Trà Cổ","address":"","lat":11.259027,"lng":107.455536,"sets":[],"area":{"DELIVERY":{"nC":2,"nA":173.3,"oC":11,"oA":192.4},"PICK":{"nC":2,"nA":173.3,"oC":11,"oA":192.4},"RETURN":{"nC":2,"nA":173.3,"oC":11,"oA":192.4}}},{"id":"1446","name":"(BDU) Phước Hòa","type":"BC","isVirtual":false,"region":"HCM","province":"Bình Dương","wardName":"Xã Vĩnh Hoà","address":"","lat":11.2751,"lng":106.778815,"sets":[],"area":{"DELIVERY":{"nC":3,"nA":442.8,"oC":9,"oA":468.3},"PICK":{"nC":3,"nA":442.8,"oC":9,"oA":468.3},"RETURN":{"nC":3,"nA":442.8,"oC":9,"oA":468.3}}},{"id":"1479","name":"Bưu Cục 104 Lương Ngọc Quyến-Q.Bình Thạnh-HCM","type":"BC","isVirtual":false,"region":"HCM","province":"Hồ Chí Minh","wardName":"Phường 13","address":"","lat":10.8245,"lng":106.701861,"sets":[],"area":{"DELIVERY":{"nC":0,"nA":0.0,"oC":2,"oA":3.7},"PICK":{"nC":0,"nA":0.0,"oC":2,"oA":3.7},"RETURN":{"nC":0,"nA":0.0,"oC":2,"oA":3.7}}},{"id":"1489","name":"Bưu Cục 263 Phố Vọng-Q.Hai Bà Trưng-HN","type":"BC","isVirtual":false,"region":"HNO","province":"Hà Nội","wardName":"Phường Đồng Tâm","address":"","lat":20.994889,"lng":105.842653,"sets":[],"area":{"DELIVERY":{"nC":0,"nA":0.0,"oC":0,"oA":0.0},"PICK":{"nC":0,"nA":0.0,"oC":6,"oA":0.0},"RETURN":{"nC":0,"nA":0.0,"oC":6,"oA":0.0}}},{"id":"1501","name":"(BDU) Bàu Bàng","type":"BC","isVirtual":false,"region":"HCM","province":"Bình Dương","wardName":"Xã Lai Hưng","address":"","lat":11.2418409,"lng":106.6328418,"sets":[],"area":{"DELIVERY":{"nC":1,"nA":84.8,"oC":5,"oA":266.7},"PICK":{"nC":1,"nA":84.8,"oC":5,"oA":266.7},"RETURN":{"nC":1,"nA":84.8,"oC":5,"oA":266.7}}},{"id":"1514","name":"Bưu Cục 393 Tôn Đức Thắng-Hòa Thành-Tây Ninh","type":"BC","isVirtual":false,"region":"DNB","province":"Tây Ninh","wardName":"Xã Long Thành Trung","address":"","lat":11.265901,"lng":106.131211,"sets":[],"area":{"DELIVERY":{"nC":1,"nA":20.5,"oC":5,"oA":77.3},"PICK":{"nC":1,"nA":20.5,"oC":5,"oA":77.3},"RETURN":{"nC":0,"nA":0.0,"oC":5,"oA":77.3}}},{"id":"1515","name":"(TBI) Đông Hưng","type":"BC","isVirtual":false,"region":"DSH","province":"Thái Bình","wardName":"Xã Đông La","address":"","lat":20.5604181,"lng":106.3573092,"sets":[],"area":{"DELIVERY":{"nC":9,"nA":197.3,"oC":52,"oA":196.1},"PICK":{"nC":9,"nA":197.3,"oC":52,"oA":196.1},"RETURN":{"nC":0,"nA":0.0,"oC":47,"oA":157.4}}},{"id":"1519","name":"Bưu Cục Chơn Thành-Bình Phước","type":"BC","isVirtual":false,"region":"DNB","province":"Bình Phước","wardName":"Xã Minh Thành","address":"","lat":11.442112,"lng":106.659952,"sets":[],"area":{"DELIVERY":{"nC":2,"nA":260.6,"oC":9,"oA":324.7},"PICK":{"nC":2,"nA":260.6,"oC":9,"oA":324.7},"RETURN":{"nC":2,"nA":260.6,"oC":9,"oA":324.7}}},{"id":"1626","name":"Kho Trung Chuyển Hồ Chí Minh 01","type":"KTC","isVirtual":false,"region":"DNB","province":"Long An","wardName":"Xã Mỹ Hạnh Bắc","address":"","lat":10.893424,"lng":106.525196,"sets":["BGTK","BGTKSENDO","GIAO_B2B","GXT_LAY","GXT_TRA","LHTK","NHANHANGTRASENDO","SENDOBGTK","SENDONHANHANGTRA"],"area":{"DELIVERY":{"nC":0,"nA":0.0,"oC":0,"oA":0.0},"PICK":{"nC":0,"nA":0.0,"oC":0,"oA":0.0},"RETURN":{"nC":0,"nA":0.0,"oC":0,"oA":0.0}}},{"id":"1892","name":"(QNI) Vân Đồn","type":"BC","isVirtual":false,"region":"XBG","province":"Quảng Ninh","wardName":"Xã Hạ Long","address":"","lat":21.0709195,"lng":107.429446,"sets":[],"area":{"DELIVERY":{"nC":0,"nA":0.0,"oC":7,"oA":292.2},"PICK":{"nC":0,"nA":0.0,"oC":7,"oA":292.2},"RETURN":{"nC":0,"nA":0.0,"oC":7,"oA":292.2}}},{"id":"1896","name":"(LDO) Đạ Huoai","type":"BC","isVirtual":false,"region":"NTB","province":"Lâm Đồng","wardName":"Thị trấn Cát Tiên","address":"","lat":11.388864,"lng":107.516161,"sets":[],"area":{"DELIVERY":{"nC":3,"nA":493.1,"oC":11,"oA":491.0},"PICK":{"nC":3,"nA":493.1,"oC":11,"oA":491.0},"RETURN":{"nC":3,"nA":493.1,"oC":11,"oA":491.0}}},{"id":"1908","name":"Kho Trung Chuyển Cần Thơ","type":"KTC","isVirtual":false,"region":"TNB","province":"Cần Thơ","wardName":"Phường Phú Thứ","address":"","lat":10.007535,"lng":105.796471,"sets":["GIAO_B2B","GXT_LAY","GXT_TRA"],"area":{"DELIVERY":{"nC":0,"nA":0.0,"oC":0,"oA":0.0},"PICK":{"nC":0,"nA":0.0,"oC":0,"oA":0.0},"RETURN":{"nC":0,"nA":0.0,"oC":0,"oA":0.0}}},{"id":"1909","name":"Kho Trung Chuyển Khánh Hòa","type":"KTC","isVirtual":false,"region":"NTB","province":"Khánh Hòa","wardName":"Phường Cam Linh","address":"","lat":12.281226,"lng":109.12599,"sets":["GIAO_B2B","GXT_LAY","GXT_TRA"],"area":{"DELIVERY":{"nC":0,"nA":0.0,"oC":0,"oA":0.0},"PICK":{"nC":0,"nA":0.0,"oC":0,"oA":0.0},"RETURN":{"nC":0,"nA":0.0,"oC":0,"oA":0.0}}},{"id":"1910","name":"Kho Trung Chuyển Nghệ An","type":"KTC","isVirtual":false,"region":"BTB","province":"Nghệ An","wardName":"Xã Hưng Tây","address":"","lat":18.687158,"lng":105.622124,"sets":["GIAO_B2B","GXT_LAY","GXT_TRA"],"area":{"DELIVERY":{"nC":0,"nA":0.0,"oC":0,"oA":0.0},"PICK":{"nC":0,"nA":0.0,"oC":0,"oA":0.0},"RETURN":{"nC":0,"nA":0.0,"oC":0,"oA":0.0}}},{"id":"1933","name":"(DTH) An Bình","type":"BC","isVirtual":false,"region":"DCL","province":"Đồng Tháp","wardName":"Xã An Bình A","address":"","lat":10.7758664,"lng":105.3551587,"sets":[],"area":{"DELIVERY":{"nC":7,"nA":402.6,"oC":26,"oA":382.9},"PICK":{"nC":7,"nA":402.6,"oC":26,"oA":382.9},"RETURN":{"nC":7,"nA":402.6,"oC":26,"oA":382.9}}},{"id":"1934","name":"(BTR) Mỏ Cày","type":"BC","isVirtual":false,"region":"DCL","province":"Bến Tre","wardName":"Thị trấn Mỏ Cày","address":"","lat":10.12045,"lng":106.338258,"sets":[],"area":{"DELIVERY":{"nC":3,"nA":128.3,"oC":13,"oA":143.5},"PICK":{"nC":3,"nA":128.3,"oC":13,"oA":143.5},"RETURN":{"nC":5,"nA":229.8,"oC":12,"oA":127.9}}},{"id":"2276","name":"Bưu Cục 1135 Phan Văn Trị-Q.Gò Vấp-HCM","type":"BC","isVirtual":false,"region":"HCM","province":"Hồ Chí Minh","wardName":"Phường 10","address":"","lat":10.832417,"lng":106.673278,"sets":["ADHOCS_LAY","ADHOCS_LAY_SPE","ADHOCS_TRA","ADHOCS_TRA_SPE"],"area":{"DELIVERY":{"nC":0,"nA":0.0,"oC":2,"oA":1.9},"PICK":{"nC":0,"nA":0.0,"oC":1,"oA":1.0},"RETURN":{"nC":0,"nA":0.0,"oC":1,"oA":1.0}}},{"id":"2278","name":"Bưu Cục Cần Đước-Long An","type":"BC","isVirtual":false,"region":"DNB","province":"Long An","wardName":"Thị trấn Cần Đước","address":"","lat":10.5118799,"lng":106.6040482,"sets":[],"area":{"DELIVERY":{"nC":3,"nA":127.0,"oC":8,"oA":127.0},"PICK":{"nC":3,"nA":127.0,"oC":8,"oA":127.0},"RETURN":{"nC":3,"nA":127.0,"oC":8,"oA":127.0}}},{"id":"2309","name":"(DNO) Đức Lập","type":"BC","isVirtual":false,"region":"NTB","province":"Đắk Nông","wardName":"Xã Đức Mạnh","address":"","lat":12.4536119,"lng":107.6314262,"sets":[],"area":{"DELIVERY":{"nC":3,"nA":618.1,"oC":10,"oA":681.4},"PICK":{"nC":3,"nA":618.1,"oC":10,"oA":681.4},"RETURN":{"nC":3,"nA":618.1,"oC":10,"oA":681.4}}},{"id":"2320","name":"Bưu Cục Vận Hành Đảo Lý Sơn-Quảng Ngãi","type":"BC","isVirtual":false,"region":"TTB","province":"Quảng Ngãi","wardName":"Xã An Vĩnh","address":"","lat":15.375175,"lng":109.12677,"sets":[],"area":{"DELIVERY":{"nC":1,"nA":10.2,"oC":3,"oA":0.0},"PICK":{"nC":1,"nA":10.2,"oC":3,"oA":0.0},"RETURN":{"nC":0,"nA":0.0,"oC":3,"oA":0.0}}},{"id":"2332","name":"Bưu Cục 55C Nguyễn Khoái-Q.Hai Bà Trưng-HN","type":"BC","isVirtual":false,"region":"HNO","province":"Hà Nội","wardName":"Phường Bạch Đằng","address":"","lat":21.015425,"lng":105.863139,"sets":[],"area":{"DELIVERY":{"nC":0,"nA":0.0,"oC":6,"oA":0.0},"PICK":{"nC":0,"nA":0.0,"oC":6,"oA":0.0},"RETURN":{"nC":0,"nA":0.0,"oC":6,"oA":0.0}}},{"id":"2357","name":"(BTH) Đồng Kho","type":"BC","isVirtual":false,"region":"NTB","province":"Bình Thuận","wardName":"Xã Đức Bình","address":"","lat":11.1069444,"lng":107.7306148,"sets":[],"area":{"DELIVERY":{"nC":5,"nA":1198.2,"oC":14,"oA":1204.9},"PICK":{"nC":5,"nA":1198.2,"oC":14,"oA":1204.9},"RETURN":{"nC":5,"nA":1198.2,"oC":14,"oA":1204.9}}},{"id":"2361","name":"Bưu Cục Tri Tôn-An Giang","type":"BC","isVirtual":false,"region":"TNB","province":"An Giang","wardName":"Xã Châu Lăng","address":"","lat":10.4378598,"lng":104.9961005,"sets":[],"area":{"DELIVERY":{"nC":7,"nA":774.3,"oC":21,"oA":804.8},"PICK":{"nC":7,"nA":774.3,"oC":21,"oA":804.8},"RETURN":{"nC":7,"nA":774.3,"oC":21,"oA":804.8}}},{"id":"2363","name":"Bưu Cục Khu Phố 2-Thạnh Hoá-Long An","type":"BC","isVirtual":false,"region":"DNB","province":"Long An","wardName":"Thị trấn Thạnh Hóa","address":"","lat":10.64078,"lng":106.181572,"sets":[],"area":{"DELIVERY":{"nC":3,"nA":365.4,"oC":11,"oA":470.3},"PICK":{"nC":3,"nA":365.4,"oC":11,"oA":470.3},"RETURN":{"nC":3,"nA":365.4,"oC":11,"oA":470.3}}},{"id":"2376","name":"Bưu Cục 2999 Phạm Thế Hiển-Q.8-HCM","type":"BC","isVirtual":false,"region":"HCM","province":"Hồ Chí Minh","wardName":"Phường 7","address":"","lat":10.7168692,"lng":106.6324732,"sets":[],"area":{"DELIVERY":{"nC":0,"nA":0.0,"oC":3,"oA":10.5},"PICK":{"nC":0,"nA":0.0,"oC":3,"oA":10.5},"RETURN":{"nC":0,"nA":0.0,"oC":3,"oA":10.5}}},{"id":"2389","name":"Bưu Cục 107 Nguyễn Chí Thanh-Q.Đống Đa-HN","type":"BC","isVirtual":false,"region":"HNO","province":"Hà Nội","wardName":"Phường Láng Thượng","address":"","lat":21.015249,"lng":105.80551,"sets":[],"area":{"DELIVERY":{"nC":0,"nA":0.0,"oC":2,"oA":0.0},"PICK":{"nC":0,"nA":0.0,"oC":0,"oA":0.0},"RETURN":{"nC":1,"nA":1.6,"oC":0,"oA":0.0}}},{"id":"2393","name":"(TQU) Hàm Yên","type":"BC","isVirtual":false,"region":"DBB","province":"Tuyên Quang","wardName":"Thị trấn Tân Yên","address":"","lat":22.039025,"lng":105.037502,"sets":[],"area":{"DELIVERY":{"nC":6,"nA":548.1,"oC":13,"oA":548.7},"PICK":{"nC":6,"nA":548.1,"oC":13,"oA":548.7},"RETURN":{"nC":0,"nA":0.0,"oC":13,"oA":548.7}}},{"id":"2399","name":"(KHO) Bắc Nha Trang","type":"BC","isVirtual":false,"region":"NTB","province":"Khánh Hòa","wardName":"Phường Vĩnh Hải","address":"","lat":12.287364,"lng":109.19073,"sets":[],"area":{"DELIVERY":{"nC":1,"nA":97.4,"oC":6,"oA":95.4},"PICK":{"nC":1,"nA":97.4,"oC":6,"oA":95.4},"RETURN":{"nC":0,"nA":0.0,"oC":6,"oA":95.4}}},{"id":"2409","name":"(QNI) Cửa Ông 2","type":"BC","isVirtual":false,"region":"XBG","province":"Quảng Ninh","wardName":"Phường Cửa Ông","address":"","lat":21.0389999,"lng":107.3586827,"sets":[],"area":{"DELIVERY":{"nC":1,"nA":168.3,"oC":7,"oA":283.3},"PICK":{"nC":1,"nA":168.3,"oC":7,"oA":283.3},"RETURN":{"nC":0,"nA":0.0,"oC":7,"oA":283.3}}},{"id":"2410","name":"(TVI) Duyên Hải","type":"BC","isVirtual":false,"region":"DCL","province":"Trà Vinh","wardName":"Xã Trường Long Hòa","address":"","lat":9.6468369,"lng":106.5007387,"sets":[],"area":{"DELIVERY":{"nC":7,"nA":405.1,"oC":13,"oA":409.0},"PICK":{"nC":7,"nA":405.1,"oC":13,"oA":409.0},"RETURN":{"nC":0,"nA":0.0,"oC":13,"oA":409.0}}},{"id":"2417","name":"(BDU) Bình Dương 2","type":"BC","isVirtual":false,"region":"HCM","province":"Bình Dương","wardName":"Phường Phú Mỹ","address":"","lat":11.0240777,"lng":106.6788661,"sets":[],"area":{"DELIVERY":{"nC":0,"nA":0.0,"oC":2,"oA":20.5},"PICK":{"nC":0,"nA":0.0,"oC":2,"oA":20.5},"RETURN":{"nC":0,"nA":0.0,"oC":2,"oA":20.5}}},{"id":"2429","name":"Bưu Cục Long Phước-Long Thành-Đồng Nai","type":"BC","isVirtual":false,"region":"DNB","province":"Đồng Nai","wardName":"Xã Tân Hiệp","address":"","lat":10.685206,"lng":107.0364163,"sets":[],"area":{"DELIVERY":{"nC":1,"nA":86.4,"oC":3,"oA":87.1},"PICK":{"nC":1,"nA":86.4,"oC":3,"oA":87.1},"RETURN":{"nC":2,"nA":167.3,"oC":3,"oA":87.1}}},{"id":"2431","name":"Bưu Cục 54 Hùng Vương-Năm Căn-Cà Mau","type":"BC","isVirtual":false,"region":"TNB","province":"Cà Mau","wardName":"Thị Trấn Năm Căn","address":"","lat":8.757212,"lng":104.980232,"sets":[],"area":{"DELIVERY":{"nC":2,"nA":267.9,"oC":9,"oA":593.6},"PICK":{"nC":2,"nA":267.9,"oC":9,"oA":593.6},"RETURN":{"nC":3,"nA":469.2,"oC":9,"oA":593.6}}},{"id":"2434","name":"Bưu Cục Đảo Kiên Hải-Kiên Giang","type":"BC","isVirtual":true,"region":"TNB","province":"Kiên Giang","wardName":"Phường An Bình","address":"","lat":9.978412,"lng":105.100998,"sets":[],"area":{"DELIVERY":{"nC":1,"nA":24.6,"oC":4,"oA":20.6},"PICK":{"nC":1,"nA":24.6,"oC":4,"oA":20.6},"RETURN":{"nC":1,"nA":24.6,"oC":4,"oA":20.6}}},{"id":"2439","name":"Bưu Cục 04 Nhất Chi Mai-Q.Tân Bình-HCM","type":"BC","isVirtual":false,"region":"HCM","province":"Hồ Chí Minh","wardName":"Phường 13","address":"","lat":10.8028396,"lng":106.639924,"sets":[],"area":{"DELIVERY":{"nC":0,"nA":0.0,"oC":2,"oA":1.6},"PICK":{"nC":0,"nA":0.0,"oC":2,"oA":1.6},"RETURN":{"nC":0,"nA":0.0,"oC":2,"oA":1.6}}},{"id":"2441","name":"Bưu Cục 16A Lê Hồng Phong-Q.10-HCM","type":"BC","isVirtual":false,"region":"HCM","province":"Hồ Chí Minh","wardName":"Phường 12","address":"","lat":10.77583,"lng":106.67049,"sets":[],"area":{"DELIVERY":{"nC":0,"nA":0.0,"oC":5,"oA":2.1},"PICK":{"nC":0,"nA":0.0,"oC":5,"oA":2.1},"RETURN":{"nC":1,"nA":2.6,"oC":5,"oA":2.1}}},{"id":"2451","name":"Bưu Cục 1130 Đông Hưng Thuận 05-Q.12-HCM","type":"BC","isVirtual":false,"region":"HCM","province":"Hồ Chí Minh","wardName":"Phường Đông Hưng Thuận","address":"","lat":10.8390821,"lng":106.621627,"sets":[],"area":{"DELIVERY":{"nC":0,"nA":0.0,"oC":2,"oA":3.9},"PICK":{"nC":0,"nA":0.0,"oC":2,"oA":3.9},"RETURN":{"nC":0,"nA":0.0,"oC":2,"oA":3.9}}},{"id":"2452","name":"Bưu Cục 198 Thạnh Lộc 15-Q.12-HCM","type":"BC","isVirtual":false,"region":"HCM","province":"Hồ Chí Minh","wardName":"Phường Thạnh Lộc","address":"","lat":10.8694847,"lng":106.6924142,"sets":[],"area":{"DELIVERY":{"nC":0,"nA":0.0,"oC":1,"oA":6.2},"PICK":{"nC":0,"nA":0.0,"oC":1,"oA":6.2},"RETURN":{"nC":0,"nA":0.0,"oC":1,"oA":6.2}}},{"id":"2455","name":"Bưu Cục Xã 10-Bù Đăng-Bình Phước","type":"BC","isVirtual":false,"region":"DNB","province":"Bình Phước","wardName":"Xã Đường 10","address":"","lat":11.953694,"lng":107.182361,"sets":[],"area":{"DELIVERY":{"nC":2,"nA":425.6,"oC":4,"oA":427.9},"PICK":{"nC":2,"nA":425.6,"oC":4,"oA":427.9},"RETURN":{"nC":2,"nA":425.6,"oC":4,"oA":427.9}}},{"id":"2458","name":"Bưu Cục Vận Hành Ba Tơ-Quảng Ngãi","type":"BC","isVirtual":true,"region":"TTB","province":"Quảng Ngãi","wardName":"Thị trấn Mộ Đức","address":"","lat":14.761894,"lng":108.73295,"sets":[],"area":{"DELIVERY":{"nC":8,"nA":1132.4,"oC":20,"oA":1129.3},"PICK":{"nC":8,"nA":1132.4,"oC":20,"oA":1129.3},"RETURN":{"nC":0,"nA":0.0,"oC":20,"oA":1129.3}}},{"id":"2461","name":"Bưu Cục 229 Quan Nhân-Q.Thanh Xuân-HN","type":"BC","isVirtual":false,"region":"HNO","province":"Hà Nội","wardName":"Phường Thanh Xuân Trung","address":"","lat":21.001105,"lng":105.810285,"sets":[],"area":{"DELIVERY":{"nC":0,"nA":0.0,"oC":1,"oA":0.0},"PICK":{"nC":0,"nA":0.0,"oC":0,"oA":0.0},"RETURN":{"nC":0,"nA":0.0,"oC":0,"oA":0.0}}},{"id":"2467","name":"(HPH) Kiến Hưng","type":"BC","isVirtual":false,"region":"XBG","province":"Hải Phòng","wardName":"Xã Ngũ Đoan","address":"","lat":20.718398,"lng":106.675812,"sets":[],"area":{"DELIVERY":{"nC":4,"nA":78.0,"oC":17,"oA":90.2},"PICK":{"nC":4,"nA":78.0,"oC":17,"oA":90.2},"RETURN":{"nC":4,"nA":78.0,"oC":17,"oA":90.2}}},{"id":"2468","name":"(NBI) Gia Viễn","type":"BC","isVirtual":false,"region":"TNT","province":"Ninh Bình","wardName":"Thị trấn Thịnh Vượng","address":"","lat":20.346249,"lng":105.850577,"sets":[],"area":{"DELIVERY":{"nC":4,"nA":111.9,"oC":14,"oA":111.4},"PICK":{"nC":4,"nA":111.9,"oC":14,"oA":111.4},"RETURN":{"nC":4,"nA":111.9,"oC":14,"oA":111.4}}},{"id":"2474","name":"Bưu Cục Thoại Sơn-An Giang","type":"BC","isVirtual":false,"region":"TNB","province":"An Giang","wardName":"Thị trấn Núi Sập","address":"","lat":10.2549404,"lng":105.260015,"sets":[],"area":{"DELIVERY":{"nC":6,"nA":472.9,"oC":17,"oA":469.3},"PICK":{"nC":6,"nA":472.9,"oC":17,"oA":469.3},"RETURN":{"nC":6,"nA":472.9,"oC":17,"oA":469.3}}},{"id":"2475","name":"Bưu Cục 15 Hàng Bún-Q.Ba Đình-HN","type":"BC","isVirtual":false,"region":"HNO","province":"Hà Nội","wardName":"Phường Nguyễn Trung Trực","address":"","lat":21.043324,"lng":105.845677,"sets":[],"area":{"DELIVERY":{"nC":0,"nA":0.0,"oC":5,"oA":0.0},"PICK":{"nC":0,"nA":0.0,"oC":5,"oA":0.0},"RETURN":{"nC":0,"nA":0.0,"oC":5,"oA":0.0}}},{"id":"2488","name":"Bưu Cục 480F Cao Thắng-Trường Sa-Q.3-HCM","type":"BC","isVirtual":false,"region":"HCM","province":"Hồ Chí Minh","wardName":"Phường 12","address":"","lat":10.77567262774388,"lng":106.6704441591177,"sets":[],"area":{"DELIVERY":{"nC":1,"nA":1.7,"oC":10,"oA":0.9},"PICK":{"nC":1,"nA":1.7,"oC":10,"oA":0.9},"RETURN":{"nC":1,"nA":1.7,"oC":10,"oA":0.9}}},{"id":"2489","name":"Bưu Cục 456 Nguyễn Kiệm-Q.Phú Nhuận-HCM","type":"BC","isVirtual":false,"region":"HCM","province":"Hồ Chí Minh","wardName":"Phường 3","address":"","lat":10.802363,"lng":106.679308,"sets":[],"area":{"DELIVERY":{"nC":1,"nA":2.1,"oC":7,"oA":2.1},"PICK":{"nC":1,"nA":2.1,"oC":7,"oA":2.1},"RETURN":{"nC":1,"nA":2.1,"oC":7,"oA":2.1}}},{"id":"2498","name":"(DTH) Tràm Chim","type":"BC","isVirtual":false,"region":"DCL","province":"Đồng Tháp","wardName":"Thị trấn Tràm Chim","address":"","lat":10.673553,"lng":105.550231,"sets":[],"area":{"DELIVERY":{"nC":4,"nA":350.1,"oC":12,"oA":481.1},"PICK":{"nC":4,"nA":350.1,"oC":12,"oA":481.1},"RETURN":{"nC":4,"nA":367.2,"oC":12,"oA":481.1}}},{"id":"2500","name":"(HPH) Hải An 2","type":"BC","isVirtual":false,"region":"XBG","province":"Hải Phòng","wardName":"Phường Đằng Hải","address":"","lat":20.846282,"lng":106.715681,"sets":[],"area":{"DELIVERY":{"nC":0,"nA":0.0,"oC":2,"oA":7.5},"PICK":{"nC":0,"nA":0.0,"oC":2,"oA":7.5},"RETURN":{"nC":1,"nA":53.3,"oC":2,"oA":7.5}}},{"id":"2502","name":"(KHO) Nam Nha Trang 5","type":"BC","isVirtual":false,"region":"NTB","province":"Khánh Hòa","wardName":"Xã Phước Đồng","address":"","lat":12.1907937,"lng":109.1706565,"sets":[],"area":{"DELIVERY":{"nC":0,"nA":0.0,"oC":1,"oA":55.6},"PICK":{"nC":0,"nA":0.0,"oC":1,"oA":55.6},"RETURN":{"nC":0,"nA":0.0,"oC":1,"oA":55.6}}},{"id":"2503","name":"Bưu cục 41 Trần Quốc Vượng-Q.Cầu giấy-HN","type":"BC","isVirtual":false,"region":"HNO","province":"Hà Nội","wardName":"Phường Dịch Vọng Hậu","address":"","lat":21.03559956,"lng":105.786288,"sets":[],"area":{"DELIVERY":{"nC":0,"nA":0.0,"oC":2,"oA":0.0},"PICK":{"nC":0,"nA":0.0,"oC":0,"oA":0.0},"RETURN":{"nC":0,"nA":0.0,"oC":0,"oA":0.0}}},{"id":"2520","name":"Bưu Cục 09 Hoàng Cầu-Q.Đống Đa-HN","type":"BC","isVirtual":false,"region":"HNO","province":"Hà Nội","wardName":"Phường Ô Chợ Dừa","address":"","lat":21.0162422,"lng":105.8213612,"sets":[],"area":{"DELIVERY":{"nC":0,"nA":0.0,"oC":1,"oA":0.0},"PICK":{"nC":0,"nA":0.0,"oC":1,"oA":0.0},"RETURN":{"nC":0,"nA":0.0,"oC":1,"oA":0.0}}},{"id":"2525","name":"Bưu Cục 22 Thanh Yên-Q.Hoàn Kiếm-HN","type":"BC","isVirtual":false,"region":"HNO","province":"Hà Nội","wardName":"Phường Phúc Tân","address":"","lat":21.037548,"lng":105.854078,"sets":[],"area":{"DELIVERY":{"nC":0,"nA":0.0,"oC":6,"oA":0.0},"PICK":{"nC":0,"nA":0.0,"oC":6,"oA":0.0},"RETURN":{"nC":0,"nA":0.0,"oC":6,"oA":0.0}}},{"id":"2528","name":"Bưu Cục 154B Mai Thị Hồng Hạnh-Rạch Giá-Kiên Giang","type":"BC","isVirtual":false,"region":"TNB","province":"Kiên Giang","wardName":"Phường Rạch Sỏi","address":"","lat":9.945293,"lng":105.12754,"sets":[],"area":{"DELIVERY":{"nC":1,"nA":104.5,"oC":6,"oA":110.5},"PICK":{"nC":1,"nA":104.5,"oC":6,"oA":110.5},"RETURN":{"nC":2,"nA":176.8,"oC":6,"oA":110.5}}},{"id":"2533","name":"(HCM) CK Hạnh Thông","type":"BC","isVirtual":false,"region":"HCM","province":"Hồ Chí Minh","wardName":"Phường 3","address":"","lat":10.8226266,"lng":106.6787629,"sets":[],"area":{"DELIVERY":{"nC":0,"nA":0.0,"oC":0,"oA":0.0},"PICK":{"nC":0,"nA":0.0,"oC":0,"oA":0.0},"RETURN":{"nC":0,"nA":0.0,"oC":0,"oA":0.0}}},{"id":"2534","name":"Bưu Cục 903B Tạ Quang Bửu-Q.8-HCM","type":"BC","isVirtual":false,"region":"HCM","province":"Hồ Chí Minh","wardName":"Phường 5","address":"","lat":10.7343536,"lng":106.6623223,"sets":[],"area":{"DELIVERY":{"nC":0,"nA":0.0,"oC":8,"oA":3.3},"PICK":{"nC":0,"nA":0.0,"oC":8,"oA":3.3},"RETURN":{"nC":0,"nA":0.0,"oC":8,"oA":3.3}}},{"id":"2535","name":"(HPH) An Phong","type":"BC","isVirtual":false,"region":"XBG","province":"Hải Phòng","wardName":"Xã Hồng Phong","address":"","lat":20.871231,"lng":106.575898,"sets":[],"area":{"DELIVERY":{"nC":0,"nA":0.0,"oC":4,"oA":24.7},"PICK":{"nC":0,"nA":0.0,"oC":4,"oA":24.7},"RETURN":{"nC":0,"nA":0.0,"oC":4,"oA":24.7}}},{"id":"11111","name":"KHO TECH TESTING 11111","type":null,"isVirtual":false,"region":"HCM","province":"Hồ Chí Minh","wardName":null,"address":"","lat":10.7694456,"lng":106.6635853,"sets":["TECHTEST"],"area":{"DELIVERY":{"nC":0,"nA":0.0,"oC":0,"oA":0.0},"PICK":{"nC":0,"nA":0.0,"oC":0,"oA":0.0},"RETURN":{"nC":0,"nA":0.0,"oC":0,"oA":0.0}}},{"id":"11112","name":"KHO TECH TESTING 11112","type":null,"isVirtual":false,"region":"HCM","province":"Hồ Chí Minh","wardName":null,"address":"","lat":10.7694492,"lng":106.663575,"sets":["TECHTEST"],"area":{"DELIVERY":{"nC":0,"nA":0.0,"oC":0,"oA":0.0},"PICK":{"nC":0,"nA":0.0,"oC":0,"oA":0.0},"RETURN":{"nC":0,"nA":0.0,"oC":0,"oA":0.0}}},{"id":"11113","name":"KHO TECH TESTING 11113","type":null,"isVirtual":false,"region":"HCM","province":"Hồ Chí Minh","wardName":null,"address":"","lat":10.7694456,"lng":106.6635853,"sets":["TECHTEST"],"area":{"DELIVERY":{"nC":0,"nA":0.0,"oC":0,"oA":0.0},"PICK":{"nC":0,"nA":0.0,"oC":0,"oA":0.0},"RETURN":{"nC":0,"nA":0.0,"oC":0,"oA":0.0}}},{"id":"22222","name":"KHO TECH TESTING 22222","type":null,"isVirtual":false,"region":"HCM","province":"Hồ Chí Minh","wardName":null,"address":"","lat":10.769534,"lng":106.6636028,"sets":["TECHTEST"],"area":{"DELIVERY":{"nC":0,"nA":0.0,"oC":0,"oA":0.0},"PICK":{"nC":0,"nA":0.0,"oC":0,"oA":0.0},"RETURN":{"nC":0,"nA":0.0,"oC":0,"oA":0.0}}},{"id":"20001000","name":"Bưu cục 896 Minh Khai-Q.Hai Bà Trưng-HN","type":"BC","isVirtual":false,"region":"HNO","province":"Hà Nội","wardName":"Phường Thanh Lương","address":"","lat":21.004527,"lng":105.869162,"sets":[],"area":{"DELIVERY":{"nC":0,"nA":0.0,"oC":2,"oA":0.0},"PICK":{"nC":0,"nA":0.0,"oC":0,"oA":0.0},"RETURN":{"nC":0,"nA":0.0,"oC":0,"oA":0.0}}},{"id":"20010000","name":"Bưu Cục Vân Hà-Đông Anh-HN","type":"BC","isVirtual":false,"region":"HNO","province":"Hà Nội","wardName":"Xã Vân Hà","address":"","lat":21.1414,"lng":105.91642,"sets":[],"area":{"DELIVERY":{"nC":0,"nA":0.0,"oC":6,"oA":0.0},"PICK":{"nC":0,"nA":0.0,"oC":6,"oA":0.0},"RETURN":{"nC":0,"nA":0.0,"oC":6,"oA":0.0}}},{"id":"20020000","name":"Bưu cục 442 Nguyễn Trãi-Q.Thanh Xuân-HN","type":"BC","isVirtual":false,"region":"HNO","province":"Hà Nội","wardName":"Phường Thanh Xuân Trung","address":"","lat":20.9927328,"lng":105.80469,"sets":[],"area":{"DELIVERY":{"nC":0,"nA":0.0,"oC":3,"oA":0.0},"PICK":{"nC":0,"nA":0.0,"oC":0,"oA":0.0},"RETURN":{"nC":0,"nA":0.0,"oC":0,"oA":0.0}}},{"id":"20023000","name":"(HTI) Can Lộc","type":"BC","isVirtual":false,"region":"BTB","province":"Hà Tĩnh","wardName":"Thị trấn Nghèn","address":"","lat":18.46308,"lng":105.768628,"sets":[],"area":{"DELIVERY":{"nC":5,"nA":252.3,"oC":19,"oA":250.6},"PICK":{"nC":5,"nA":252.3,"oC":19,"oA":250.6},"RETURN":{"nC":4,"nA":207.0,"oC":19,"oA":250.6}}},{"id":"20026000","name":"Bưu Cục 63 Ký Hòa-Q.5-HCM","type":"BC","isVirtual":false,"region":"HCM","province":"Hồ Chí Minh","wardName":"Phường 11","address":"","lat":10.75432,"lng":106.66064,"sets":[],"area":{"DELIVERY":{"nC":1,"nA":1.8,"oC":8,"oA":0.7},"PICK":{"nC":1,"nA":1.8,"oC":8,"oA":0.7},"RETURN":{"nC":1,"nA":1.8,"oC":8,"oA":0.7}}},{"id":"20027000","name":"Bưu Cục 117 Hùng Vương-Q.5-HCM","type":"BC","isVirtual":false,"region":"HCM","province":"Hồ Chí Minh","wardName":"Phường 11","address":"","lat":10.7617,"lng":106.67578,"sets":[],"area":{"DELIVERY":{"nC":1,"nA":1.2,"oC":7,"oA":0.9},"PICK":{"nC":1,"nA":1.2,"oC":7,"oA":0.9},"RETURN":{"nC":1,"nA":1.2,"oC":7,"oA":0.9}}},{"id":"20032000","name":"Bưu Cục 24 ngõ 80 La Nội-Q.Hà Đông-HN","type":"BC","isVirtual":false,"region":"HNO","province":"Hà Nội","wardName":"Phường Dương Nội","address":"","lat":20.97984481,"lng":105.7492971,"sets":[],"area":{"DELIVERY":{"nC":0,"nA":0.0,"oC":1,"oA":0.0},"PICK":{"nC":0,"nA":0.0,"oC":0,"oA":0.0},"RETURN":{"nC":0,"nA":0.0,"oC":0,"oA":0.0}}},{"id":"20038000","name":"Bưu cục 296 đường Ỷ Lan-Gia Lâm-HN","type":"BC","isVirtual":false,"region":"HNO","province":"Hà Nội","wardName":"Xã Đặng Xá","address":"","lat":21.0212845,"lng":105.9644118,"sets":[],"area":{"DELIVERY":{"nC":1,"nA":29.8,"oC":8,"oA":12.7},"PICK":{"nC":1,"nA":29.8,"oC":4,"oA":12.7},"RETURN":{"nC":1,"nA":29.8,"oC":4,"oA":12.7}}},{"id":"20040000","name":"Bưu cục 126 Hoàng Ngân-Q.Cầu Giấy-HN","type":"BC","isVirtual":false,"region":"HNO","province":"Hà Nội","wardName":"Phường Trung Hoà","address":"","lat":21.00974856,"lng":105.8066455,"sets":[],"area":{"DELIVERY":{"nC":0,"nA":0.0,"oC":1,"oA":0.0},"PICK":{"nC":0,"nA":0.0,"oC":0,"oA":0.0},"RETURN":{"nC":0,"nA":0.0,"oC":0,"oA":0.0}}},{"id":"20047000","name":"Bưu Cục 53 Lãng Yên-Q.Hai Bà Trưng-HN","type":"BC","isVirtual":false,"region":"HNO","province":"Hà Nội","wardName":"Phường Bạch Đằng","address":"","lat":21.0089985,"lng":105.8666449,"sets":[],"area":{"DELIVERY":{"nC":0,"nA":0.0,"oC":1,"oA":0.0},"PICK":{"nC":0,"nA":0.0,"oC":9,"oA":0.0},"RETURN":{"nC":0,"nA":0.0,"oC":9,"oA":0.0}}},{"id":"20049000","name":"Bưu Cục 109 E3-Q.Hai Bà Trưng-HN","type":"BC","isVirtual":false,"region":"HNO","province":"Hà Nội","wardName":"Phường Bạch Mai","address":"","lat":21.003327,"lng":105.849394,"sets":[],"area":{"DELIVERY":{"nC":0,"nA":0.0,"oC":5,"oA":0.0},"PICK":{"nC":0,"nA":0.0,"oC":0,"oA":0.0},"RETURN":{"nC":0,"nA":0.0,"oC":0,"oA":0.0}}},{"id":"20052000","name":"Bưu Cục 295F Lý Thường Kiệt-Quận 11-HCM","type":"BC","isVirtual":false,"region":"HCM","province":"Hồ Chí Minh","wardName":"Phường 15","address":"","lat":10.7762921,"lng":106.6562777,"sets":[],"area":{"DELIVERY":{"nC":0,"nA":0.0,"oC":4,"oA":0.7},"PICK":{"nC":0,"nA":0.0,"oC":4,"oA":0.7},"RETURN":{"nC":0,"nA":0.0,"oC":4,"oA":0.7}}},{"id":"20053000","name":"Bưu Cục 303 Hoàng Hoa Thám-Q.Ba Đình-HN","type":"BC","isVirtual":false,"region":"HNO","province":"Hà Nội","wardName":"Phường Liễu Giai","address":"","lat":21.04225556,"lng":105.8184068,"sets":[],"area":{"DELIVERY":{"nC":0,"nA":0.0,"oC":5,"oA":0.0},"PICK":{"nC":0,"nA":0.0,"oC":2,"oA":0.0},"RETURN":{"nC":0,"nA":0.0,"oC":2,"oA":0.0}}},{"id":"20054000","name":"Bưu Cục 14 Huỳnh Thúc Kháng-Q.Đống Đa-HN","type":"BC","isVirtual":false,"region":"HNO","province":"Hà Nội","wardName":"Phường Láng Hạ","address":"","lat":21.01907,"lng":105.81165,"sets":["ADHOCS_LAY","ADHOCS_TRA"],"area":{"DELIVERY":{"nC":0,"nA":0.0,"oC":0,"oA":0.0},"PICK":{"nC":0,"nA":0.0,"oC":2,"oA":0.0},"RETURN":{"nC":0,"nA":0.0,"oC":2,"oA":0.0}}},{"id":"20059000","name":"Bưu cục Đồng Đăng-Cao Lộc-Lạng Sơn","type":"BC","isVirtual":false,"region":"XBG","province":"Lạng Sơn","wardName":"Thị trấn Đồng Đăng","address":"","lat":21.950466,"lng":106.699845,"sets":[],"area":{"DELIVERY":{"nC":7,"nA":723.1,"oC":37,"oA":760.4},"PICK":{"nC":7,"nA":723.1,"oC":37,"oA":760.4},"RETURN":{"nC":7,"nA":723.1,"oC":37,"oA":760.4}}},{"id":"20060000","name":"Bưu cục Lộc Bình-Lạng Sơn","type":"BC","isVirtual":false,"region":"XBG","province":"Lạng Sơn","wardName":"Thị trấn Lộc Bình","address":"","lat":21.75149,"lng":106.928509,"sets":[],"area":{"DELIVERY":{"nC":7,"nA":985.7,"oC":32,"oA":984.8},"PICK":{"nC":7,"nA":985.7,"oC":32,"oA":984.8},"RETURN":{"nC":7,"nA":985.7,"oC":32,"oA":984.8}}},{"id":"20061000","name":"(HPH) An Biên 2","type":"BC","isVirtual":false,"region":"XBG","province":"Hải Phòng","wardName":"Phường Kênh Dương","address":"","lat":20.833657,"lng":106.679396,"sets":[],"area":{"DELIVERY":{"nC":1,"nA":5.2,"oC":8,"oA":6.1},"PICK":{"nC":1,"nA":5.2,"oC":8,"oA":6.1},"RETURN":{"nC":0,"nA":0.0,"oC":8,"oA":6.1}}},{"id":"20071000","name":"(BVT) Bà Rịa","type":"BC","isVirtual":false,"region":"HCM","province":"Bà Rịa - Vũng Tàu","wardName":"Phường Phước Hiệp","address":"","lat":10.4948172,"lng":107.1750766,"sets":[],"area":{"DELIVERY":{"nC":0,"nA":0.0,"oC":5,"oA":40.3},"PICK":{"nC":0,"nA":0.0,"oC":5,"oA":40.3},"RETURN":{"nC":0,"nA":0.0,"oC":5,"oA":40.3}}},{"id":"20075000","name":"Bưu Cục T30 Nguyễn Hữu Hào-Q.4-HCM","type":"BC","isVirtual":false,"region":"HCM","province":"Hồ Chí Minh","wardName":"Phường 6","address":"","lat":10.75995,"lng":106.70209,"sets":[],"area":{"DELIVERY":{"nC":0,"nA":0.0,"oC":6,"oA":0.9},"PICK":{"nC":0,"nA":0.0,"oC":6,"oA":0.9},"RETURN":{"nC":1,"nA":1.1,"oC":6,"oA":0.9}}},{"id":"20078000","name":"Bưu Cục 9 Hồng Bàng-Q.Bình Thạnh-HCM","type":"BC","isVirtual":false,"region":"HCM","province":"Hồ Chí Minh","wardName":"Phường 1","address":"","lat":10.8025201,"lng":106.698029,"sets":[],"area":{"DELIVERY":{"nC":0,"nA":0.0,"oC":5,"oA":1.4},"PICK":{"nC":0,"nA":0.0,"oC":0,"oA":0.0},"RETURN":{"nC":0,"nA":0.0,"oC":0,"oA":0.0}}},{"id":"20081000","name":"Bưu Cục 16A Hòa Mã -Q.Hai Bà Trưng-HN","type":"BC","isVirtual":false,"region":"HNO","province":"Hà Nội","wardName":"Phường Phạm Đình Hổ","address":"","lat":21.0156138,"lng":105.8556383,"sets":[],"area":{"DELIVERY":{"nC":0,"nA":0.0,"oC":8,"oA":0.0},"PICK":{"nC":0,"nA":0.0,"oC":0,"oA":0.0},"RETURN":{"nC":0,"nA":0.0,"oC":0,"oA":0.0}}},{"id":"20087000","name":"Bưu Cục C14 Bắc Hà-Q.Nam Từ Liêm-HN","type":"BC","isVirtual":false,"region":"HNO","province":"Hà Nội","wardName":"Phường Trung Văn","address":"","lat":20.990016,"lng":105.784293,"sets":["ADHOCS_LAY","ADHOCS_TRA"],"area":{"DELIVERY":{"nC":0,"nA":0.0,"oC":0,"oA":0.0},"PICK":{"nC":0,"nA":0.0,"oC":2,"oA":2.6},"RETURN":{"nC":0,"nA":0.0,"oC":2,"oA":2.6}}},{"id":"20090000","name":"(HDU) Tân Hưng","type":"BC","isVirtual":false,"region":"XBG","province":"Hải Dương","wardName":"Phường Hải Tân","address":"","lat":20.9325507,"lng":106.3366227,"sets":[],"area":{"DELIVERY":{"nC":1,"nA":7.5,"oC":8,"oA":20.7},"PICK":{"nC":1,"nA":7.5,"oC":8,"oA":20.7},"RETURN":{"nC":1,"nA":7.5,"oC":8,"oA":20.7}}},{"id":"20091000","name":"Bưu Cục 61 Kim Mã-Q.Ba Đình-HN","type":"BC","isVirtual":false,"region":"HNO","province":"Hà Nội","wardName":"Phường Kim Mã","address":"","lat":21.03221987,"lng":105.8277081,"sets":[],"area":{"DELIVERY":{"nC":0,"nA":0.0,"oC":0,"oA":0.0},"PICK":{"nC":0,"nA":0.0,"oC":12,"oA":0.5},"RETURN":{"nC":0,"nA":0.0,"oC":12,"oA":0.5}}},{"id":"20092000","name":"Bưu cục 253 Phạm Văn Đồng-Q.Bắc Từ Liêm-Hà Nội","type":"BC","isVirtual":false,"region":"HNO","province":"Hà Nội","wardName":"Phường Xuân Đỉnh","address":"","lat":21.073257,"lng":105.785887,"sets":[],"area":{"DELIVERY":{"nC":0,"nA":0.0,"oC":2,"oA":5.3},"PICK":{"nC":0,"nA":0.0,"oC":1,"oA":2.4},"RETURN":{"nC":0,"nA":0.0,"oC":1,"oA":2.4}}},{"id":"20093000","name":"(QNI) Quang Hanh","type":"BC","isVirtual":false,"region":"XBG","province":"Quảng Ninh","wardName":"Phường Cẩm Thạch","address":"","lat":21.0076,"lng":107.257537,"sets":[],"area":{"DELIVERY":{"nC":1,"nA":58.4,"oC":5,"oA":60.9},"PICK":{"nC":1,"nA":58.4,"oC":5,"oA":60.9},"RETURN":{"nC":0,"nA":0.0,"oC":5,"oA":60.9}}},{"id":"20097000","name":"Bưu cục Thạch Hòa-Thạch Thất-Hà Nội","type":"BC","isVirtual":false,"region":"HNO","province":"Hà Nội","wardName":"Xã Thạch Hoà","address":"","lat":20.9869341,"lng":105.5276892,"sets":[],"area":{"DELIVERY":{"nC":1,"nA":71.2,"oC":7,"oA":0.0},"PICK":{"nC":1,"nA":71.2,"oC":7,"oA":0.0},"RETURN":{"nC":1,"nA":71.2,"oC":7,"oA":0.0}}},{"id":"20099000","name":"Bưu cục 148 Trâu Quỳ-Gia Lâm-HN","type":"BC","isVirtual":false,"region":"HNO","province":"Hà Nội","wardName":"Thị trấn Trâu Quỳ","address":"","lat":21.0014959,"lng":105.9390521,"sets":[],"area":{"DELIVERY":{"nC":0,"nA":0.0,"oC":2,"oA":0.0},"PICK":{"nC":0,"nA":0.0,"oC":0,"oA":0.0},"RETURN":{"nC":0,"nA":0.0,"oC":0,"oA":0.0}}},{"id":"20102000","name":"Bưu cục 58 Vũ Tông Phan-Q.2-HCM","type":"BC","isVirtual":false,"region":"HCM","province":"Hồ Chí Minh","wardName":"Phường An Phú","address":"","lat":10.79734195904519,"lng":106.7418189408406,"sets":[],"area":{"DELIVERY":{"nC":0,"nA":0.0,"oC":3,"oA":10.4},"PICK":{"nC":0,"nA":0.0,"oC":3,"oA":10.4},"RETURN":{"nC":0,"nA":0.0,"oC":3,"oA":10.4}}},{"id":"20103000","name":"Bưu Cục 559 Vũ Tông Phan-Q.Thanh Xuân-HN","type":"BC","isVirtual":false,"region":"HNO","province":"Hà Nội","wardName":"Phường Khương Đình","address":"","lat":20.9847301,"lng":105.8151779,"sets":[],"area":{"DELIVERY":{"nC":0,"nA":0.0,"oC":0,"oA":0.0},"PICK":{"nC":0,"nA":0.0,"oC":0,"oA":0.0},"RETURN":{"nC":0,"nA":0.0,"oC":0,"oA":0.0}}},{"id":"20108000","name":"Bưu Cục 39 Gò Sỏi-Sóc Sơn-HN","type":"BC","isVirtual":false,"region":"HNO","province":"Hà Nội","wardName":"Xã Hồng Kỳ","address":"","lat":21.289057,"lng":105.861237,"sets":[],"area":{"DELIVERY":{"nC":1,"nA":77.1,"oC":8,"oA":0.0},"PICK":{"nC":1,"nA":77.1,"oC":8,"oA":0.0},"RETURN":{"nC":1,"nA":77.1,"oC":8,"oA":0.0}}},{"id":"20110000","name":"Bưu cục Thôn 6-Ba Vì-HN","type":"BC","isVirtual":false,"region":"HNO","province":"Hà Nội","wardName":"Xã Ba Trại","address":"","lat":21.124075,"lng":105.364579,"sets":[],"area":{"DELIVERY":{"nC":2,"nA":135.5,"oC":11,"oA":0.0},"PICK":{"nC":2,"nA":135.5,"oC":12,"oA":0.0},"RETURN":{"nC":3,"nA":189.8,"oC":11,"oA":0.0}}},{"id":"20114000","name":"Bưu Cục 893 Quốc Lộ 14-Đồng Xoài-Bình Phước","type":"BC","isVirtual":false,"region":"DNB","province":"Bình Phước","wardName":"Phường Tân Bình","address":"","lat":11.5302149,"lng":106.8771833,"sets":[],"area":{"DELIVERY":{"nC":1,"nA":81.4,"oC":6,"oA":156.1},"PICK":{"nC":1,"nA":81.4,"oC":6,"oA":156.1},"RETURN":{"nC":1,"nA":81.4,"oC":6,"oA":156.1}}},{"id":"20121005","name":"Điểm xử lý hàng hoá cho Sìn Hồ Thấp-Lai Châu","type":"BC","isVirtual":true,"region":"TBB","province":"Lai Châu","wardName":"Phường Đoàn Kết","address":"","lat":22.156994,"lng":103.459317,"sets":[],"area":{"DELIVERY":{"nC":4,"nA":681.6,"oC":11,"oA":733.9},"PICK":{"nC":4,"nA":681.6,"oC":11,"oA":733.9},"RETURN":{"nC":4,"nA":681.6,"oC":11,"oA":733.9}}},{"id":"20123000","name":"Bưu Cục 7C10 Nguyễn Phong Sắc-Cầu Giấy-Hà Nội","type":"BC","isVirtual":false,"region":"HNO","province":"Hà Nội","wardName":"Phường Nghĩa Tân","address":"","lat":21.042015,"lng":105.790352,"sets":["ADHOCS_LAY","ADHOCS_TRA"],"area":{"DELIVERY":{"nC":0,"nA":0.0,"oC":0,"oA":0.0},"PICK":{"nC":0,"nA":0.0,"oC":1,"oA":0.0},"RETURN":{"nC":1,"nA":4.2,"oC":1,"oA":0.0}}},{"id":"20124000","name":"(HCM) CK Tân Hưng","type":"BC","isVirtual":false,"region":"HCM","province":"Hồ Chí Minh","wardName":"Phường Tân Kiểng","address":"","lat":10.7469,"lng":106.70594,"sets":[],"area":{"DELIVERY":{"nC":0,"nA":0.0,"oC":0,"oA":0.0},"PICK":{"nC":0,"nA":0.0,"oC":4,"oA":8.3},"RETURN":{"nC":0,"nA":0.0,"oC":4,"oA":8.3}}},{"id":"20125000","name":"Bưu cục Ngọc Hồi-Thanh Trì-HN","type":"BC","isVirtual":false,"region":"HNO","province":"Hà Nội","wardName":"Xã Ngọc Hồi","address":"","lat":20.924,"lng":105.84216,"sets":[],"area":{"DELIVERY":{"nC":0,"nA":0.0,"oC":6,"oA":0.0},"PICK":{"nC":0,"nA":0.0,"oC":0,"oA":0.0},"RETURN":{"nC":0,"nA":0.0,"oC":0,"oA":0.0}}},{"id":"20126000","name":"Bưu cục Yên Xá-Thanh Trì-HN","type":"BC","isVirtual":false,"region":"HNO","province":"Hà Nội","wardName":"Xã Tân Triều","address":"","lat":20.972782,"lng":105.796357,"sets":[],"area":{"DELIVERY":{"nC":0,"nA":0.0,"oC":1,"oA":0.0},"PICK":{"nC":0,"nA":0.0,"oC":0,"oA":0.0},"RETURN":{"nC":0,"nA":0.0,"oC":0,"oA":0.0}}},{"id":"20133000","name":"(HYE) Lương Bằng","type":"BC","isVirtual":false,"region":"DSH","province":"Hưng Yên","wardName":"Thị trấn Lương Bằng","address":"","lat":20.744761,"lng":106.059322,"sets":[],"area":{"DELIVERY":{"nC":4,"nA":103.5,"oC":19,"oA":101.9},"PICK":{"nC":4,"nA":103.5,"oC":19,"oA":101.9},"RETURN":{"nC":4,"nA":103.5,"oC":19,"oA":101.9}}},{"id":"20136000","name":"Bưu Cục 105C Đồng Khởi-Biên Hòa-Đồng Nai","type":"BC","isVirtual":false,"region":"DNB","province":"Đồng Nai","wardName":"Phường Tân Phong","address":"","lat":10.9745989,"lng":106.8510147,"sets":[],"area":{"DELIVERY":{"nC":0,"nA":0.0,"oC":1,"oA":17.1},"PICK":{"nC":0,"nA":0.0,"oC":1,"oA":17.1},"RETURN":{"nC":0,"nA":0.0,"oC":1,"oA":17.1}}},{"id":"20137000","name":"Bưu Cục 106 Quang Trung-Đại Lộc-Quảng Nam","type":"BC","isVirtual":false,"region":"TTB","province":"Quảng Nam","wardName":"Thị Trấn Ái Nghĩa","address":"","lat":15.8867113,"lng":108.119545,"sets":[],"area":{"DELIVERY":{"nC":5,"nA":578.6,"oC":18,"oA":578.1},"PICK":{"nC":5,"nA":578.6,"oC":18,"oA":578.1},"RETURN":{"nC":0,"nA":0.0,"oC":18,"oA":578.1}}},{"id":"20137001","name":"Bưu Cục Vận Hành Xã Thạnh Mỹ-Đà Nẵng","type":"BC","isVirtual":true,"region":"TTB","province":"Quảng Nam","wardName":"Thị trấn Thạnh Mỹ","address":"","lat":15.748522,"lng":107.837075,"sets":[],"area":{"DELIVERY":{"nC":2,"nA":741.6,"oC":5,"oA":741.9},"PICK":{"nC":2,"nA":741.6,"oC":5,"oA":741.9},"RETURN":{"nC":0,"nA":0.0,"oC":5,"oA":741.9}}},{"id":"20137002","name":"Bưu Cục Vận Hành Xã Nam Giang-Đà Nẵng","type":"BC","isVirtual":true,"region":"TTB","province":"Quảng Nam","wardName":"Xã Chà Vàl","address":"","lat":15.619334,"lng":107.512197,"sets":[],"area":{"DELIVERY":{"nC":4,"nA":1100.3,"oC":9,"oA":1104.4},"PICK":{"nC":4,"nA":1100.3,"oC":9,"oA":1104.4},"RETURN":{"nC":0,"nA":0.0,"oC":9,"oA":1104.4}}},{"id":"20139000","name":"(DTH) Thanh Bình","type":"BC","isVirtual":false,"region":"DCL","province":"Đồng Tháp","wardName":"Thị trấn Thanh Bình","address":"","lat":10.5569375,"lng":105.4921875,"sets":[],"area":{"DELIVERY":{"nC":4,"nA":316.2,"oC":13,"oA":329.9},"PICK":{"nC":4,"nA":316.2,"oC":13,"oA":329.9},"RETURN":{"nC":4,"nA":316.2,"oC":13,"oA":329.9}}},{"id":"20141000","name":"Bưu Cục 280 Lê Đại Hành-Q.Cẩm Lệ-Đà Nẵng","type":"BC","isVirtual":false,"region":"TTB","province":"Đà Nẵng","wardName":"Phường Hòa Phát","address":"","lat":16.021260928504,"lng":108.197465855506,"sets":[],"area":{"DELIVERY":{"nC":1,"nA":14.6,"oC":5,"oA":23.0},"PICK":{"nC":1,"nA":14.6,"oC":5,"oA":23.0},"RETURN":{"nC":1,"nA":14.6,"oC":5,"oA":23.0}}},{"id":"20143000","name":"(KHO) Diên Khánh 2","type":"BC","isVirtual":false,"region":"NTB","province":"Khánh Hòa","wardName":"Thị trấn Diên Khánh","address":"","lat":12.2702688,"lng":109.1107013,"sets":[],"area":{"DELIVERY":{"nC":2,"nA":118.6,"oC":10,"oA":126.6},"PICK":{"nC":2,"nA":118.6,"oC":10,"oA":126.6},"RETURN":{"nC":2,"nA":118.6,"oC":10,"oA":126.6}}},{"id":"20144000","name":"(BTH) Mũi Né","type":"BC","isVirtual":false,"region":"NTB","province":"Bình Thuận","wardName":"Phường Hàm Tiến","address":"","lat":10.952493,"lng":108.2525145,"sets":[],"area":{"DELIVERY":{"nC":1,"nA":122.1,"oC":3,"oA":120.6},"PICK":{"nC":1,"nA":122.1,"oC":3,"oA":120.6},"RETURN":{"nC":1,"nA":122.1,"oC":3,"oA":120.6}}},{"id":"20148000","name":"(HYE) Mỹ Hào","type":"BC","isVirtual":false,"region":"DSH","province":"Hưng Yên","wardName":"Xã Nhân Hòa","address":"","lat":20.933305,"lng":106.067694,"sets":[],"area":{"DELIVERY":{"nC":3,"nA":80.0,"oC":13,"oA":78.0},"PICK":{"nC":3,"nA":80.0,"oC":13,"oA":78.0},"RETURN":{"nC":3,"nA":80.0,"oC":13,"oA":78.0}}},{"id":"20150000","name":"(NTH) Bảo An","type":"BC","isVirtual":false,"region":"NTB","province":"Ninh Thuận","wardName":"Phường Phước Mỹ","address":"","lat":11.5836725,"lng":108.9712828,"sets":[],"area":{"DELIVERY":{"nC":2,"nA":81.2,"oC":9,"oA":86.5},"PICK":{"nC":2,"nA":81.2,"oC":9,"oA":86.5},"RETURN":{"nC":0,"nA":0.0,"oC":9,"oA":86.5}}},{"id":"20153000","name":"(BTR) Giồng Trôm","type":"BC","isVirtual":false,"region":"DCL","province":"Bến Tre","wardName":"Thị trấn Giồng Trôm","address":"","lat":10.168789,"lng":106.495115,"sets":[],"area":{"DELIVERY":{"nC":5,"nA":229.8,"oC":15,"oA":230.5},"PICK":{"nC":5,"nA":229.8,"oC":15,"oA":230.5},"RETURN":{"nC":5,"nA":229.8,"oC":15,"oA":230.5}}},{"id":"20162000","name":"Bưu Cục 2C Châu Văn Liêm-Ngã Bảy-Hậu Giang","type":"BC","isVirtual":false,"region":"TNB","province":"Hậu Giang","wardName":"Phường Ngã Bảy","address":"","lat":9.815063,"lng":105.820538,"sets":[],"area":{"DELIVERY":{"nC":2,"nA":78.2,"oC":8,"oA":139.9},"PICK":{"nC":2,"nA":78.2,"oC":8,"oA":139.9},"RETURN":{"nC":2,"nA":78.2,"oC":8,"oA":139.9}}},{"id":"20166000","name":"(THO) Yên Định","type":"BC","isVirtual":false,"region":"BTB","province":"Thanh Hóa","wardName":"Thị trấn Quán Lào","address":"","lat":19.9643905,"lng":105.6601108,"sets":[],"area":{"DELIVERY":{"nC":2,"nA":60.2,"oC":13,"oA":97.2},"PICK":{"nC":2,"nA":60.2,"oC":13,"oA":97.2},"RETURN":{"nC":0,"nA":0.0,"oC":13,"oA":97.2}}},{"id":"20172000","name":"(BDI) Tây Sơn","type":"BC","isVirtual":false,"region":"TNG","province":"Bình Định","wardName":"Thị trấn Phú Phong","address":"","lat":13.9103602,"lng":108.9131764,"sets":[],"area":{"DELIVERY":{"nC":5,"nA":692.2,"oC":15,"oA":686.3},"PICK":{"nC":5,"nA":692.2,"oC":15,"oA":686.3},"RETURN":{"nC":5,"nA":692.2,"oC":15,"oA":686.3}}},{"id":"20173000","name":"(BDI) Quy Nhơn Nam","type":"BC","isVirtual":false,"region":"TNG","province":"Bình Định","wardName":"Phường Quang Trung","address":"","lat":13.762727,"lng":109.2009277,"sets":[],"area":{"DELIVERY":{"nC":1,"nA":36.1,"oC":4,"oA":33.2},"PICK":{"nC":1,"nA":36.1,"oC":4,"oA":33.2},"RETURN":{"nC":1,"nA":36.1,"oC":4,"oA":33.2}}},{"id":"20179000","name":"(BGI) Việt Yên","type":"BC","isVirtual":false,"region":"XBG","province":"Bắc Giang","wardName":"Thị trấn Bích Động","address":"","lat":21.281078,"lng":106.087627,"sets":[],"area":{"DELIVERY":{"nC":2,"nA":83.9,"oC":13,"oA":129.1},"PICK":{"nC":2,"nA":83.9,"oC":13,"oA":129.1},"RETURN":{"nC":2,"nA":83.9,"oC":13,"oA":129.1}}},{"id":"20182000","name":"Bưu cục 171 Đồng Cam-Thạch Thất-Hà Nội","type":"BC","isVirtual":false,"region":"HNO","province":"Hà Nội","wardName":"Thị trấn Liên Quan","address":"","lat":21.052531,"lng":105.581319,"sets":[],"area":{"DELIVERY":{"nC":1,"nA":31.9,"oC":16,"oA":13.9},"PICK":{"nC":1,"nA":31.9,"oC":16,"oA":13.9},"RETURN":{"nC":1,"nA":31.9,"oC":16,"oA":13.9}}},{"id":"20184000","name":"(VPH) Xuân Hòa","type":"BC","isVirtual":false,"region":"TNT","province":"Vĩnh Phúc","wardName":"Phường Xuân Hoà","address":"","lat":21.293161,"lng":105.714988,"sets":[],"area":{"DELIVERY":{"nC":1,"nA":95.6,"oC":5,"oA":99.8},"PICK":{"nC":1,"nA":95.6,"oC":5,"oA":99.8},"RETURN":{"nC":0,"nA":0.0,"oC":5,"oA":99.8}}},{"id":"20187000","name":"(NAN) Tân Kỳ","type":"BC","isVirtual":false,"region":"BTB","province":"Nghệ An","wardName":"Thị trấn Tân Kỳ","address":"","lat":19.04969,"lng":105.273147,"sets":[],"area":{"DELIVERY":{"nC":4,"nA":437.6,"oC":15,"oA":494.9},"PICK":{"nC":4,"nA":437.6,"oC":15,"oA":494.9},"RETURN":{"nC":4,"nA":437.6,"oC":15,"oA":494.9}}},{"id":"20196000","name":"Bưu Cục 129 Võ Nguyên Giáp-Minh Hóa-Quảng Bình","type":"BC","isVirtual":false,"region":"TTB","province":"Quảng Bình","wardName":"Thị trấn Quy Đạt","address":"","lat":17.815167,"lng":105.9675,"sets":[],"area":{"DELIVERY":{"nC":5,"nA":1383.9,"oC":18,"oA":1504.6},"PICK":{"nC":5,"nA":1383.9,"oC":18,"oA":1504.6},"RETURN":{"nC":0,"nA":0.0,"oC":18,"oA":1504.6}}},{"id":"20199000","name":"Bưu cục Thôn Đông-Ba Vì-Hà Nội","type":"BC","isVirtual":false,"region":"HNO","province":"Hà Nội","wardName":"Thị trấn Tây Đằng","address":"","lat":21.195205,"lng":105.424168,"sets":[],"area":{"DELIVERY":{"nC":3,"nA":103.9,"oC":19,"oA":15.6},"PICK":{"nC":3,"nA":103.9,"oC":18,"oA":15.6},"RETURN":{"nC":3,"nA":109.4,"oC":19,"oA":15.6}}},{"id":"20200000","name":"(GLA) Thống Nhất","type":"BC","isVirtual":false,"region":"TNG","province":"Gia Lai","wardName":"Phường Đống Đa","address":"","lat":14.01273531033766,"lng":107.9928856818537,"sets":[],"area":{"DELIVERY":{"nC":1,"nA":23.1,"oC":7,"oA":90.6},"PICK":{"nC":1,"nA":23.1,"oC":7,"oA":90.6},"RETURN":{"nC":1,"nA":23.1,"oC":7,"oA":90.6}}},{"id":"20204000","name":"(THO) Vĩnh Lộc","type":"BC","isVirtual":false,"region":"BTB","province":"Thanh Hóa","wardName":"Thị trấn Vĩnh Lộc","address":"","lat":20.0592759,"lng":105.6163728,"sets":[],"area":{"DELIVERY":{"nC":3,"nA":157.0,"oC":18,"oA":156.2},"PICK":{"nC":3,"nA":157.0,"oC":18,"oA":156.2},"RETURN":{"nC":0,"nA":0.0,"oC":18,"oA":156.2}}},{"id":"20206000","name":"(SLA) Phù Yên","type":"BC","isVirtual":false,"region":"TBB","province":"Sơn La","wardName":"Thị trấn Thuận Châu","address":"","lat":21.265364,"lng":104.6449799,"sets":[],"area":{"DELIVERY":{"nC":8,"nA":1232.4,"oC":27,"oA":1232.0},"PICK":{"nC":8,"nA":1232.4,"oC":27,"oA":1232.0},"RETURN":{"nC":0,"nA":0.0,"oC":27,"oA":1232.0}}},{"id":"20208000","name":"Bưu Cục TDP Văn Sơn-Lập Thạch-Vĩnh Phúc","type":"BC","isVirtual":false,"region":"TNT","province":"Vĩnh Phúc","wardName":"Thị trấn Lập Thạch","address":"","lat":21.405989,"lng":105.460407,"sets":[],"area":{"DELIVERY":{"nC":0,"nA":0.0,"oC":0,"oA":0.0},"PICK":{"nC":0,"nA":0.0,"oC":0,"oA":0.0},"RETURN":{"nC":0,"nA":0.0,"oC":0,"oA":0.0}}},{"id":"20210000","name":"Bưu Cục TT03 Tây Nam Linh Đàm-Q.Hoàng Mai-HN","type":"BC","isVirtual":false,"region":"HNO","province":"Hà Nội","wardName":"Phường Hoàng Liệt","address":"","lat":20.958025,"lng":105.824172,"sets":[],"area":{"DELIVERY":{"nC":0,"nA":0.0,"oC":1,"oA":0.0},"PICK":{"nC":0,"nA":0.0,"oC":0,"oA":0.0},"RETURN":{"nC":0,"nA":0.0,"oC":0,"oA":0.0}}},{"id":"20211000","name":"Bưu cục 602 Hà Huy Tập-Gia Lâm-HN","type":"BC","isVirtual":false,"region":"HNO","province":"Hà Nội","wardName":"Thị trấn Yên Viên","address":"","lat":21.0911315,"lng":105.9229204,"sets":["ADHOCS_LAY","ADHOCS_LAY_SPE","ADHOCS_TRA","ADHOCS_TRA_SPE"],"area":{"DELIVERY":{"nC":0,"nA":0.0,"oC":3,"oA":0.0},"PICK":{"nC":0,"nA":0.0,"oC":1,"oA":0.0},"RETURN":{"nC":0,"nA":0.0,"oC":1,"oA":0.0}}},{"id":"20218000","name":"(PYE) Tuy Hòa 3","type":"BC","isVirtual":false,"region":"TNG","province":"Phú Yên","wardName":"Phường 1","address":"","lat":13.080185,"lng":109.298897,"sets":[],"area":{"DELIVERY":{"nC":0,"nA":0.0,"oC":8,"oA":44.7},"PICK":{"nC":0,"nA":0.0,"oC":8,"oA":44.7},"RETURN":{"nC":0,"nA":0.0,"oC":8,"oA":44.7}}},{"id":"20222000","name":"(SLA) Sông Mã","type":"BC","isVirtual":false,"region":"TBB","province":"Sơn La","wardName":"Thị trấn Sông Mã","address":"","lat":21.0512968,"lng":103.7498952,"sets":[],"area":{"DELIVERY":{"nC":9,"nA":1646.6,"oC":19,"oA":1639.3},"PICK":{"nC":9,"nA":1646.6,"oC":19,"oA":1639.3},"RETURN":{"nC":0,"nA":0.0,"oC":19,"oA":1639.3}}},{"id":"20227000","name":"(TGI) Tân Phước 1","type":"BC","isVirtual":false,"region":"DCL","province":"Tiền Giang","wardName":"Thị trấn Mỹ Phước","address":"","lat":10.472133,"lng":106.196926,"sets":[],"area":{"DELIVERY":{"nC":3,"nA":255.8,"oC":12,"oA":304.3},"PICK":{"nC":3,"nA":255.8,"oC":12,"oA":304.3},"RETURN":{"nC":0,"nA":0.0,"oC":12,"oA":304.3}}},{"id":"20229000","name":"Bưu Cục 64 Đường 30/04 Vĩnh Châu-Sóc Trăng","type":"BC","isVirtual":false,"region":"TNB","province":"Sóc Trăng","wardName":"Phường 1","address":"","lat":9.333495,"lng":105.979427,"sets":[],"area":{"DELIVERY":{"nC":5,"nA":474.8,"oC":10,"oA":470.3},"PICK":{"nC":5,"nA":474.8,"oC":10,"oA":470.3},"RETURN":{"nC":0,"nA":0.0,"oC":10,"oA":470.3}}},{"id":"20236000","name":"(HDU) Kẻ Sặt","type":"BC","isVirtual":false,"region":"XBG","province":"Hải Dương","wardName":"Xã Vĩnh Hồng","address":"","lat":20.899315,"lng":106.17707,"sets":[],"area":{"DELIVERY":{"nC":3,"nA":77.2,"oC":24,"oA":105.2},"PICK":{"nC":3,"nA":77.2,"oC":24,"oA":105.2},"RETURN":{"nC":3,"nA":77.2,"oC":24,"oA":105.2}}},{"id":"20239000","name":"(THO) Như Thanh","type":"BC","isVirtual":false,"region":"BTB","province":"Thanh Hóa","wardName":"Thị trấn Bến Sung","address":"","lat":19.6323073,"lng":105.5810675,"sets":[],"area":{"DELIVERY":{"nC":6,"nA":583.3,"oC":17,"oA":589.0},"PICK":{"nC":6,"nA":583.3,"oC":17,"oA":589.0},"RETURN":{"nC":0,"nA":0.0,"oC":17,"oA":589.0}}},{"id":"20240000","name":"(THO) Nông Cống","type":"BC","isVirtual":false,"region":"BTB","province":"Thanh Hóa","wardName":"Thị trấn Nông Cống","address":"","lat":19.6325978,"lng":105.6592085,"sets":[],"area":{"DELIVERY":{"nC":6,"nA":231.6,"oC":32,"oA":282.9},"PICK":{"nC":6,"nA":231.6,"oC":32,"oA":282.9},"RETURN":{"nC":0,"nA":0.0,"oC":32,"oA":282.9}}},{"id":"20245000","name":"(GLA) Pleiku","type":"BC","isVirtual":false,"region":"TNG","province":"Gia Lai","wardName":"Phường Hoa Lư","address":"","lat":13.98760694010786,"lng":108.022871195856,"sets":[],"area":{"DELIVERY":{"nC":2,"nA":58.1,"oC":8,"oA":54.0},"PICK":{"nC":2,"nA":58.1,"oC":8,"oA":54.0},"RETURN":{"nC":0,"nA":0.0,"oC":8,"oA":54.0}}},{"id":"20253000","name":"(QNI) Quảng Yên","type":"BC","isVirtual":false,"region":"XBG","province":"Quảng Ninh","wardName":"Phường Quảng Yên","address":"","lat":20.939873,"lng":106.817752,"sets":[],"area":{"DELIVERY":{"nC":6,"nA":274.1,"oC":19,"oA":274.3},"PICK":{"nC":6,"nA":274.1,"oC":19,"oA":274.3},"RETURN":{"nC":0,"nA":0.0,"oC":19,"oA":274.3}}},{"id":"20257000","name":"Bưu Cục 215 Hùng Vương-Đắk Hà-Kon Tum","type":"BC","isVirtual":false,"region":"TTB","province":"Kon Tum","wardName":"Thị trấn Đắk Hà","address":"","lat":14.507,"lng":107.92304,"sets":[],"area":{"DELIVERY":{"nC":5,"nA":839.3,"oC":11,"oA":845.5},"PICK":{"nC":5,"nA":839.3,"oC":11,"oA":845.5},"RETURN":{"nC":5,"nA":839.3,"oC":11,"oA":845.5}}},{"id":"20257001","name":"Bưu Cục Vận Hành Tu Mơ Rông-Đắk Tô-Kon Tum","type":"BC","isVirtual":true,"region":"TTB","province":"Kon Tum","wardName":"Xã Văn Lem","address":"","lat":14.822616,"lng":107.947561,"sets":[],"area":{"DELIVERY":{"nC":4,"nA":859.7,"oC":11,"oA":858.6},"PICK":{"nC":4,"nA":859.7,"oC":11,"oA":858.6},"RETURN":{"nC":4,"nA":859.7,"oC":11,"oA":858.6}}},{"id":"20257002","name":"Bưu Cục Vận Hành Đắk Tô-Quảng Ngãi","type":"BC","isVirtual":true,"region":"TTB","province":"Kon Tum","wardName":"Xã Tu Mơ Rông","address":"","lat":14.646811,"lng":107.845273,"sets":[],"area":{"DELIVERY":{"nC":3,"nA":508.9,"oC":9,"oA":508.3},"PICK":{"nC":3,"nA":508.9,"oC":9,"oA":508.3},"RETURN":{"nC":3,"nA":508.9,"oC":9,"oA":508.3}}},{"id":"20261000","name":"(TBI) Vũ Quý","type":"BC","isVirtual":false,"region":"DSH","province":"Thái Bình","wardName":"Xã Vũ Ninh","address":"","lat":20.4234142,"lng":106.3719153,"sets":[],"area":{"DELIVERY":{"nC":9,"nA":190.1,"oC":46,"oA":220.2},"PICK":{"nC":9,"nA":190.1,"oC":46,"oA":220.2},"RETURN":{"nC":0,"nA":0.0,"oC":46,"oA":220.2}}},{"id":"20269000","name":"(DNO) Kiến Đức","type":"BC","isVirtual":false,"region":"NTB","province":"Đắk Nông","wardName":"Thị trấn Kiến Đức","address":"","lat":11.999575,"lng":107.527199,"sets":[],"area":{"DELIVERY":{"nC":1,"nA":166.4,"oC":5,"oA":295.7},"PICK":{"nC":1,"nA":166.4,"oC":5,"oA":295.7},"RETURN":{"nC":1,"nA":166.4,"oC":5,"oA":295.7}}},{"id":"20269003","name":"Điểm Xử Lý Hàng Thôn 2-Xã Nhân Cơ-Đắk Nông","type":"BC","isVirtual":true,"region":"NTB","province":"Đắk Nông","wardName":"Xã Đắk Wer","address":"","lat":11.984897,"lng":107.569637,"sets":[],"area":{"DELIVERY":{"nC":1,"nA":157.7,"oC":3,"oA":157.2},"PICK":{"nC":1,"nA":157.7,"oC":3,"oA":157.2},"RETURN":{"nC":1,"nA":157.7,"oC":3,"oA":157.2}}},{"id":"20270000","name":"Bưu Cục 322 Trần Phú-Xuân Lộc-Đồng Nai","type":"BC","isVirtual":false,"region":"DNB","province":"Đồng Nai","wardName":"Thị trấn Gia Ray","address":"","lat":10.9255652,"lng":107.4058683,"sets":[],"area":{"DELIVERY":{"nC":1,"nA":122.9,"oC":5,"oA":211.2},"PICK":{"nC":1,"nA":122.9,"oC":5,"oA":211.2},"RETURN":{"nC":1,"nA":122.9,"oC":5,"oA":211.2}}},{"id":"20271000","name":"(HTI) Hương Sơn","type":"BC","isVirtual":false,"region":"BTB","province":"Hà Tĩnh","wardName":"Thị trấn Phố Châu","address":"","lat":18.508743,"lng":105.426118,"sets":[],"area":{"DELIVERY":{"nC":5,"nA":325.1,"oC":33,"oA":326.3},"PICK":{"nC":5,"nA":325.1,"oC":33,"oA":326.3},"RETURN":{"nC":5,"nA":325.1,"oC":33,"oA":326.3}}},{"id":"20271001","name":"Điểm xử lý hàng Huyện Vũ Quang-Hà Tĩnh","type":"BC","isVirtual":true,"region":"BTB","province":"Hà Tĩnh","wardName":"Thị trấn Vũ Quang","address":"","lat":18.508702,"lng":105.42611,"sets":[],"area":{"DELIVERY":{"nC":7,"nA":1405.0,"oC":24,"oA":1405.9},"PICK":{"nC":7,"nA":1405.0,"oC":24,"oA":1405.9},"RETURN":{"nC":7,"nA":1405.0,"oC":24,"oA":1405.9}}},{"id":"20275000","name":"(DLA) Krông Pắc","type":"BC","isVirtual":false,"region":"TNG","province":"Đắk Lắk","wardName":"Thị trấn Phước An","address":"","lat":12.7102068,"lng":108.3109466,"sets":[],"area":{"DELIVERY":{"nC":3,"nA":323.5,"oC":10,"oA":329.6},"PICK":{"nC":3,"nA":323.5,"oC":10,"oA":329.6},"RETURN":{"nC":3,"nA":323.5,"oC":10,"oA":329.6}}},{"id":"20276000","name":"Bưu Cục 305 QL14-Bù Đăng-Bình Phước","type":"BC","isVirtual":false,"region":"DNB","province":"Bình Phước","wardName":"Thị trấn Đức Phong","address":"","lat":11.8115023,"lng":107.2376812,"sets":[],"area":{"DELIVERY":{"nC":2,"nA":462.7,"oC":7,"oA":546.6},"PICK":{"nC":2,"nA":462.7,"oC":7,"oA":546.6},"RETURN":{"nC":2,"nA":462.7,"oC":7,"oA":546.6}}},{"id":"20278000","name":"Bưu Cục Trường Sơn-Hòa Vang-Đà Nẵng","type":"BC","isVirtual":false,"region":"TTB","province":"Đà Nẵng","wardName":"Xã Hòa Nhơn","address":"","lat":16.00726,"lng":108.14923,"sets":[],"area":{"DELIVERY":{"nC":3,"nA":308.5,"oC":9,"oA":351.7},"PICK":{"nC":3,"nA":308.5,"oC":9,"oA":351.7},"RETURN":{"nC":3,"nA":308.5,"oC":9,"oA":351.7}}},{"id":"20283000","name":"(BVT) Vũng Tàu 2","type":"BC","isVirtual":false,"region":"HCM","province":"Bà Rịa - Vũng Tàu","wardName":"Phường Thắng Nhì","address":"","lat":10.37013,"lng":107.07888,"sets":[],"area":{"DELIVERY":{"nC":0,"nA":0.0,"oC":5,"oA":11.5},"PICK":{"nC":0,"nA":0.0,"oC":5,"oA":11.5},"RETURN":{"nC":0,"nA":0.0,"oC":5,"oA":11.5}}},{"id":"20287000","name":"(THO) Hậu Lộc","type":"BC","isVirtual":false,"region":"BTB","province":"Thanh Hóa","wardName":"Thị trấn Hậu Lộc","address":"","lat":19.916787,"lng":105.88267,"sets":[],"area":{"DELIVERY":{"nC":5,"nA":139.7,"oC":27,"oA":140.0},"PICK":{"nC":5,"nA":139.7,"oC":27,"oA":140.0},"RETURN":{"nC":0,"nA":0.0,"oC":27,"oA":140.0}}},{"id":"20291000","name":"(THO) Trúc Lâm","type":"BC","isVirtual":false,"region":"BTB","province":"Thanh Hóa","wardName":"Xã Tùng Lâm","address":"","lat":19.370872,"lng":105.7316933,"sets":[],"area":{"DELIVERY":{"nC":4,"nA":231.7,"oC":12,"oA":228.2},"PICK":{"nC":4,"nA":231.7,"oC":12,"oA":228.2},"RETURN":{"nC":0,"nA":0.0,"oC":12,"oA":228.2}}},{"id":"20295000","name":"(DLA) Ea Wer","type":"BC","isVirtual":false,"region":"TNG","province":"Đắk Lắk","wardName":"Xã Hòa Xuân","address":"","lat":12.807245,"lng":107.898751,"sets":[],"area":{"DELIVERY":{"nC":3,"nA":1405.0,"oC":7,"oA":1408.6},"PICK":{"nC":3,"nA":1405.0,"oC":7,"oA":1408.6},"RETURN":{"nC":3,"nA":1405.0,"oC":7,"oA":1408.6}}},{"id":"20296000","name":"(PYE) Tuy Hòa 2","type":"BC","isVirtual":false,"region":"TNG","province":"Phú Yên","wardName":"Phường 7","address":"","lat":13.096285,"lng":109.312201,"sets":[],"area":{"DELIVERY":{"nC":1,"nA":73.9,"oC":9,"oA":79.8},"PICK":{"nC":1,"nA":73.9,"oC":9,"oA":79.8},"RETURN":{"nC":0,"nA":0.0,"oC":9,"oA":79.8}}},{"id":"20299000","name":"(DLA) Dray Bhăng","type":"BC","isVirtual":false,"region":"TNG","province":"Đắk Lắk","wardName":"Xã Dray Bhăng","address":"","lat":12.56339,"lng":108.168602,"sets":[],"area":{"DELIVERY":{"nC":3,"nA":290.4,"oC":8,"oA":285.9},"PICK":{"nC":3,"nA":290.4,"oC":8,"oA":285.9},"RETURN":{"nC":3,"nA":290.4,"oC":8,"oA":285.9}}},{"id":"20306000","name":"(HNA) Bình Mỹ","type":"BC","isVirtual":false,"region":"TNT","province":"Hà Nam","wardName":"Thị trấn Bình Mỹ","address":"","lat":20.484271,"lng":106.027276,"sets":[],"area":{"DELIVERY":{"nC":5,"nA":144.1,"oC":21,"oA":138.2},"PICK":{"nC":5,"nA":144.1,"oC":21,"oA":138.2},"RETURN":{"nC":5,"nA":144.1,"oC":21,"oA":138.2}}},{"id":"20310000","name":"(NDI) Hải Hậu","type":"BC","isVirtual":false,"region":"TNT","province":"Nam Định","wardName":"Thị trấn Yên Định","address":"","lat":20.188909,"lng":106.291478,"sets":[],"area":{"DELIVERY":{"nC":4,"nA":115.1,"oC":20,"oA":114.2},"PICK":{"nC":4,"nA":115.1,"oC":20,"oA":114.2},"RETURN":{"nC":3,"nA":88.1,"oC":20,"oA":114.2}}},{"id":"20312000","name":"Bưu Cục Đường Núi Đôi-Sóc Sơn-HN","type":"BC","isVirtual":false,"region":"HNO","province":"Hà Nội","wardName":"Thị trấn Sóc Sơn","address":"","lat":21.257079,"lng":105.857532,"sets":[],"area":{"DELIVERY":{"nC":0,"nA":0.0,"oC":10,"oA":0.0},"PICK":{"nC":0,"nA":0.0,"oC":10,"oA":0.0},"RETURN":{"nC":0,"nA":0.0,"oC":10,"oA":0.0}}},{"id":"20315000","name":"Bưu Cục 12 Nguyễn Thị Minh Khai-Bắc Sơn-Lạng Sơn","type":"BC","isVirtual":false,"region":"XBG","province":"Lạng Sơn","wardName":"Thị trấn Bắc Sơn","address":"","lat":21.900985,"lng":106.319072,"sets":[],"area":{"DELIVERY":{"nC":6,"nA":699.2,"oC":21,"oA":698.6},"PICK":{"nC":6,"nA":699.2,"oC":21,"oA":698.6},"RETURN":{"nC":6,"nA":699.2,"oC":21,"oA":698.6}}},{"id":"20316000","name":"(NTH) Ninh Sơn","type":"BC","isVirtual":false,"region":"NTB","province":"Ninh Thuận","wardName":"Thị trấn Tân Sơn","address":"","lat":11.7635539,"lng":108.7913525,"sets":[],"area":{"DELIVERY":{"nC":7,"nA":1762.2,"oC":16,"oA":1764.3},"PICK":{"nC":7,"nA":1762.2,"oC":16,"oA":1764.3},"RETURN":{"nC":0,"nA":0.0,"oC":16,"oA":1764.3}}},{"id":"20320000","name":"(KHO) Tây Nha Trang","type":"BC","isVirtual":false,"region":"NTB","province":"Khánh Hòa","wardName":"Xã Vĩnh Hiệp","address":"","lat":12.2552989,"lng":109.1662552,"sets":[],"area":{"DELIVERY":{"nC":0,"nA":0.0,"oC":4,"oA":14.2},"PICK":{"nC":0,"nA":0.0,"oC":4,"oA":14.2},"RETURN":{"nC":0,"nA":0.0,"oC":4,"oA":14.2}}},{"id":"20324000","name":"Bưu Cục 36 Lý Thái Tổ-Điện Bàn-Quảng Nam","type":"BC","isVirtual":false,"region":"TTB","province":"Quảng Nam","wardName":"Phường Điện An","address":"","lat":15.9040239,"lng":108.2414253,"sets":[],"area":{"DELIVERY":{"nC":5,"nA":154.9,"oC":15,"oA":154.0},"PICK":{"nC":5,"nA":154.9,"oC":15,"oA":154.0},"RETURN":{"nC":0,"nA":0.0,"oC":15,"oA":154.0}}},{"id":"20325000","name":"(VPH) Yên Lãng","type":"BC","isVirtual":false,"region":"TNT","province":"Vĩnh Phúc","wardName":"Xã Lãng Công","address":"","lat":21.46973,"lng":105.37879,"sets":[],"area":{"DELIVERY":{"nC":1,"nA":37.9,"oC":4,"oA":51.1},"PICK":{"nC":1,"nA":37.9,"oC":4,"oA":51.1},"RETURN":{"nC":0,"nA":0.0,"oC":4,"oA":51.1}}},{"id":"20327000","name":"(GLA) Đak Đoa","type":"BC","isVirtual":false,"region":"TNG","province":"Gia Lai","wardName":"Thị trấn Đăk Đoa","address":"","lat":13.995906,"lng":108.115577,"sets":[],"area":{"DELIVERY":{"nC":5,"nA":866.2,"oC":16,"oA":911.4},"PICK":{"nC":5,"nA":866.2,"oC":16,"oA":911.4},"RETURN":{"nC":5,"nA":866.2,"oC":16,"oA":911.4}}},{"id":"20328000","name":"(GLA) Chư Păh","type":"BC","isVirtual":false,"region":"TNG","province":"Gia Lai","wardName":"Thị trấn Phú Hòa","address":"","lat":14.102216,"lng":107.973014,"sets":[],"area":{"DELIVERY":{"nC":4,"nA":883.7,"oC":15,"oA":968.6},"PICK":{"nC":4,"nA":883.7,"oC":15,"oA":968.6},"RETURN":{"nC":4,"nA":883.7,"oC":15,"oA":968.6}}},{"id":"20329000","name":"(THO) Quảng Phú","type":"BC","isVirtual":false,"region":"BTB","province":"Thanh Hóa","wardName":"Phường Quảng Hưng","address":"","lat":19.7904246,"lng":105.7977821,"sets":[],"area":{"DELIVERY":{"nC":0,"nA":0.0,"oC":11,"oA":45.4},"PICK":{"nC":0,"nA":0.0,"oC":11,"oA":45.4},"RETURN":{"nC":0,"nA":0.0,"oC":11,"oA":45.4}}},{"id":"20334000","name":"Kho Trung Chuyển Gia Lai","type":"KTC","isVirtual":false,"region":"TNG","province":"Gia Lai","wardName":"Xã Ia Kênh","address":"","lat":13.93669728245066,"lng":107.9912463682606,"sets":["GIAO_B2B","GXT_LAY","GXT_TRA"],"area":{"DELIVERY":{"nC":0,"nA":0.0,"oC":0,"oA":0.0},"PICK":{"nC":0,"nA":0.0,"oC":0,"oA":0.0},"RETURN":{"nC":0,"nA":0.0,"oC":0,"oA":0.0}}},{"id":"20335000","name":"Kho Trung Chuyển Bình Định","type":"KTC","isVirtual":false,"region":"TNG","province":"Bình Định","wardName":"Xã Phước An","address":"","lat":13.712944,"lng":109.172556,"sets":["GIAO_B2B","GXT_LAY","GXT_TRA"],"area":{"DELIVERY":{"nC":0,"nA":0.0,"oC":0,"oA":0.0},"PICK":{"nC":0,"nA":0.0,"oC":0,"oA":0.0},"RETURN":{"nC":0,"nA":0.0,"oC":0,"oA":0.0}}},{"id":"20336000","name":"Kho Chuyển Tiếp Đức Trọng-Lâm Đồng","type":"KTC","isVirtual":false,"region":"NTB","province":"Lâm Đồng","wardName":"Xã Liên Hiệp","address":"","lat":11.73825,"lng":108.3633611,"sets":["GIAO_B2B","GXT_LAY","GXT_TRA"],"area":{"DELIVERY":{"nC":0,"nA":0.0,"oC":0,"oA":0.0},"PICK":{"nC":0,"nA":0.0,"oC":0,"oA":0.0},"RETURN":{"nC":0,"nA":0.0,"oC":0,"oA":0.0}}},{"id":"20339000","name":"Bưu Cục 106 Kỳ Đồng-Q.Thanh Khê-Đà Nẵng","type":"BC","isVirtual":false,"region":"TTB","province":"Đà Nẵng","wardName":"Phường Xuân Hà","address":"","lat":16.07025,"lng":108.18898,"sets":[],"area":{"DELIVERY":{"nC":0,"nA":0.0,"oC":5,"oA":1.6},"PICK":{"nC":0,"nA":0.0,"oC":5,"oA":1.6},"RETURN":{"nC":0,"nA":0.0,"oC":5,"oA":1.6}}},{"id":"20341000","name":"(GLA) Đức Cơ","type":"BC","isVirtual":false,"region":"TNG","province":"Gia Lai","wardName":"Thị trấn Chư Ty","address":"","lat":13.806076,"lng":107.701065,"sets":[],"area":{"DELIVERY":{"nC":6,"nA":720.9,"oC":10,"oA":717.7},"PICK":{"nC":6,"nA":720.9,"oC":10,"oA":717.7},"RETURN":{"nC":6,"nA":720.9,"oC":10,"oA":717.7}}},{"id":"20342000","name":"(GLA) Chư Sê","type":"BC","isVirtual":false,"region":"TNG","province":"Gia Lai","wardName":"Thị trấn Chư Sê","address":"","lat":13.689551,"lng":108.082649,"sets":[],"area":{"DELIVERY":{"nC":4,"nA":616.9,"oC":15,"oA":619.1},"PICK":{"nC":4,"nA":616.9,"oC":15,"oA":619.1},"RETURN":{"nC":3,"nA":406.2,"oC":15,"oA":619.1}}},{"id":"20349000","name":"(TGI) Đồng Sơn","type":"BC","isVirtual":false,"region":"DCL","province":"Tiền Giang","wardName":"Xã Bình Nhì","address":"","lat":10.357446,"lng":106.576769,"sets":[],"area":{"DELIVERY":{"nC":7,"nA":328.5,"oC":19,"oA":334.7},"PICK":{"nC":7,"nA":328.5,"oC":19,"oA":334.7},"RETURN":{"nC":0,"nA":0.0,"oC":19,"oA":334.7}}},{"id":"20353000","name":"(NBI) Yên Mô","type":"BC","isVirtual":false,"region":"TNT","province":"Ninh Bình","wardName":"Thị trấn Yên Thịnh","address":"","lat":20.162693,"lng":106.003394,"sets":[],"area":{"DELIVERY":{"nC":5,"nA":154.6,"oC":18,"oA":151.9},"PICK":{"nC":5,"nA":154.6,"oC":18,"oA":151.9},"RETURN":{"nC":4,"nA":122.5,"oC":18,"oA":151.9}}},{"id":"20355000","name":"(QNI) Hoành Bồ","type":"BC","isVirtual":false,"region":"XBG","province":"Quảng Ninh","wardName":"Thị trấn Trới","address":"","lat":21.032098,"lng":106.992132,"sets":[],"area":{"DELIVERY":{"nC":3,"nA":602.3,"oC":28,"oA":865.8},"PICK":{"nC":3,"nA":602.3,"oC":28,"oA":865.8},"RETURN":{"nC":0,"nA":0.0,"oC":28,"oA":865.8}}},{"id":"20357000","name":"Bưu Cục 882 Kim Giang-Thanh Trì-HN","type":"BC","isVirtual":false,"region":"HNO","province":"Hà Nội","wardName":"Xã Thanh Liệt","address":"","lat":20.9613024,"lng":105.813687,"sets":["ADHOCS_LAY","ADHOCS_LAY_SPE","ADHOCS_TRA","ADHOCS_TRA_SPE"],"area":{"DELIVERY":{"nC":0,"nA":0.0,"oC":0,"oA":0.0},"PICK":{"nC":0,"nA":0.0,"oC":1,"oA":0.0},"RETURN":{"nC":0,"nA":0.0,"oC":1,"oA":0.0}}},{"id":"20358000","name":"Bưu Cục 137 Đường 30/04-Trần Văn Thời-Cà Mau","type":"BC","isVirtual":false,"region":"TNB","province":"Cà Mau","wardName":"Thị trấn Trần Văn Thời","address":"","lat":9.0766818,"lng":104.9714343,"sets":[],"area":{"DELIVERY":{"nC":1,"nA":105.0,"oC":8,"oA":394.8},"PICK":{"nC":1,"nA":105.0,"oC":8,"oA":394.8},"RETURN":{"nC":2,"nA":238.0,"oC":8,"oA":394.8}}},{"id":"20364000","name":"Bưu Cục Số 1 Tân Khai-Q.Hoàng Mai-HN","type":"BC","isVirtual":false,"region":"HNO","province":"Hà Nội","wardName":"Phường Vĩnh Hưng","address":"","lat":20.9925395,"lng":105.8733538,"sets":[],"area":{"DELIVERY":{"nC":0,"nA":0.0,"oC":2,"oA":0.0},"PICK":{"nC":0,"nA":0.0,"oC":1,"oA":0.0},"RETURN":{"nC":1,"nA":2.2,"oC":1,"oA":0.0}}},{"id":"20365000","name":"(HAG) Quang Bình","type":"BC","isVirtual":false,"region":"DBB","province":"Hà Giang","wardName":"Thị trấn Yên Bình","address":"","lat":22.413448,"lng":104.579224,"sets":[],"area":{"DELIVERY":{"nC":6,"nA":591.2,"oC":14,"oA":692.7},"PICK":{"nC":6,"nA":591.2,"oC":14,"oA":692.7},"RETURN":{"nC":6,"nA":591.2,"oC":14,"oA":692.7}}},{"id":"20365001","name":"Điểm xử lý hàng Xín Mần 2-Hà Giang","type":"BC","isVirtual":true,"region":"DBB","province":"Hà Giang","wardName":"Thị trấn Yên Bình","address":"","lat":22.413628,"lng":104.579256,"sets":[],"area":{"DELIVERY":{"nC":2,"nA":219.9,"oC":4,"oA":300.2},"PICK":{"nC":2,"nA":219.9,"oC":4,"oA":300.2},"RETURN":{"nC":2,"nA":219.9,"oC":4,"oA":300.2}}},{"id":"20368000","name":"Kho Trung Chuyển Đắk Lắk","type":"KTC","isVirtual":false,"region":"TNG","province":"Đắk Lắk","wardName":"Xã Cư ÊBur","address":"","lat":12.731042,"lng":108.080511,"sets":["GIAO_B2B","GXT_LAY","GXT_TRA"],"area":{"DELIVERY":{"nC":0,"nA":0.0,"oC":0,"oA":0.0},"PICK":{"nC":0,"nA":0.0,"oC":0,"oA":0.0},"RETURN":{"nC":0,"nA":0.0,"oC":0,"oA":0.0}}},{"id":"20373000","name":"(HPH) Bạch Đằng","type":"BC","isVirtual":false,"region":"XBG","province":"Hải Phòng","wardName":"Xã Ngũ Lão","address":"","lat":20.941975,"lng":106.728829,"sets":[],"area":{"DELIVERY":{"nC":1,"nA":28.8,"oC":12,"oA":82.5},"PICK":{"nC":1,"nA":28.8,"oC":12,"oA":82.5},"RETURN":{"nC":1,"nA":28.8,"oC":12,"oA":82.5}}},{"id":"20374000","name":"Bưu Cục 219 Sơn Đồng-Hoài Đức-HN","type":"BC","isVirtual":false,"region":"HNO","province":"Hà Nội","wardName":"Xã Sơn Đồng","address":"","lat":21.0472,"lng":105.69787,"sets":[],"area":{"DELIVERY":{"nC":1,"nA":17.8,"oC":5,"oA":0.0},"PICK":{"nC":1,"nA":17.8,"oC":5,"oA":0.0},"RETURN":{"nC":1,"nA":17.8,"oC":5,"oA":0.0}}},{"id":"20377000","name":"(HPH) Thủy Nguyên","type":"BC","isVirtual":false,"region":"XBG","province":"Hải Phòng","wardName":"Xã Tân Dương","address":"","lat":20.893081,"lng":106.67326,"sets":[],"area":{"DELIVERY":{"nC":1,"nA":20.8,"oC":13,"oA":55.6},"PICK":{"nC":1,"nA":20.8,"oC":13,"oA":55.6},"RETURN":{"nC":1,"nA":20.8,"oC":13,"oA":55.6}}},{"id":"20381000","name":"(QNI) Uông Bí","type":"BC","isVirtual":false,"region":"XBG","province":"Quảng Ninh","wardName":"Phường Quang Trung","address":"","lat":21.035331,"lng":106.78093,"sets":[],"area":{"DELIVERY":{"nC":3,"nA":255.6,"oC":11,"oA":256.3},"PICK":{"nC":3,"nA":255.6,"oC":11,"oA":256.3},"RETURN":{"nC":0,"nA":0.0,"oC":11,"oA":256.3}}},{"id":"20384000","name":"Bưu Cục 8B Nguyễn Lân-Q.Thanh Xuân-HN","type":"BC","isVirtual":false,"region":"HNO","province":"Hà Nội","wardName":"Phường Phương Liệt","address":"","lat":20.9961017,"lng":105.8362074,"sets":["ADHOCS_LAY","ADHOCS_TRA"],"area":{"DELIVERY":{"nC":0,"nA":0.0,"oC":3,"oA":0.0},"PICK":{"nC":0,"nA":0.0,"oC":2,"oA":0.0},"RETURN":{"nC":0,"nA":0.0,"oC":2,"oA":0.0}}},{"id":"20385000","name":"(BDI) Quy Nhơn Bắc","type":"BC","isVirtual":false,"region":"TNG","province":"Bình Định","wardName":"Phường Nhơn Phú","address":"","lat":13.7954762,"lng":109.1779576,"sets":[],"area":{"DELIVERY":{"nC":1,"nA":82.8,"oC":4,"oA":80.6},"PICK":{"nC":1,"nA":82.8,"oC":4,"oA":80.6},"RETURN":{"nC":0,"nA":0.0,"oC":4,"oA":80.6}}},{"id":"20391000","name":"(NAN) Đô Lương","type":"BC","isVirtual":false,"region":"BTB","province":"Nghệ An","wardName":"Thị trấn Đô Lương","address":"","lat":18.897108,"lng":105.302903,"sets":[],"area":{"DELIVERY":{"nC":3,"nA":167.0,"oC":24,"oA":209.1},"PICK":{"nC":3,"nA":167.0,"oC":24,"oA":209.1},"RETURN":{"nC":4,"nA":222.4,"oC":24,"oA":209.1}}},{"id":"20396000","name":"(BGI) Nhã Nam","type":"BC","isVirtual":false,"region":"XBG","province":"Bắc Giang","wardName":"Thị trấn Nhã Nam","address":"","lat":21.441093,"lng":106.089223,"sets":[],"area":{"DELIVERY":{"nC":2,"nA":66.5,"oC":16,"oA":102.2},"PICK":{"nC":2,"nA":66.5,"oC":16,"oA":102.2},"RETURN":{"nC":2,"nA":66.5,"oC":16,"oA":102.2}}},{"id":"20398000","name":"(NBI) Yên Khánh","type":"BC","isVirtual":false,"region":"TNT","province":"Ninh Bình","wardName":"Thị trấn Yên Ninh","address":"","lat":20.171771,"lng":106.072393,"sets":[],"area":{"DELIVERY":{"nC":5,"nA":123.5,"oC":16,"oA":122.3},"PICK":{"nC":5,"nA":123.5,"oC":16,"oA":122.3},"RETURN":{"nC":5,"nA":123.5,"oC":16,"oA":122.3}}},{"id":"20400000","name":"(NBI) Hoa Lư 1","type":"BC","isVirtual":false,"region":"TNT","province":"Ninh Bình","wardName":"Phường Ninh Khánh","address":"","lat":20.286076,"lng":105.958887,"sets":[],"area":{"DELIVERY":{"nC":0,"nA":0.0,"oC":13,"oA":42.6},"PICK":{"nC":0,"nA":0.0,"oC":13,"oA":42.6},"RETURN":{"nC":0,"nA":0.0,"oC":13,"oA":42.6}}},{"id":"20404000","name":"Bưu Cục 139 Thụy Phương-Q.Bắc Từ Liêm-HN","type":"BC","isVirtual":false,"region":"HNO","province":"Hà Nội","wardName":"Phường Thụy Phương","address":"","lat":21.09094109,"lng":105.7775882,"sets":[],"area":{"DELIVERY":{"nC":0,"nA":0.0,"oC":3,"oA":6.6},"PICK":{"nC":0,"nA":0.0,"oC":3,"oA":6.6},"RETURN":{"nC":1,"nA":8.6,"oC":3,"oA":6.6}}},{"id":"20458000","name":"(DLA) Buôn Ma Thuột 2","type":"BC","isVirtual":false,"region":"TNG","province":"Đắk Lắk","wardName":"Phường Tân Tiến","address":"","lat":12.67423,"lng":108.029545,"sets":[],"area":{"DELIVERY":{"nC":0,"nA":0.0,"oC":4,"oA":50.9},"PICK":{"nC":0,"nA":0.0,"oC":4,"oA":50.9},"RETURN":{"nC":0,"nA":0.0,"oC":4,"oA":50.9}}},{"id":"20459000","name":"(HDU) Nam Sách","type":"BC","isVirtual":false,"region":"XBG","province":"Hải Dương","wardName":"Thị trấn Nam Sách","address":"","lat":21.002885,"lng":106.335296,"sets":[],"area":{"DELIVERY":{"nC":5,"nA":110.7,"oC":26,"oA":107.0},"PICK":{"nC":5,"nA":110.7,"oC":26,"oA":107.0},"RETURN":{"nC":5,"nA":110.7,"oC":26,"oA":107.0}}},{"id":"20468000","name":"Bưu Cục Bình Sơn-Long Thành-Đồng Nai","type":"BC","isVirtual":false,"region":"DNB","province":"Đồng Nai","wardName":"Xã Bình Sơn","address":"","lat":10.7917724,"lng":107.0207586,"sets":[],"area":{"DELIVERY":{"nC":0,"nA":0.0,"oC":0,"oA":0.0},"PICK":{"nC":0,"nA":0.0,"oC":0,"oA":0.0},"RETURN":{"nC":1,"nA":58.7,"oC":0,"oA":0.0}}},{"id":"20470000","name":"(GLA) Hội Phú","type":"BC","isVirtual":false,"region":"TNG","province":"Gia Lai","wardName":"Phường Chi Lăng","address":"","lat":13.9433557,"lng":108.0109317,"sets":[],"area":{"DELIVERY":{"nC":1,"nA":33.5,"oC":8,"oA":89.5},"PICK":{"nC":1,"nA":33.5,"oC":8,"oA":89.5},"RETURN":{"nC":1,"nA":33.5,"oC":8,"oA":89.5}}},{"id":"20471000","name":"(BGI) Yên Thế","type":"BC","isVirtual":false,"region":"XBG","province":"Bắc Giang","wardName":"Thị trấn Phồn Xương","address":"","lat":21.481123,"lng":106.123091,"sets":[],"area":{"DELIVERY":{"nC":2,"nA":158.5,"oC":12,"oA":212.4},"PICK":{"nC":2,"nA":158.5,"oC":12,"oA":212.4},"RETURN":{"nC":2,"nA":158.5,"oC":12,"oA":212.4}}},{"id":"20472000","name":"Bưu Cục Tổ 4 KP7 767- Vĩnh Cửu-Đồng Nai","type":"BC","isVirtual":false,"region":"DNB","province":"Đồng Nai","wardName":"Thị trấn Vĩnh An","address":"","lat":11.0615692,"lng":107.0252301,"sets":[],"area":{"DELIVERY":{"nC":2,"nA":938.3,"oC":6,"oA":966.6},"PICK":{"nC":2,"nA":938.3,"oC":6,"oA":966.6},"RETURN":{"nC":2,"nA":938.3,"oC":6,"oA":966.6}}},{"id":"20473000","name":"Bưu Cục 68 Quốc Lộ 1A-Trảng Bom-Đồng Nai","type":"BC","isVirtual":false,"region":"DNB","province":"Đồng Nai","wardName":"Xã Bình Minh","address":"","lat":10.9553138,"lng":106.9673351,"sets":[],"area":{"DELIVERY":{"nC":0,"nA":0.0,"oC":4,"oA":52.7},"PICK":{"nC":0,"nA":0.0,"oC":4,"oA":52.7},"RETURN":{"nC":0,"nA":0.0,"oC":4,"oA":52.7}}},{"id":"20478000","name":"(VLO) Trà Ôn","type":"BC","isVirtual":false,"region":"DCL","province":"Vĩnh Long","wardName":"Thị trấn Trà Ôn","address":"","lat":9.964779,"lng":105.925512,"sets":[],"area":{"DELIVERY":{"nC":3,"nA":153.3,"oC":8,"oA":152.2},"PICK":{"nC":3,"nA":153.3,"oC":8,"oA":152.2},"RETURN":{"nC":0,"nA":0.0,"oC":8,"oA":152.2}}},{"id":"20479000","name":"(BVT) Phước Thắng","type":"BC","isVirtual":false,"region":"HCM","province":"Bà Rịa - Vũng Tàu","wardName":"Phường 12","address":"","lat":10.419124,"lng":107.149475,"sets":[],"area":{"DELIVERY":{"nC":2,"nA":99.0,"oC":4,"oA":102.0},"PICK":{"nC":2,"nA":99.0,"oC":4,"oA":102.0},"RETURN":{"nC":2,"nA":99.0,"oC":4,"oA":102.0}}},{"id":"20487000","name":"(BNI) Đào Viên","type":"BC","isVirtual":false,"region":"XBG","province":"Bắc Ninh","wardName":"Xã Đào Viên","address":"","lat":21.130831,"lng":106.2037,"sets":[],"area":{"DELIVERY":{"nC":2,"nA":55.4,"oC":12,"oA":98.4},"PICK":{"nC":2,"nA":55.4,"oC":12,"oA":98.4},"RETURN":{"nC":2,"nA":55.4,"oC":12,"oA":98.4}}},{"id":"20488000","name":"(BDU) Bắc Tân Uyên","type":"BC","isVirtual":false,"region":"HCM","province":"Bình Dương","wardName":"Xã Thường Tân","address":"","lat":11.155679,"lng":106.843927,"sets":[],"area":{"DELIVERY":{"nC":2,"nA":265.7,"oC":8,"oA":313.4},"PICK":{"nC":2,"nA":265.7,"oC":8,"oA":313.4},"RETURN":{"nC":2,"nA":265.7,"oC":8,"oA":313.4}}},{"id":"20492000","name":"Bưu Cục 107 Nguyễn Chí Thanh-Tân Biên-Tây Ninh","type":"BC","isVirtual":false,"region":"DNB","province":"Tây Ninh","wardName":"Thị trấn Tân Biên","address":"","lat":11.5437577,"lng":106.0127918,"sets":[],"area":{"DELIVERY":{"nC":2,"nA":263.1,"oC":6,"oA":365.5},"PICK":{"nC":2,"nA":263.1,"oC":6,"oA":365.5},"RETURN":{"nC":0,"nA":0.0,"oC":6,"oA":365.5}}},{"id":"20494000","name":"Bưu Cục KP1 Quốc Lộ 13-Hớn Quản-Bình Phước","type":"BC","isVirtual":false,"region":"DNB","province":"Bình Phước","wardName":"Xã Tân Khai","address":"","lat":11.568175,"lng":106.616933,"sets":[],"area":{"DELIVERY":{"nC":2,"nA":366.1,"oC":9,"oA":486.5},"PICK":{"nC":2,"nA":366.1,"oC":9,"oA":486.5},"RETURN":{"nC":2,"nA":366.1,"oC":9,"oA":486.5}}},{"id":"20495000","name":"(KHO) Nha Trang","type":"BC","isVirtual":false,"region":"NTB","province":"Khánh Hòa","wardName":"Phường Vạn Thạnh","address":"","lat":12.250078,"lng":109.189427,"sets":[],"area":{"DELIVERY":{"nC":0,"nA":0.0,"oC":4,"oA":2.3},"PICK":{"nC":0,"nA":0.0,"oC":4,"oA":2.3},"RETURN":{"nC":0,"nA":0.0,"oC":4,"oA":2.3}}},{"id":"20497000","name":"Bưu Cục 24 Khu Phố Thanh Bình-Bù Đốp-Bình Phước","type":"BC","isVirtual":false,"region":"DNB","province":"Bình Phước","wardName":"Thị trấn Thanh Bình","address":"","lat":11.9660944,"lng":106.798149,"sets":[],"area":{"DELIVERY":{"nC":2,"nA":297.1,"oC":7,"oA":376.1},"PICK":{"nC":2,"nA":297.1,"oC":7,"oA":376.1},"RETURN":{"nC":2,"nA":297.1,"oC":7,"oA":376.1}}},{"id":"20499000","name":"(NTH) Phước Dinh","type":"BC","isVirtual":false,"region":"NTB","province":"Ninh Thuận","wardName":"Xã An Hải","address":"","lat":11.547637,"lng":108.963719,"sets":[],"area":{"DELIVERY":{"nC":3,"nA":316.9,"oC":10,"oA":472.1},"PICK":{"nC":3,"nA":316.9,"oC":10,"oA":472.1},"RETURN":{"nC":0,"nA":0.0,"oC":10,"oA":472.1}}},{"id":"20501000","name":"(HDU) Thành Đông","type":"BC","isVirtual":false,"region":"XBG","province":"Hải Dương","wardName":"Phường Bình Hàn","address":"","lat":20.951105,"lng":106.32933,"sets":[],"area":{"DELIVERY":{"nC":2,"nA":20.1,"oC":12,"oA":34.4},"PICK":{"nC":2,"nA":20.1,"oC":12,"oA":34.4},"RETURN":{"nC":2,"nA":20.1,"oC":12,"oA":34.4}}},{"id":"20507000","name":"(THN) Đồng Hỷ","type":"BC","isVirtual":false,"region":"DBB","province":"Thái Nguyên","wardName":"Xã Hóa Thượng","address":"","lat":21.636695,"lng":105.845766,"sets":[],"area":{"DELIVERY":{"nC":1,"nA":75.8,"oC":12,"oA":172.2},"PICK":{"nC":1,"nA":75.8,"oC":12,"oA":172.2},"RETURN":{"nC":0,"nA":0.0,"oC":12,"oA":172.2}}},{"id":"20508000","name":"(HNA) Vĩnh Trụ","type":"BC","isVirtual":false,"region":"TNT","province":"Hà Nam","wardName":"Thị trấn Vĩnh Trụ","address":"","lat":20.553684,"lng":106.039105,"sets":[],"area":{"DELIVERY":{"nC":7,"nA":167.4,"oC":24,"oA":165.8},"PICK":{"nC":7,"nA":167.4,"oC":24,"oA":165.8},"RETURN":{"nC":7,"nA":167.4,"oC":24,"oA":165.8}}},{"id":"20511000","name":"(BDU) Tân Hiệp 2","type":"BC","isVirtual":false,"region":"HCM","province":"Bình Dương","wardName":"Phường Tân Hiệp","address":"","lat":11.064461,"lng":106.746061,"sets":[],"area":{"DELIVERY":{"nC":0,"nA":0.0,"oC":2,"oA":34.4},"PICK":{"nC":0,"nA":0.0,"oC":2,"oA":34.4},"RETURN":{"nC":0,"nA":0.0,"oC":2,"oA":34.4}}},{"id":"20512000","name":"(BDU) Bến Cát","type":"BC","isVirtual":false,"region":"HCM","province":"Bình Dương","wardName":"Phường Mỹ Phước","address":"","lat":11.147391,"lng":106.611843,"sets":[],"area":{"DELIVERY":{"nC":0,"nA":0.0,"oC":1,"oA":21.0},"PICK":{"nC":0,"nA":0.0,"oC":1,"oA":21.0},"RETURN":{"nC":0,"nA":0.0,"oC":1,"oA":21.0}}},{"id":"20513000","name":"(HNO) CK Nghĩa Đô 2","type":"BC","isVirtual":false,"region":"HNO","province":"Hà Nội","wardName":"Phường Quan Hoa","address":"","lat":21.034442,"lng":105.804201,"sets":[],"area":{"DELIVERY":{"nC":0,"nA":0.0,"oC":0,"oA":0.0},"PICK":{"nC":0,"nA":0.0,"oC":0,"oA":0.0},"RETURN":{"nC":0,"nA":0.0,"oC":0,"oA":0.0}}},{"id":"20514000","name":"(BNI) Thuận Thành","type":"BC","isVirtual":false,"region":"XBG","province":"Bắc Ninh","wardName":"Xã Gia Đông","address":"","lat":21.034801,"lng":106.06588,"sets":[],"area":{"DELIVERY":{"nC":6,"nA":117.7,"oC":18,"oA":116.7},"PICK":{"nC":6,"nA":117.7,"oC":18,"oA":116.7},"RETURN":{"nC":6,"nA":117.7,"oC":18,"oA":116.7}}},{"id":"20519000","name":"Bưu Cục 10 Đường số 8-Linh Xuân-Q.Thủ Đức-HCM","type":"BC","isVirtual":false,"region":"HCM","province":"Hồ Chí Minh","wardName":"Phường Linh Xuân","address":"","lat":10.881968,"lng":106.770494,"sets":[],"area":{"DELIVERY":{"nC":0,"nA":0.0,"oC":4,"oA":10.3},"PICK":{"nC":0,"nA":0.0,"oC":4,"oA":10.3},"RETURN":{"nC":0,"nA":0.0,"oC":4,"oA":10.3}}},{"id":"20520000","name":"Bưu Cục Thị Trấn Cây Dương-Phụng Hiệp-Hậu Giang","type":"BC","isVirtual":false,"region":"TNB","province":"Hậu Giang","wardName":"Thị trấn Cây Dương","address":"","lat":9.7815522,"lng":105.7386734,"sets":[],"area":{"DELIVERY":{"nC":4,"nA":284.8,"oC":10,"oA":322.2},"PICK":{"nC":4,"nA":284.8,"oC":10,"oA":322.2},"RETURN":{"nC":4,"nA":284.8,"oC":10,"oA":322.2}}},{"id":"20522000","name":"Bưu Cục 130 Trần Văn Lan-Q.Hải An-Hải Phòng","type":"BC","isVirtual":false,"region":"XBG","province":"Hải Phòng","wardName":"Phường Cát Bi","address":"","lat":20.8274087,"lng":106.7079487,"sets":[],"area":{"DELIVERY":{"nC":0,"nA":0.0,"oC":0,"oA":0.0},"PICK":{"nC":0,"nA":0.0,"oC":0,"oA":0.0},"RETURN":{"nC":0,"nA":0.0,"oC":0,"oA":0.0}}},{"id":"20523000","name":"(HNA) Phủ Lý 1","type":"BC","isVirtual":false,"region":"TNT","province":"Hà Nam","wardName":"Phường Châu Cầu","address":"","lat":20.535231,"lng":105.91641,"sets":[],"area":{"DELIVERY":{"nC":0,"nA":0.0,"oC":0,"oA":0.0},"PICK":{"nC":0,"nA":0.0,"oC":0,"oA":0.0},"RETURN":{"nC":0,"nA":0.0,"oC":0,"oA":0.0}}},{"id":"20527000","name":"(NAN) Tương Dương","type":"BC","isVirtual":false,"region":"BTB","province":"Nghệ An","wardName":"Thị trấn Hòa Bình","address":"","lat":19.264078,"lng":104.466515,"sets":[],"area":{"DELIVERY":{"nC":10,"nA":3139.4,"oC":21,"oA":3133.2},"PICK":{"nC":10,"nA":3139.4,"oC":21,"oA":3133.2},"RETURN":{"nC":10,"nA":3139.4,"oC":21,"oA":3133.2}}},{"id":"20527002","name":"Điểm xử lý hàng Thị Trấn Mường Xén-Kỳ Sơn-Nghệ An","type":"BC","isVirtual":true,"region":"BTB","province":"Nghệ An","wardName":"Thị trấn Mường Xén","address":"","lat":19.263988,"lng":104.466434,"sets":[],"area":{"DELIVERY":{"nC":11,"nA":1765.4,"oC":19,"oA":1763.3},"PICK":{"nC":11,"nA":1765.4,"oC":19,"oA":1763.3},"RETURN":{"nC":11,"nA":1765.4,"oC":19,"oA":1763.3}}},{"id":"20528000","name":"Bưu Cục Lô B2 TTTM Vĩnh Thạnh-Vĩnh Thạnh-Cần Thơ","type":"BC","isVirtual":false,"region":"TNB","province":"Cần Thơ","wardName":"Thị trấn Vĩnh Thạnh","address":"","lat":10.22977,"lng":105.396484,"sets":[],"area":{"DELIVERY":{"nC":4,"nA":308.1,"oC":11,"oA":303.8},"PICK":{"nC":4,"nA":308.1,"oC":11,"oA":303.8},"RETURN":{"nC":4,"nA":308.1,"oC":11,"oA":303.8}}},{"id":"20529000","name":"Bưu Cục 108 Khu Phố 2-Đức Huệ-Long An","type":"BC","isVirtual":false,"region":"DNB","province":"Long An","wardName":"Thị trấn Đông Thành","address":"","lat":10.8923729,"lng":106.3043427,"sets":[],"area":{"DELIVERY":{"nC":3,"nA":395.0,"oC":13,"oA":457.5},"PICK":{"nC":3,"nA":395.0,"oC":13,"oA":457.5},"RETURN":{"nC":3,"nA":395.0,"oC":13,"oA":457.5}}},{"id":"20530000","name":"Bưu Cục 224 Lê Trọng Tấn-Q.Hà Đông-HN","type":"BC","isVirtual":false,"region":"HNO","province":"Hà Nội","wardName":"Phường La Khê","address":"","lat":20.9672133,"lng":105.7566865,"sets":["ADHOCS_LAY","ADHOCS_TRA"],"area":{"DELIVERY":{"nC":0,"nA":0.0,"oC":1,"oA":0.0},"PICK":{"nC":0,"nA":0.0,"oC":0,"oA":0.0},"RETURN":{"nC":0,"nA":0.0,"oC":0,"oA":0.0}}},{"id":"20536000","name":"(BDU) Bình Hòa","type":"BC","isVirtual":false,"region":"HCM","province":"Bình Dương","wardName":"Xã Lai Hưng","address":"","lat":10.907825,"lng":106.738217,"sets":[],"area":{"DELIVERY":{"nC":0,"nA":0.0,"oC":1,"oA":14.0},"PICK":{"nC":0,"nA":0.0,"oC":1,"oA":14.0},"RETURN":{"nC":1,"nA":18.5,"oC":1,"oA":14.0}}},{"id":"20543000","name":"(KHO) Ninh Hòa 2","type":"BC","isVirtual":false,"region":"NTB","province":"Khánh Hòa","wardName":"Phường Ninh Hiệp","address":"","lat":12.481844,"lng":109.128245,"sets":[],"area":{"DELIVERY":{"nC":2,"nA":280.7,"oC":13,"oA":353.5},"PICK":{"nC":2,"nA":280.7,"oC":13,"oA":353.5},"RETURN":{"nC":2,"nA":280.7,"oC":13,"oA":353.5}}},{"id":"20551000","name":"(GLA) Phú Thiện","type":"BC","isVirtual":false,"region":"TNG","province":"Gia Lai","wardName":"Thị trấn Phú Thiện","address":"","lat":13.527979,"lng":108.323563,"sets":[],"area":{"DELIVERY":{"nC":6,"nA":1370.2,"oC":19,"oA":1369.7},"PICK":{"nC":6,"nA":1370.2,"oC":19,"oA":1369.7},"RETURN":{"nC":6,"nA":1370.2,"oC":19,"oA":1369.7}}},{"id":"20553000","name":"(NAN) Quỳ Hợp","type":"BC","isVirtual":false,"region":"BTB","province":"Nghệ An","wardName":"Thị trấn Quỳ Hợp","address":"","lat":19.321535,"lng":105.185944,"sets":[],"area":{"DELIVERY":{"nC":7,"nA":940.5,"oC":21,"oA":938.7},"PICK":{"nC":7,"nA":940.5,"oC":21,"oA":938.7},"RETURN":{"nC":7,"nA":940.5,"oC":21,"oA":938.7}}},{"id":"20554000","name":"(PTH) Cẩm Khê","type":"BC","isVirtual":false,"region":"TNT","province":"Phú Thọ","wardName":"Thị Trấn Cẩm Khê","address":"","lat":21.4259914,"lng":105.1335446,"sets":[],"area":{"DELIVERY":{"nC":6,"nA":235.1,"oC":37,"oA":232.0},"PICK":{"nC":6,"nA":235.1,"oC":37,"oA":232.0},"RETURN":{"nC":0,"nA":0.0,"oC":37,"oA":232.0}}},{"id":"20555000","name":"Bưu Cục 58 Trương Quốc Dung-Q.Phú Nhuận-HCM","type":"BC","isVirtual":false,"region":"HCM","province":"Hồ Chí Minh","wardName":"Phường 10","address":"","lat":10.7965103,"lng":106.6724583,"sets":[],"area":{"DELIVERY":{"nC":1,"nA":1.6,"oC":8,"oA":0.9},"PICK":{"nC":1,"nA":1.6,"oC":8,"oA":0.9},"RETURN":{"nC":1,"nA":1.6,"oC":8,"oA":0.9}}},{"id":"20558000","name":"(KHO) Khánh Vĩnh","type":"BC","isVirtual":false,"region":"NTB","province":"Khánh Hòa","wardName":"Thị trấn Khánh Vĩnh","address":"","lat":12.278108,"lng":108.910131,"sets":[],"area":{"DELIVERY":{"nC":5,"nA":1168.4,"oC":14,"oA":1166.7},"PICK":{"nC":5,"nA":1168.4,"oC":14,"oA":1166.7},"RETURN":{"nC":5,"nA":1168.4,"oC":14,"oA":1166.7}}},{"id":"20560000","name":"(NAN) Bạch Hà","type":"BC","isVirtual":false,"region":"BTB","province":"Nghệ An","wardName":"Xã Mỹ Sơn","address":"","lat":18.817284,"lng":105.399059,"sets":["TANKY_NA","TANKY_NA_R"],"area":{"DELIVERY":{"nC":1,"nA":79.5,"oC":10,"oA":140.3},"PICK":{"nC":1,"nA":79.5,"oC":10,"oA":140.3},"RETURN":{"nC":1,"nA":79.5,"oC":10,"oA":140.3}}},{"id":"20562000","name":"Bưu Cục 28 Xuân Hồng-Bình Thuỷ-Cần Thơ","type":"BC","isVirtual":false,"region":"TNB","province":"Cần Thơ","wardName":"Phường Long Tuyền","address":"","lat":10.0173251,"lng":105.7373679,"sets":[],"area":{"DELIVERY":{"nC":0,"nA":0.0,"oC":2,"oA":21.4},"PICK":{"nC":0,"nA":0.0,"oC":2,"oA":21.4},"RETURN":{"nC":0,"nA":0.0,"oC":2,"oA":21.4}}},{"id":"20565000","name":"Bưu Cục 63A Trần Đình Xu-Q.1-HCM","type":"BC","isVirtual":false,"region":"HCM","province":"Hồ Chí Minh","wardName":"Phường Cầu Kho","address":"","lat":10.76120374596973,"lng":106.6905808125565,"sets":[],"area":{"DELIVERY":{"nC":0,"nA":0.0,"oC":3,"oA":1.8},"PICK":{"nC":0,"nA":0.0,"oC":3,"oA":1.8},"RETURN":{"nC":0,"nA":0.0,"oC":3,"oA":1.8}}},{"id":"20566000","name":"(DLA) Ea Kar","type":"BC","isVirtual":false,"region":"TNG","province":"Đắk Lắk","wardName":"Thị trấn Ea Kar","address":"","lat":12.808412,"lng":108.451196,"sets":[],"area":{"DELIVERY":{"nC":2,"nA":336.0,"oC":8,"oA":336.0},"PICK":{"nC":2,"nA":336.0,"oC":8,"oA":336.0},"RETURN":{"nC":1,"nA":137.5,"oC":8,"oA":336.0}}},{"id":"20567000","name":"(BNI) Từ Sơn","type":"BC","isVirtual":false,"region":"XBG","province":"Bắc Ninh","wardName":"Phường Tân Hồng","address":"","lat":21.117445,"lng":105.971049,"sets":[],"area":{"DELIVERY":{"nC":0,"nA":0.0,"oC":5,"oA":22.0},"PICK":{"nC":0,"nA":0.0,"oC":5,"oA":22.0},"RETURN":{"nC":0,"nA":0.0,"oC":5,"oA":22.0}}},{"id":"20571000","name":"(GLA) Chư Pưh","type":"BC","isVirtual":false,"region":"TNG","province":"Gia Lai","wardName":"Thị trấn Nhơn Hoà","address":"","lat":13.540641,"lng":108.102699,"sets":[],"area":{"DELIVERY":{"nC":3,"nA":743.9,"oC":9,"oA":740.0},"PICK":{"nC":3,"nA":743.9,"oC":9,"oA":740.0},"RETURN":{"nC":2,"nA":502.7,"oC":9,"oA":740.0}}},{"id":"20572000","name":"(GLA) An Khê","type":"BC","isVirtual":false,"region":"TNG","province":"Gia Lai","wardName":"Phường An Phú","address":"","lat":13.950136,"lng":108.655641,"sets":[],"area":{"DELIVERY":{"nC":11,"nA":2142.0,"oC":33,"oA":2137.6},"PICK":{"nC":11,"nA":2142.0,"oC":33,"oA":2137.6},"RETURN":{"nC":10,"nA":2008.9,"oC":33,"oA":2137.6}}},{"id":"20573000","name":"Điểm xử lý hàng Thôn Xuân Phong Nam-An Lão-Bình Định","type":"BC","isVirtual":false,"region":"TNG","province":"Bình Định","wardName":"Xã An Hòa","address":"","lat":14.55455,"lng":108.9004447,"sets":[],"area":{"DELIVERY":{"nC":4,"nA":695.8,"oC":10,"oA":698.2},"PICK":{"nC":4,"nA":695.8,"oC":10,"oA":698.2},"RETURN":{"nC":4,"nA":695.8,"oC":10,"oA":698.2}}},{"id":"20575000","name":"Bưu Cục Ấp 1 Đường Tân Châu-Tân Châu-Tây Ninh","type":"BC","isVirtual":false,"region":"DNB","province":"Tây Ninh","wardName":"Xã Suối Dây","address":"","lat":11.55291,"lng":106.25804,"sets":[],"area":{"DELIVERY":{"nC":2,"nA":670.8,"oC":4,"oA":672.1},"PICK":{"nC":2,"nA":670.8,"oC":4,"oA":672.1},"RETURN":{"nC":0,"nA":0.0,"oC":4,"oA":672.1}}},