[{"id":"1070","name":"(BVT) Rạch Dừa","type":"BC","region":"HCM","province":"Bà Rịa - Vũng Tàu","wardName":"Phường Thắng Nhất","lat":10.3745864,"lng":107.1008391,"sets":[],"customers":[],"area":{"DELIVERY":{"nC":0,"nA":0.0,"oC":4,"oA":15.1},"PICK":{"nC":0,"nA":0.0,"oC":4,"oA":15.1},"RETURN":{"nC":0,"nA":0.0,"oC":4,"oA":15.1}},"loai":"Bưu cục","address":"473A Bình Giã, Phường Thắng Nhất, Thành Phố Vùng Tàu"},{"id":"1083","name":"(DTH) Cao Lãnh","type":"BC","region":"DCL","province":"Đồng Tháp","wardName":"Phường 3","lat":10.4568613,"lng":105.644726,"sets":[],"customers":[],"area":{"DELIVERY":{"nC":2,"nA":119.3,"oC":14,"oA":119.6},"PICK":{"nC":2,"nA":119.3,"oC":14,"oA":119.6},"RETURN":{"nC":2,"nA":151.6,"oC":14,"oA":119.6}},"loai":"Bưu cục","address":"12,14 Bà Triệu Khóm Mỹ Hưng Phường 3 ,Thành phố Cao Lãnh"},{"id":"1084","name":"Bưu Cục 16 Đỗ Nhuận-Long Xuyên-An Giang","type":"BC","region":"TNB","province":"An Giang","wardName":"Phường Mỹ Quý","lat":10.3649124,"lng":105.44694,"sets":[],"customers":[],"area":{"DELIVERY":{"nC":1,"nA":37.6,"oC":8,"oA":88.4},"PICK":{"nC":1,"nA":37.6,"oC":8,"oA":88.4},"RETURN":{"nC":1,"nA":37.6,"oC":8,"oA":88.4}},"loai":"Bưu cục","address":"16 Đỗ Nhuận, phường Mỹ Quí, Thành phố.Long Xuyên"},{"id":"1119","name":"(QNI) Móng Cái 1","type":"BC","region":"XBG","province":"Quảng Ninh","wardName":"Phường Trần Phú","lat":21.533315,"lng":107.9690054,"sets":[],"customers":[],"area":{"DELIVERY":{"nC":6,"nA":401.1,"oC":17,"oA":439.6},"PICK":{"nC":6,"nA":401.1,"oC":17,"oA":439.6},"RETURN":{"nC":0,"nA":0.0,"oC":17,"oA":439.6}},"loai":"Bưu cục","address":"Phường Trần Phú-Thành Phố Móng Cái-Tỉnh Quảng Ninh"},{"id":"1121","name":"Kho Trung Chuyển Hà Nội 02","type":"KTC","region":"HNO","province":"Hà Nội","wardName":"Phường Phúc Đồng","lat":21.03305892309558,"lng":105.9217335812912,"sets":["BGTK","BGTKSENDO","GIAO_B2B","GXT_LAY","GXT_TRA","LHTK"],"customers":["Sendo"],"area":{"DELIVERY":{"nC":0,"nA":0.0,"oC":0,"oA":0.0},"PICK":{"nC":0,"nA":0.0,"oC":0,"oA":0.0},"RETURN":{"nC":0,"nA":0.0,"oC":0,"oA":0.0}},"loai":"Kho trung chuyển","address":"Hà Nội Đài Tư (386 Nguyễn Văn Linh, Quận Long Biên, Hà Nội)"},{"id":"1122","name":"(HPH) An Biên 3","type":"BC","region":"XBG","province":"Hải Phòng","wardName":"Phường Vĩnh Niệm","lat":20.8294562,"lng":106.6714786,"sets":[],"customers":[],"area":{"DELIVERY":{"nC":0,"nA":0.0,"oC":4,"oA":6.2},"PICK":{"nC":0,"nA":0.0,"oC":4,"oA":6.2},"RETURN":{"nC":0,"nA":0.0,"oC":4,"oA":6.2}},"loai":"Bưu cục","address":"Tổ 8 cụm Công nghiệp Vĩnh Niệm, phường Vĩnh Niệm, quận Lê Chân, TP Hải Phòng"},{"id":"1124","name":"(HTI) Trần Phú","type":"BC","region":"BTB","province":"Hà Tĩnh","wardName":"Xã Thạch Trung","lat":18.3539197,"lng":105.880253,"sets":[],"customers":[],"area":{"DELIVERY":{"nC":1,"nA":29.7,"oC":11,"oA":44.8},"PICK":{"nC":1,"nA":29.7,"oC":11,"oA":44.8},"RETURN":{"nC":0,"nA":0.0,"oC":11,"oA":44.8}},"loai":"Bưu cục","address":"Số 67 , Tân Trung , Xã Thạch Trung , Thành phố Hà Tĩnh , Tỉnh Hà Tĩnh"},{"id":"1141","name":"Kho Trung Chuyển Đà Nẵng","type":"KTC","region":"TTB","province":"Đà Nẵng","wardName":"Phường Hòa Hiệp Bắc","lat":16.1310833,"lng":108.1189167,"sets":["GIAO_B2B","GXT_LAY","GXT_TRA"],"customers":[],"area":{"DELIVERY":{"nC":0,"nA":0.0,"oC":0,"oA":0.0},"PICK":{"nC":0,"nA":0.0,"oC":0,"oA":0.0},"RETURN":{"nC":0,"nA":0.0,"oC":0,"oA":0.0}},"loai":"Kho trung chuyển","address":"Số 73 đường Nguyễn Văn Cừ, P. Hoà Hiệp Bắc, Q. Liên Chiểu, Tp. Đà Nẵng"},{"id":"1166","name":"(BKA) Đức Xuân","type":"BC","region":"DBB","province":"Bắc Kạn","wardName":"Phường Đức Xuân","lat":22.14221,"lng":105.835268,"sets":[],"customers":[],"area":{"DELIVERY":{"nC":6,"nA":600.6,"oC":27,"oA":681.4},"PICK":{"nC":6,"nA":600.6,"oC":27,"oA":681.4},"RETURN":{"nC":6,"nA":600.6,"oC":27,"oA":681.4}},"loai":"Bưu cục","address":"Tổ 11A, P. Đức Xuân, TP. Bắc Kan, tỉnh Bắc Kan"},{"id":"1170","name":"Bưu Cục Nguyễn An Ninh-Vị Thanh-Hậu Giang","type":"BC","region":"TNB","province":"Hậu Giang","wardName":"Phường IV","lat":9.791423,"lng":105.467678,"sets":[],"customers":[],"area":{"DELIVERY":{"nC":3,"nA":118.5,"oC":9,"oA":119.0},"PICK":{"nC":3,"nA":118.5,"oC":9,"oA":119.0},"RETURN":{"nC":3,"nA":118.5,"oC":9,"oA":119.0}},"loai":"Bưu cục","address":"Đường Nguyễn An Ninh,KV3,P4,Thành phố Vị Thanh,Tỉnh Hậu Giang"},{"id":"1182","name":"Bưu Cục 45/2b Quốc Lộ 62-Tân An-Long An 01","type":"BC","region":"DNB","province":"Long An","wardName":"Phường 2","lat":10.541498,"lng":106.4062002,"sets":[],"customers":[],"area":{"DELIVERY":{"nC":2,"nA":48.6,"oC":14,"oA":81.6},"PICK":{"nC":2,"nA":48.6,"oC":14,"oA":81.6},"RETURN":{"nC":3,"nA":83.6,"oC":14,"oA":81.6}},"loai":"Bưu cục","address":"452b Quốc Lộ 62 phường 2 Tân An Long An"},{"id":"1199","name":"(TGI) Đạo Thạnh","type":"BC","region":"DCL","province":"Tiền Giang","wardName":"Phường 5","lat":10.3635225,"lng":106.3426538,"sets":[],"customers":[],"area":{"DELIVERY":{"nC":3,"nA":52.7,"oC":8,"oA":52.9},"PICK":{"nC":3,"nA":52.7,"oC":8,"oA":52.9},"RETURN":{"nC":0,"nA":0.0,"oC":8,"oA":52.9}},"loai":"Bưu cục","address":"206 A Đoàn Thị Nghiệp Phường 5 TP Mỹ Tho Tỉnh Tiền Giang"},{"id":"1215","name":"(HYE) Phố Hiến","type":"BC","region":"DSH","province":"Hưng Yên","wardName":"Phường Hiến Nam","lat":20.658027,"lng":106.062617,"sets":[],"customers":[],"area":{"DELIVERY":{"nC":7,"nA":151.3,"oC":35,"oA":151.1},"PICK":{"nC":6,"nA":129.6,"oC":35,"oA":151.1},"RETURN":{"nC":7,"nA":151.3,"oC":35,"oA":151.1}},"loai":"Bưu cục","address":"Số 11 Chu Mạnh Trinh, phường Hiến Nam, TP Hưng Yên, tỉnh Hưng Yên"},{"id":"1243","name":"Bưu Cục Long Khánh-Đồng Nai","type":"BC","region":"DNB","province":"Đồng Nai","wardName":"Xã Hàng Gòn","lat":10.8918887,"lng":107.2177167,"sets":[],"customers":[],"area":{"DELIVERY":{"nC":2,"nA":74.1,"oC":7,"oA":80.4},"PICK":{"nC":2,"nA":74.1,"oC":8,"oA":84.2},"RETURN":{"nC":2,"nA":74.1,"oC":8,"oA":84.2}},"loai":"Bưu cục","address":"21 , Ấp Tân Phong , Xã Hàng Gòn , Thị xã Long Khánh , Đồng Nai (Tân Phong 2)"},{"id":"1285","name":"Bưu cục Quốc Oai-HN","type":"BC","region":"HNO","province":"Hà Nội","wardName":"Xã Thạch Thán","lat":20.987643,"lng":105.635981,"sets":[],"customers":[],"area":{"DELIVERY":{"nC":2,"nA":49.3,"oC":21,"oA":114.7},"PICK":{"nC":2,"nA":49.3,"oC":21,"oA":114.7},"RETURN":{"nC":3,"nA":83.9,"oC":21,"oA":114.7}},"loai":"Bưu cục","address":"Đội 5 Thạch Thán , Quốc Oai , Hà Nội (Xóm 6)"},{"id":"1290","name":"Bưu Cục 242 Tỉnh Lộ 2-Củ Chi-HCM","type":"BC","region":"HCM","province":"Hồ Chí Minh","wardName":"Xã Trung Lập Hạ","lat":11.009473,"lng":106.47105,"sets":[],"customers":[],"area":{"DELIVERY":{"nC":1,"nA":62.5,"oC":6,"oA":128.9},"PICK":{"nC":1,"nA":62.5,"oC":6,"oA":128.9},"RETURN":{"nC":1,"nA":62.5,"oC":6,"oA":128.9}},"loai":"Bưu cục","address":"242 Tỉnh Lộ 2, Ấp Xóm Mới, Xã Trung Lập Hạ, Củ Chi, Thành phố.HCM"},{"id":"1297","name":"Key Account Warehouse Ha Noi","type":"KHL","region":"HNO","province":"Hà Nội","wardName":"Phường Thạch Bàn","lat":21.033113,"lng":105.921483,"sets":["BGTK","GIAO_YODY","HCK_2","HCK_LV2","HNHCK","KHLPICKUP","KHLRETURN","KHL_HCMHN","LAZADA","LHTK","LOREAL","LOREAL RETURN","PICK_YODY","RHCK_LV2","RHNHCK","TRA_YODY"],"customers":["L'Oréal","Lazada","Yody"],"area":{"DELIVERY":{"nC":0,"nA":0.0,"oC":2,"oA":0.0},"PICK":{"nC":0,"nA":0.0,"oC":1,"oA":0.0},"RETURN":{"nC":0,"nA":0.0,"oC":2,"oA":0.0}},"loai":"Key Account Warehouse","address":"Hà Nội Đài Tư (386 Nguyễn Văn Linh, Quận Long Biên, Hà Nội).."},{"id":"1302","name":"Bưu Cục Cần Giờ-HCM","type":"BC","region":"HCM","province":"Hồ Chí Minh","wardName":"Xã Tam Thôn Hiệp","lat":10.5878863,"lng":106.851401,"sets":[],"customers":[],"area":{"DELIVERY":{"nC":2,"nA":396.8,"oC":4,"oA":396.1},"PICK":{"nC":2,"nA":396.8,"oC":4,"oA":396.1},"RETURN":{"nC":4,"nA":664.4,"oC":4,"oA":396.1}},"loai":"Bưu cục","address":"202 Ấp An Hòa Xã Tam Thôn Hiệp H Cần Giờ, TP.Hồ Chí Minh"},{"id":"1310","name":"(BVT) Côn Đảo","type":"BC","region":"HCM","province":"Bà Rịa - Vũng Tàu","wardName":"Côn Đảo","lat":8.6900103,"lng":106.5968871,"sets":[],"customers":[],"area":{"DELIVERY":{"nC":1,"nA":73.2,"oC":2,"oA":0.0},"PICK":{"nC":1,"nA":73.2,"oC":2,"oA":0.0},"RETURN":{"nC":1,"nA":73.2,"oC":2,"oA":0.0}},"loai":"Bưu cục","address":"Côn Đảo-Bà Rịa Vũng Tàu"},{"id":"1317","name":"(THO) Tĩnh Gia","type":"BC","region":"BTB","province":"Thanh Hóa","wardName":"Phường Hải Hòa","lat":19.4669341,"lng":105.788506,"sets":[],"customers":[],"area":{"DELIVERY":{"nC":6,"nA":223.1,"oC":22,"oA":223.4},"PICK":{"nC":6,"nA":223.1,"oC":22,"oA":223.4},"RETURN":{"nC":0,"nA":0.0,"oC":22,"oA":223.4}},"loai":"Bưu cục","address":"Thôn Đức Thành, Xã Ninh Hải, Huyện Tĩnh Gia, Tỉnh Thanh Hóa"},{"id":"1319","name":"Bưu Cục 110 Nguyễn Huệ-Trảng Bom-Đồng Nai","type":"BC","region":"DNB","province":"Đồng Nai","wardName":"Thị trấn Trảng Bom","lat":10.954525,"lng":107.006647,"sets":[],"customers":[],"area":{"DELIVERY":{"nC":0,"nA":0.0,"oC":5,"oA":126.9},"PICK":{"nC":0,"nA":0.0,"oC":5,"oA":126.9},"RETURN":{"nC":0,"nA":0.0,"oC":5,"oA":126.9}},"loai":"Bưu cục","address":"Đường Nguyễn Huệ, Khu phố 3, thị trấn Trảng Bom, H Trảng Bom, tỉnh Đồng Nai"},{"id":"1327","name":"Key Account Warehouse Ho Chi Minh","type":"KHL","region":"DNB","province":"Long An","wardName":"Xã Mỹ Hạnh Bắc","lat":10.893424,"lng":106.525196,"sets":["HCK_2","HCK_LV2","KHLPICKUP","KHLRETURN","KHL_HCMHN","LOREAL","LOREAL RETURN","PICK_BOXME","PICK_YODY","RETURN_BOXME","RHCK_LV2"],"customers":["Boxme","L'Oréal","Yody"],"area":{"DELIVERY":{"nC":0,"nA":0.0,"oC":2,"oA":0.0},"PICK":{"nC":0,"nA":0.0,"oC":2,"oA":0.0},"RETURN":{"nC":0,"nA":0.0,"oC":2,"oA":0.0}},"loai":"Key Account Warehouse","address":"Kho số A03, Dự Án SLP Park Xuyên Á, tọa lạc tại Lô HH, Đường số 11 và Đường số 3, Khu Công Nghiệp Xuyên Á, Phường Mỹ Hạnh Bắc, Huyện Đức Hòa, Long An.."},{"id":"1333","name":"Bưu Cục Tân Kiên-Bình Chánh-HCM","type":"BC","region":"HCM","province":"Hồ Chí Minh","wardName":"Xã Tân Kiên","lat":10.7115,"lng":106.600723,"sets":[],"customers":[],"area":{"DELIVERY":{"nC":0,"nA":0.0,"oC":2,"oA":35.0},"PICK":{"nC":0,"nA":0.0,"oC":2,"oA":35.0},"RETURN":{"nC":1,"nA":14.9,"oC":2,"oA":35.0}},"loai":"Bưu cục","address":"C1212A4, Ấp 3, xã Tân Kiên, huyện Bình Chánh, TP.HCM"},{"id":"1337","name":"Bưu Cục 63 Vĩnh Hội-Q.4-HCM","type":"BC","region":"HCM","province":"Hồ Chí Minh","wardName":"Phường 4","lat":10.756358,"lng":106.703772,"sets":[],"customers":[],"area":{"DELIVERY":{"nC":1,"nA":1.9,"oC":9,"oA":2.8},"PICK":{"nC":1,"nA":1.9,"oC":9,"oA":2.8},"RETURN":{"nC":1,"nA":1.9,"oC":9,"oA":2.8}},"loai":"Bưu cục","address":"Số 63 Vĩnh Hội, Phường 4, Quận 4"},{"id":"1352","name":"Bưu Cục 114 Yên Lãng-Q.Đống Đa-HN","type":"BC","region":"HNO","province":"Hà Nội","wardName":"Phường Thịnh Quang","lat":21.010084,"lng":105.815667,"sets":[],"customers":[],"area":{"DELIVERY":{"nC":0,"nA":0.0,"oC":3,"oA":1.3},"PICK":{"nC":0,"nA":0.0,"oC":3,"oA":1.3},"RETURN":{"nC":0,"nA":0.0,"oC":3,"oA":1.3}},"loai":"Bưu cục","address":"114 Yên Lãng, Đống Đa, Hà Nội (Số 60 Yên Lãng)"},{"id":"1353","name":"Bưu Cục 188 Khương Đình-Q.Thanh Xuân-HN","type":"BC","region":"HNO","province":"Hà Nội","wardName":"Phường Hạ Đình","lat":20.993634,"lng":105.81394,"sets":[],"customers":[],"area":{"DELIVERY":{"nC":0,"nA":0.0,"oC":2,"oA":1.4},"PICK":{"nC":0,"nA":0.0,"oC":2,"oA":1.4},"RETURN":{"nC":1,"nA":2.9,"oC":2,"oA":1.4}},"loai":"Bưu cục","address":"Số 188 Khương Đình (Tổ 1 Cụm 1), Phường Hạ Đình, Quận Thanh Xuân, TP. Hà Nội"},{"id":"1356","name":"Bưu Cục 221 Kim Ngưu-Q.Hai Bà Trưng-HN","type":"BC","region":"HNO","province":"Hà Nội","wardName":"Phường Thanh Lương","lat":21.00507788867048,"lng":105.8614152245288,"sets":[],"customers":[],"area":{"DELIVERY":{"nC":0,"nA":0.0,"oC":4,"oA":2.3},"PICK":{"nC":0,"nA":0.0,"oC":0,"oA":0.0},"RETURN":{"nC":0,"nA":0.0,"oC":0,"oA":0.0}},"loai":"Bưu cục","address":"221 Kim Ngưu, Phường Thanh Lương, Quận Hai Bà Trưng, Hà Nội"},{"id":"1378","name":"Bưu Cục 274 Điện Biên Phủ-Duy Xuyên-Quảng Nam","type":"BC","region":"TTB","province":"Quảng Nam","wardName":"Thị trấn Nam Phước","lat":15.8374899,"lng":108.284701,"sets":[],"customers":[],"area":{"DELIVERY":{"nC":4,"nA":310.9,"oC":17,"oA":351.1},"PICK":{"nC":4,"nA":310.9,"oC":17,"oA":351.1},"RETURN":{"nC":0,"nA":0.0,"oC":17,"oA":351.1}},"loai":"Bưu cục","address":"274 Điện Biên Phủ, thị trấn Nam Phước, H Duy Xuyên, tỉnh Quảng Nam"},{"id":"1379","name":"Bưu Cục 97 Thiên Hiền-Q.Nam Từ Liêm-HN","type":"BC","region":"HNO","province":"Hà Nội","wardName":"Phường Mỹ Đình 1","lat":21.02294,"lng":105.775855,"sets":[],"customers":[],"area":{"DELIVERY":{"nC":0,"nA":0.0,"oC":1,"oA":2.4},"PICK":{"nC":0,"nA":0.0,"oC":0,"oA":0.0},"RETURN":{"nC":0,"nA":0.0,"oC":0,"oA":0.0}},"loai":"Bưu cục","address":"Số 97 Thiên hiền , Phường Mỹ Đình 1, QUận Nam Từ Liêm , Hà Nội"},{"id":"1394","name":"Bưu Cục 29A Đường Số 5-Q.2-HCM","type":"BC","region":"HCM","province":"Hồ Chí Minh","wardName":"Phường Cát Lái","lat":10.7751905,"lng":106.770249,"sets":[],"customers":[],"area":{"DELIVERY":{"nC":1,"nA":19.7,"oC":8,"oA":24.9},"PICK":{"nC":1,"nA":19.7,"oC":8,"oA":24.9},"RETURN":{"nC":2,"nA":34.4,"oC":8,"oA":24.9}},"loai":"Bưu cục","address":"29A đường số 5, KP2, Phường cát lái, Quận 2, Hồ Chí Minh"},{"id":"1398","name":"Bưu Cục Thống Nhất-Đồng Nai","type":"BC","region":"DNB","province":"Đồng Nai","wardName":"Thị Trấn Dầu Giây","lat":10.9453693,"lng":107.13537,"sets":[],"customers":[],"area":{"DELIVERY":{"nC":1,"nA":99.2,"oC":6,"oA":93.0},"PICK":{"nC":1,"nA":99.2,"oC":6,"oA":93.0},"RETURN":{"nC":1,"nA":99.2,"oC":6,"oA":93.0}},"loai":"Bưu cục","address":"Khu phố Trần Cao Vân, thị trấn Dầu Giây, huyện Thống Nhất, tỉnh Đồng Nai"},{"id":"1402","name":"(NAN) Nghĩa Hưng","type":"BC","region":"BTB","province":"Nghệ An","wardName":"Xã Nghĩa Liên","lat":19.326061,"lng":105.354112,"sets":[],"customers":[],"area":{"DELIVERY":{"nC":5,"nA":362.0,"oC":21,"oA":376.7},"PICK":{"nC":5,"nA":362.0,"oC":21,"oA":376.7},"RETURN":{"nC":5,"nA":362.0,"oC":21,"oA":376.7}},"loai":"Bưu cục","address":"Xóm Liên Hiệp 2, Xã Nghĩa Thành, Huyện Nghĩa Đàn, Tỉnh Nghệ An"},{"id":"1403","name":"(HPH) An Hải","type":"BC","region":"XBG","province":"Hải Phòng","wardName":"Xã An Đồng","lat":20.861416,"lng":106.637908,"sets":[],"customers":[],"area":{"DELIVERY":{"nC":0,"nA":0.0,"oC":7,"oA":31.8},"PICK":{"nC":0,"nA":0.0,"oC":7,"oA":31.8},"RETURN":{"nC":0,"nA":0.0,"oC":7,"oA":31.8}},"loai":"Bưu cục","address":"Đường Máng Nước, Xã An Đồng, Huyện An Dương, Thành phố Hải Phòng"},{"id":"1409","name":"Bưu Cục Tân Châu-An Giang","type":"BC","region":"TNB","province":"An Giang","wardName":"Phường Long Thạnh","lat":10.795306,"lng":105.252056,"sets":[],"customers":[],"area":{"DELIVERY":{"nC":5,"nA":171.1,"oC":14,"oA":176.8},"PICK":{"nC":5,"nA":171.1,"oC":14,"oA":176.8},"RETURN":{"nC":4,"nA":132.5,"oC":14,"oA":176.8}},"loai":"Bưu cục","address":"Đường lộ sau Sông Tiền, Phường Long Thạnh, Thị xã Tân Châu, An Giang"},{"id":"1418","name":"Bưu Cục 119 Nguyễn Văn Luông-Q.6-HCM","type":"BC","region":"HCM","province":"Hồ Chí Minh","wardName":"Phường 10","lat":10.73829,"lng":106.63353,"sets":[],"customers":[],"area":{"DELIVERY":{"nC":1,"nA":1.7,"oC":8,"oA":4.8},"PICK":{"nC":1,"nA":1.7,"oC":8,"oA":4.8},"RETURN":{"nC":1,"nA":1.7,"oC":8,"oA":4.8}},"loai":"Bưu cục","address":"119 Nguyễn Văn Luông, Phường 10, Quận 6, TP.HCM"},{"id":"1423","name":"(NBI) Trung Sơn","type":"BC","region":"TNT","province":"Ninh Bình","wardName":"Xã Đông Sơn","lat":20.1467891,"lng":105.9227752,"sets":[],"customers":[],"area":{"DELIVERY":{"nC":3,"nA":113.4,"oC":9,"oA":114.0},"PICK":{"nC":3,"nA":113.4,"oC":9,"oA":114.0},"RETURN":{"nC":2,"nA":77.8,"oC":9,"oA":114.0}},"loai":"Bưu cục","address":"Thôn 4C, Xã Đông Sơn, Thành phố Tam Điệp, Tỉnh Ninh Bình"},{"id":"1432","name":"Bưu Cục 183 Trần Phú-Vĩnh Linh-Quảng Trị","type":"BC","region":"TTB","province":"Quảng Trị","wardName":"Thị trấn Hồ Xá","lat":17.0664796,"lng":107.0132297,"sets":[],"customers":[],"area":{"DELIVERY":{"nC":5,"nA":618.3,"oC":25,"oA":620.2},"PICK":{"nC":5,"nA":618.3,"oC":25,"oA":620.2},"RETURN":{"nC":0,"nA":0.0,"oC":25,"oA":620.2}},"loai":"Bưu cục","address":"183 Trần Phú, thị trấn Hồ Xá, H Vĩnh Linh, tỉnh Quảng Trị"},{"id":"1433","name":"(BVT) Hồ Tràm","type":"BC","region":"HCM","province":"Bà Rịa - Vũng Tàu","wardName":"Thị trấn Phước Bửu","lat":10.5247562,"lng":107.4007476,"sets":[],"customers":[],"area":{"DELIVERY":{"nC":3,"nA":281.1,"oC":9,"oA":346.3},"PICK":{"nC":3,"nA":281.1,"oC":9,"oA":346.3},"RETURN":{"nC":2,"nA":178.0,"oC":9,"oA":346.3}},"loai":"Bưu cục","address":"Khu phố Xóm Rẫy, Phước Bửu , H Xuyên Mộc , Tỉnh Bà Rịa - Vũng Tàu"},{"id":"1434","name":"(BDI) Hoài Nhơn Nam 2","type":"BC","region":"TNG","province":"Bình Định","wardName":"Phường Hoài Tân","lat":14.480658,"lng":109.03351,"sets":[],"customers":[],"area":{"DELIVERY":{"nC":3,"nA":183.3,"oC":7,"oA":182.9},"PICK":{"nC":3,"nA":183.3,"oC":7,"oA":182.9},"RETURN":{"nC":3,"nA":183.3,"oC":7,"oA":182.9}},"loai":"Bưu cục","address":"Dốc Võng Quốc Lộ 1A, An Dưỡng 2, Hoài Tân, Hoài Nhơn, Bình Định"},{"id":"1441","name":"(NDI) Trực Ninh","type":"BC","region":"TNT","province":"Nam Định","wardName":"Xã Trực Nội","lat":20.247375,"lng":106.224672,"sets":[],"customers":[],"area":{"DELIVERY":{"nC":5,"nA":97.8,"oC":15,"oA":98.2},"PICK":{"nC":5,"nA":97.8,"oC":15,"oA":98.2},"RETURN":{"nC":4,"nA":79.4,"oC":15,"oA":98.2}},"loai":"Bưu cục","address":"Trực Nội, Trực Ninh, Nam Định"},{"id":"1443","name":"(HPH) Tân Minh","type":"BC","region":"XBG","province":"Hải Phòng","wardName":"Xã Bạch Đằng","lat":20.709103,"lng":106.5655546,"sets":[],"customers":[],"area":{"DELIVERY":{"nC":6,"nA":181.4,"oC":24,"oA":190.0},"PICK":{"nC":6,"nA":181.4,"oC":24,"oA":190.0},"RETURN":{"nC":6,"nA":181.4,"oC":24,"oA":190.0}},"loai":"Bưu cục","address":"Xã Bạch Đằng, Huyện Tiên Lãng, Tỉnh Hải Phòng"},{"id":"1445","name":"Bưu Cục Tân Phú-Đồng Nai","type":"BC","region":"DNB","province":"Đồng Nai","wardName":"Xã Trà Cổ","lat":11.259027,"lng":107.455536,"sets":[],"customers":[],"area":{"DELIVERY":{"nC":2,"nA":171.9,"oC":11,"oA":193.4},"PICK":{"nC":2,"nA":171.9,"oC":11,"oA":193.4},"RETURN":{"nC":2,"nA":171.9,"oC":11,"oA":193.4}},"loai":"Bưu cục","address":"Số 37 đường Bè 128, Ấp 4, xã Trà Cổ, H Tân Phú, tỉnh Đồng Nai"},{"id":"1446","name":"(BDU) Phước Hòa","type":"BC","region":"HCM","province":"Bình Dương","wardName":"Xã Vĩnh Hoà","lat":11.2751,"lng":106.778815,"sets":[],"customers":[],"area":{"DELIVERY":{"nC":3,"nA":445.4,"oC":9,"oA":469.1},"PICK":{"nC":3,"nA":445.4,"oC":9,"oA":469.1},"RETURN":{"nC":3,"nA":445.4,"oC":9,"oA":469.1}},"loai":"Bưu cục","address":"37638 tổ 3, ấp Trảng sắn, xã vĩnh hòa, Phú Giáo, Bình Dương"},{"id":"1479","name":"Bưu Cục 104 Lương Ngọc Quyến-Q.Bình Thạnh-HCM","type":"BC","region":"HCM","province":"Hồ Chí Minh","wardName":"Phường 13","lat":10.8245,"lng":106.701861,"sets":[],"customers":[],"area":{"DELIVERY":{"nC":0,"nA":0.0,"oC":2,"oA":3.4},"PICK":{"nC":0,"nA":0.0,"oC":2,"oA":3.4},"RETURN":{"nC":0,"nA":0.0,"oC":2,"oA":3.4}},"loai":"Bưu cục","address":"104 Lương Ngọc Quyến-Q.Bình Thạnh-HCM"},{"id":"1489","name":"Bưu Cục 263 Phố Vọng-Q.Hai Bà Trưng-HN","type":"BC","region":"HNO","province":"Hà Nội","wardName":"Phường Đồng Tâm","lat":20.994889,"lng":105.842653,"sets":[],"customers":[],"area":{"DELIVERY":{"nC":0,"nA":0.0,"oC":0,"oA":0.0},"PICK":{"nC":0,"nA":0.0,"oC":6,"oA":2.7},"RETURN":{"nC":0,"nA":0.0,"oC":6,"oA":2.7}},"loai":"Bưu cục","address":"263 Phố Vọng, Phường Đồng Tâm, Quận Hai Bà Trưng, Hà Nội"},{"id":"1501","name":"(BDU) Bàu Bàng","type":"BC","region":"HCM","province":"Bình Dương","wardName":"Xã Lai Hưng","lat":11.2418409,"lng":106.6328418,"sets":[],"customers":[],"area":{"DELIVERY":{"nC":1,"nA":83.7,"oC":5,"oA":267.3},"PICK":{"nC":1,"nA":83.7,"oC":5,"oA":267.3},"RETURN":{"nC":1,"nA":83.7,"oC":5,"oA":267.3}},"loai":"Bưu cục","address":"Xã Lai Uyên Huyện Bàu Bàng Tỉnh Bình Dương"},{"id":"1514","name":"Bưu Cục 393 Tôn Đức Thắng-Hòa Thành-Tây Ninh","type":"BC","region":"DNB","province":"Tây Ninh","wardName":"Xã Long Thành Trung","lat":11.265901,"lng":106.131211,"sets":[],"customers":[],"area":{"DELIVERY":{"nC":1,"nA":20.5,"oC":5,"oA":77.7},"PICK":{"nC":1,"nA":20.5,"oC":5,"oA":77.7},"RETURN":{"nC":0,"nA":0.0,"oC":5,"oA":77.7}},"loai":"Bưu cục","address":"393 Tôn Đức Thắng Ấp Long Thành Xã Long thành Trung Huyện Hòa Thành Tỉnh tây Ninh"},{"id":"1515","name":"(TBI) Đông Hưng","type":"BC","region":"DSH","province":"Thái Bình","wardName":"Xã Đông La","lat":20.5604181,"lng":106.3573092,"sets":[],"customers":[],"area":{"DELIVERY":{"nC":9,"nA":196.3,"oC":52,"oA":199.1},"PICK":{"nC":9,"nA":196.3,"oC":52,"oA":199.1},"RETURN":{"nC":0,"nA":0.0,"oC":47,"oA":157.1}},"loai":"Bưu cục","address":"khu công nghiệp đông la đông hưng thái bình"},{"id":"1519","name":"Bưu Cục Chơn Thành-Bình Phước","type":"BC","region":"DNB","province":"Bình Phước","wardName":"Xã Minh Thành","lat":11.442112,"lng":106.659952,"sets":[],"customers":[],"area":{"DELIVERY":{"nC":2,"nA":261.8,"oC":9,"oA":328.2},"PICK":{"nC":2,"nA":261.8,"oC":9,"oA":328.2},"RETURN":{"nC":2,"nA":261.8,"oC":9,"oA":328.2}},"loai":"Bưu cục","address":"Số nhà 69, tổ 3, ấp 2, xã Minh Thành, huyện Chơn Thành, tỉnh Bình Phước"},{"id":"1626","name":"Kho Trung Chuyển Hồ Chí Minh 01","type":"KTC","region":"DNB","province":"Long An","wardName":"Xã Mỹ Hạnh Bắc","lat":10.893424,"lng":106.525196,"sets":["BGTK","BGTKSENDO","GIAO_B2B","GXT_LAY","GXT_TRA","LHTK","NHANHANGTRASENDO","SENDOBGTK","SENDONHANHANGTRA"],"customers":["Sendo"],"area":{"DELIVERY":{"nC":0,"nA":0.0,"oC":0,"oA":0.0},"PICK":{"nC":0,"nA":0.0,"oC":0,"oA":0.0},"RETURN":{"nC":0,"nA":0.0,"oC":0,"oA":0.0}},"loai":"Kho trung chuyển","address":"Kho số A03, Dự Án SLP Park Xuyên Á, tọa lạc tại Lô HH, Đường số 11 và Đường số 3, Khu Công Nghiệp Xuyên Á, Phường Mỹ Hạnh Bắc, Huyện Đức Hòa, Long An"},{"id":"1892","name":"(QNI) Vân Đồn","type":"BC","region":"XBG","province":"Quảng Ninh","wardName":"Xã Hạ Long","lat":21.0709195,"lng":107.429446,"sets":[],"customers":[],"area":{"DELIVERY":{"nC":0,"nA":0.0,"oC":7,"oA":305.8},"PICK":{"nC":0,"nA":0.0,"oC":7,"oA":305.8},"RETURN":{"nC":0,"nA":0.0,"oC":7,"oA":305.8}},"loai":"Bưu cục","address":"Thôn 14, Xã Hạ Long, Huyện Vân Đồn, Tỉnh Quảng Ninh"},{"id":"1896","name":"(LDO) Đạ Huoai","type":"BC","region":"NTB","province":"Lâm Đồng","wardName":"Thị trấn Cát Tiên","lat":11.388864,"lng":107.516161,"sets":[],"customers":[],"area":{"DELIVERY":{"nC":3,"nA":494.0,"oC":11,"oA":494.9},"PICK":{"nC":3,"nA":494.0,"oC":11,"oA":494.9},"RETURN":{"nC":3,"nA":494.0,"oC":11,"oA":494.9}},"loai":"Bưu cục","address":"Huyện Cát Tiên-Lâm Đồng"},{"id":"1908","name":"Kho Trung Chuyển Cần Thơ","type":"KTC","region":"TNB","province":"Cần Thơ","wardName":"Phường Phú Thứ","lat":10.007535,"lng":105.796471,"sets":["GIAO_B2B","GXT_LAY","GXT_TRA"],"customers":[],"area":{"DELIVERY":{"nC":0,"nA":0.0,"oC":0,"oA":0.0},"PICK":{"nC":0,"nA":0.0,"oC":0,"oA":0.0},"RETURN":{"nC":0,"nA":0.0,"oC":0,"oA":0.0}},"loai":"Kho trung chuyển","address":"Thửa đất 943 và 944, Võ Nguyên Giáp, Phường Hưng Phú, TP Cần Thơ"},{"id":"1909","name":"Kho Trung Chuyển Khánh Hòa","type":"KTC","region":"NTB","province":"Khánh Hòa","wardName":"Phường Cam Linh","lat":12.281226,"lng":109.12599,"sets":["GIAO_B2B","GXT_LAY","GXT_TRA"],"customers":[],"area":{"DELIVERY":{"nC":0,"nA":0.0,"oC":0,"oA":0.0},"PICK":{"nC":0,"nA":0.0,"oC":0,"oA":0.0},"RETURN":{"nC":0,"nA":0.0,"oC":0,"oA":0.0}},"loai":"Kho trung chuyển","address":"TDP Đá Bạc, Phường Cam Linh, Tp Cam Ranh, Tỉnh Khánh Hòa"},{"id":"1910","name":"Kho Trung Chuyển Nghệ An","type":"KTC","region":"BTB","province":"Nghệ An","wardName":"Xã Hưng Tây","lat":18.687158,"lng":105.622124,"sets":["GIAO_B2B","GXT_LAY","GXT_TRA"],"customers":[],"area":{"DELIVERY":{"nC":0,"nA":0.0,"oC":0,"oA":0.0},"PICK":{"nC":0,"nA":0.0,"oC":0,"oA":0.0},"RETURN":{"nC":0,"nA":0.0,"oC":0,"oA":0.0}},"loai":"Kho trung chuyển","address":"Số 01, đường số 9, Khu Công Nghiệp VSIP Nghệ An, Xã Hưng Nguyên, Tỉnh Nghệ An, Việt Nam"},{"id":"1933","name":"(DTH) An Bình","type":"BC","region":"DCL","province":"Đồng Tháp","wardName":"Xã An Bình A","lat":10.7758664,"lng":105.3551587,"sets":[],"customers":[],"area":{"DELIVERY":{"nC":7,"nA":404.2,"oC":26,"oA":384.4},"PICK":{"nC":7,"nA":404.2,"oC":26,"oA":384.4},"RETURN":{"nC":7,"nA":404.2,"oC":26,"oA":384.4}},"loai":"Bưu cục","address":"Ấp An Lợi, Xã An Bình A, Thị xã Hồng Ngự, Đồng Tháp"},{"id":"1934","name":"(BTR) Mỏ Cày","type":"BC","region":"DCL","province":"Bến Tre","wardName":"Thị trấn Mỏ Cày","lat":10.12045,"lng":106.338258,"sets":[],"customers":[],"area":{"DELIVERY":{"nC":3,"nA":128.7,"oC":13,"oA":144.2},"PICK":{"nC":3,"nA":128.7,"oC":13,"oA":144.2},"RETURN":{"nC":5,"nA":230.3,"oC":12,"oA":128.7}},"loai":"Bưu cục","address":"Quốc Lộ 60 Khu phố 4 Thị Trấn Mỏ Cày,H Mỏ Cày Nam,Tỉnh Bến Tre"},{"id":"2276","name":"Bưu Cục 1135 Phan Văn Trị-Q.Gò Vấp-HCM","type":"BC","region":"HCM","province":"Hồ Chí Minh","wardName":"Phường 10","lat":10.832417,"lng":106.673278,"sets":["ADHOCS_LAY","ADHOCS_LAY_SPE","ADHOCS_TRA","ADHOCS_TRA_SPE"],"customers":[],"area":{"DELIVERY":{"nC":0,"nA":0.0,"oC":2,"oA":2.9},"PICK":{"nC":0,"nA":0.0,"oC":1,"oA":1.7},"RETURN":{"nC":0,"nA":0.0,"oC":1,"oA":1.7}},"loai":"Bưu cục","address":"1135 Phan Văn Trị P.10, Q.Gò Vấp"},{"id":"2278","name":"Bưu Cục Cần Đước-Long An","type":"BC","region":"DNB","province":"Long An","wardName":"Thị trấn Cần Đước","lat":10.5118799,"lng":106.6040482,"sets":[],"customers":[],"area":{"DELIVERY":{"nC":3,"nA":126.1,"oC":8,"oA":125.1},"PICK":{"nC":3,"nA":126.1,"oC":8,"oA":125.1},"RETURN":{"nC":3,"nA":126.1,"oC":8,"oA":125.1}},"loai":"Bưu cục","address":"Cần Đước, Long An"},{"id":"2309","name":"(DNO) Đức Lập","type":"BC","region":"NTB","province":"Đắk Nông","wardName":"Xã Đức Mạnh","lat":12.4536119,"lng":107.6314262,"sets":[],"customers":[],"area":{"DELIVERY":{"nC":3,"nA":617.2,"oC":10,"oA":680.4},"PICK":{"nC":3,"nA":617.2,"oC":10,"oA":680.4},"RETURN":{"nC":3,"nA":617.2,"oC":10,"oA":680.4}},"loai":"Bưu cục","address":"Thôn Đức Tân, xã Đức Mạnh, huyện Đắk Mil, tình Đắk Nông"},{"id":"2320","name":"Bưu Cục Vận Hành Đảo Lý Sơn-Quảng Ngãi","type":"BC","region":"TTB","province":"Quảng Ngãi","wardName":"Xã An Vĩnh","lat":15.375175,"lng":109.12677,"sets":[],"customers":[],"area":{"DELIVERY":{"nC":1,"nA":9.2,"oC":3,"oA":0.0},"PICK":{"nC":1,"nA":9.2,"oC":3,"oA":0.0},"RETURN":{"nC":0,"nA":0.0,"oC":3,"oA":0.0}},"loai":"Bưu cục","address":"Thôn Đông, xã An Vĩnh, huyện Lý Sơn, tỉnh Quảng Ngãi"},{"id":"2332","name":"Bưu Cục 55C Nguyễn Khoái-Q.Hai Bà Trưng-HN","type":"BC","region":"HNO","province":"Hà Nội","wardName":"Phường Bạch Đằng","lat":21.015425,"lng":105.863139,"sets":[],"customers":[],"area":{"DELIVERY":{"nC":0,"nA":0.0,"oC":6,"oA":1.9},"PICK":{"nC":0,"nA":0.0,"oC":6,"oA":1.9},"RETURN":{"nC":0,"nA":0.0,"oC":6,"oA":1.9}},"loai":"Bưu cục","address":"55C Nguyễn Khoái, Phường Bạch Đằng, Quận Hai Bà Trưng, TP. Hà Nội"},{"id":"2357","name":"(BTH) Đồng Kho","type":"BC","region":"NTB","province":"Bình Thuận","wardName":"Xã Đức Bình","lat":11.1069444,"lng":107.7306148,"sets":[],"customers":[],"area":{"DELIVERY":{"nC":5,"nA":1198.5,"oC":14,"oA":1198.4},"PICK":{"nC":5,"nA":1198.5,"oC":14,"oA":1198.4},"RETURN":{"nC":5,"nA":1198.5,"oC":14,"oA":1198.4}},"loai":"Bưu cục","address":"158 Quốc lộ 55, xã Đức Bình, huyện Tánh Linh, tỉnh Bình Thuận"},{"id":"2361","name":"Bưu Cục Tri Tôn-An Giang","type":"BC","region":"TNB","province":"An Giang","wardName":"Xã Châu Lăng","lat":10.4378598,"lng":104.9961005,"sets":[],"customers":[],"area":{"DELIVERY":{"nC":7,"nA":778.6,"oC":21,"oA":806.2},"PICK":{"nC":7,"nA":778.6,"oC":21,"oA":806.2},"RETURN":{"nC":7,"nA":778.6,"oC":21,"oA":806.2}},"loai":"Bưu cục","address":"Ấp An Thuận, xã Châu Lăng, huyện Tri Tôn, tỉnh An Giang"},{"id":"2363","name":"Bưu Cục Khu Phố 2-Thạnh Hoá-Long An","type":"BC","region":"DNB","province":"Long An","wardName":"Thị trấn Thạnh Hóa","lat":10.64078,"lng":106.181572,"sets":[],"customers":[],"area":{"DELIVERY":{"nC":3,"nA":365.8,"oC":11,"oA":469.1},"PICK":{"nC":3,"nA":365.8,"oC":11,"oA":469.1},"RETURN":{"nC":3,"nA":365.8,"oC":11,"oA":469.1}},"loai":"Bưu cục","address":"Khu phố 2, Thị trấn Thạnh Hóa, Huyện Thạnh Hóa, Long An"},{"id":"2376","name":"Bưu Cục 2999 Phạm Thế Hiển-Q.8-HCM","type":"BC","region":"HCM","province":"Hồ Chí Minh","wardName":"Phường 7","lat":10.7168692,"lng":106.6324732,"sets":[],"customers":[],"area":{"DELIVERY":{"nC":0,"nA":0.0,"oC":3,"oA":10.7},"PICK":{"nC":0,"nA":0.0,"oC":3,"oA":10.7},"RETURN":{"nC":0,"nA":0.0,"oC":3,"oA":10.7}},"loai":"Bưu cục","address":"2999 Phạm Thế Hiển, Phường 7, Quận 8, TP.HCM"},{"id":"2389","name":"Bưu Cục 107 Nguyễn Chí Thanh-Q.Đống Đa-HN","type":"BC","region":"HNO","province":"Hà Nội","wardName":"Phường Láng Thượng","lat":21.015249,"lng":105.80551,"sets":[],"customers":[],"area":{"DELIVERY":{"nC":0,"nA":0.0,"oC":2,"oA":2.2},"PICK":{"nC":0,"nA":0.0,"oC":0,"oA":0.0},"RETURN":{"nC":1,"nA":1.8,"oC":0,"oA":0.0}},"loai":"Bưu cục","address":"số 15, Ngõ 107 Nguyễn Chí Thanh"},{"id":"2393","name":"(TQU) Hàm Yên","type":"BC","region":"DBB","province":"Tuyên Quang","wardName":"Thị trấn Tân Yên","lat":22.039025,"lng":105.037502,"sets":[],"customers":[],"area":{"DELIVERY":{"nC":6,"nA":546.3,"oC":13,"oA":549.8},"PICK":{"nC":6,"nA":546.3,"oC":13,"oA":549.8},"RETURN":{"nC":0,"nA":0.0,"oC":13,"oA":549.8}},"loai":"Bưu cục","address":"Số 868 tổ dân phố Tân Quang, thị trấn Tân Yên, huyện Hàm Yên, tỉnh Tuyên Quang"},{"id":"2399","name":"(KHO) Bắc Nha Trang","type":"BC","region":"NTB","province":"Khánh Hòa","wardName":"Phường Vĩnh Hải","lat":12.287364,"lng":109.19073,"sets":[],"customers":[],"area":{"DELIVERY":{"nC":1,"nA":95.4,"oC":6,"oA":97.2},"PICK":{"nC":1,"nA":95.4,"oC":6,"oA":97.2},"RETURN":{"nC":0,"nA":0.0,"oC":6,"oA":97.2}},"loai":"Bưu cục","address":"41A đường 2 tháng 4, phường Vĩnh Hòa, thành phố Nha Trang, tỉnh Khánh Hòa"},{"id":"2409","name":"(QNI) Cửa Ông 2","type":"BC","region":"XBG","province":"Quảng Ninh","wardName":"Phường Cửa Ông","lat":21.0389999,"lng":107.3586827,"sets":[],"customers":[],"area":{"DELIVERY":{"nC":1,"nA":167.7,"oC":7,"oA":281.9},"PICK":{"nC":1,"nA":167.7,"oC":7,"oA":281.9},"RETURN":{"nC":0,"nA":0.0,"oC":7,"oA":281.9}},"loai":"Bưu cục","address":"Số nhà 143 tổ 43 Khu 4B1, phường Cửa Ông, TP. Cẩm Phả, Tỉnh Quảng Ninh"},{"id":"2410","name":"(TVI) Duyên Hải","type":"BC","region":"DCL","province":"Trà Vinh","wardName":"Xã Trường Long Hòa","lat":9.6468369,"lng":106.5007387,"sets":[],"customers":[],"area":{"DELIVERY":{"nC":7,"nA":408.3,"oC":13,"oA":417.9},"PICK":{"nC":7,"nA":408.3,"oC":13,"oA":417.9},"RETURN":{"nC":0,"nA":0.0,"oC":13,"oA":417.9}},"loai":"Bưu cục","address":"Trà Vinh"},{"id":"2417","name":"(BDU) Bình Dương 2","type":"BC","region":"HCM","province":"Bình Dương","wardName":"Phường Phú Mỹ","lat":11.0240777,"lng":106.6788661,"sets":[],"customers":[],"area":{"DELIVERY":{"nC":0,"nA":0.0,"oC":2,"oA":21.7},"PICK":{"nC":0,"nA":0.0,"oC":2,"oA":21.7},"RETURN":{"nC":0,"nA":0.0,"oC":2,"oA":21.7}},"loai":"Bưu cục","address":"870 Huỳnh Văn Lũy, P.Phú Mỹ, TP.Thủ Dầu Một, Bình Dương"},{"id":"2429","name":"Bưu Cục Long Phước-Long Thành-Đồng Nai","type":"BC","region":"DNB","province":"Đồng Nai","wardName":"Xã Tân Hiệp","lat":10.685206,"lng":107.0364163,"sets":[],"customers":[],"area":{"DELIVERY":{"nC":1,"nA":86.7,"oC":3,"oA":85.8},"PICK":{"nC":1,"nA":86.7,"oC":3,"oA":85.8},"RETURN":{"nC":2,"nA":167.5,"oC":3,"oA":85.8}},"loai":"Bưu cục","address":"Tổ 5, Ấp 1, xã Tân Hiệp, huyện Long Thành, tình Đồng Nai"},{"id":"2431","name":"Bưu Cục 54 Hùng Vương-Năm Căn-Cà Mau","type":"BC","region":"TNB","province":"Cà Mau","wardName":"Thị Trấn Năm Căn","lat":8.757212,"lng":104.980232,"sets":[],"customers":[],"area":{"DELIVERY":{"nC":2,"nA":266.1,"oC":9,"oA":592.7},"PICK":{"nC":2,"nA":266.1,"oC":9,"oA":592.7},"RETURN":{"nC":3,"nA":467.8,"oC":9,"oA":592.7}},"loai":"Bưu cục","address":"Khu vực 3, khóm 3, thị trấn Năm Căn, huyện Năm Căn, tỉnh Cà Mau"},{"id":"2434","name":"Bưu Cục Đảo Kiên Hải-Kiên Giang","type":"BC","region":"TNB","province":"Kiên Giang","wardName":"Phường An Bình","lat":9.978412,"lng":105.100998,"sets":[],"customers":[],"area":{"DELIVERY":{"nC":1,"nA":23.0,"oC":4,"oA":25.7},"PICK":{"nC":1,"nA":23.0,"oC":4,"oA":25.7},"RETURN":{"nC":1,"nA":23.0,"oC":4,"oA":25.7}},"loai":"Bưu cục","address":"L03-04 Trần Quang Khải, Phường An Bình, TP Rạch Giá, Tỉnh Kiên Giang"},{"id":"2439","name":"Bưu Cục 04 Nhất Chi Mai-Q.Tân Bình-HCM","type":"BC","region":"HCM","province":"Hồ Chí Minh","wardName":"Phường 13","lat":10.8028396,"lng":106.639924,"sets":[],"customers":[],"area":{"DELIVERY":{"nC":0,"nA":0.0,"oC":2,"oA":2.1},"PICK":{"nC":0,"nA":0.0,"oC":2,"oA":2.1},"RETURN":{"nC":0,"nA":0.0,"oC":2,"oA":2.1}},"loai":"Bưu cục","address":"Số 4 Nhất Chi Mai, Phường 13, Quận Tân Bình, TP.HCM"},{"id":"2441","name":"Bưu Cục 16A Lê Hồng Phong-Q.10-HCM","type":"BC","region":"HCM","province":"Hồ Chí Minh","wardName":"Phường 12","lat":10.77583,"lng":106.67049,"sets":[],"customers":[],"area":{"DELIVERY":{"nC":0,"nA":0.0,"oC":5,"oA":3.0},"PICK":{"nC":0,"nA":0.0,"oC":5,"oA":3.0},"RETURN":{"nC":1,"nA":2.6,"oC":5,"oA":3.0}},"loai":"Bưu cục","address":"16A Lê Hồng Phong, Phường 12, Quận 10, TPHCM"},{"id":"2451","name":"Bưu Cục 1130 Đông Hưng Thuận 05-Q.12-HCM","type":"BC","region":"HCM","province":"Hồ Chí Minh","wardName":"Phường Đông Hưng Thuận","lat":10.8390821,"lng":106.621627,"sets":[],"customers":[],"area":{"DELIVERY":{"nC":0,"nA":0.0,"oC":2,"oA":4.3},"PICK":{"nC":0,"nA":0.0,"oC":2,"oA":4.3},"RETURN":{"nC":0,"nA":0.0,"oC":2,"oA":4.3}},"loai":"Bưu cục","address":"Thửa đất số 1128, 1130, tờ bản đồ số 1, phường Đông Hưng Thuận, Quận 12, TP.HCM (gần số 22 Đông Hưng Thuận 5)"},{"id":"2452","name":"Bưu Cục 198 Thạnh Lộc 15-Q.12-HCM","type":"BC","region":"HCM","province":"Hồ Chí Minh","wardName":"Phường Thạnh Lộc","lat":10.8694847,"lng":106.6924142,"sets":[],"customers":[],"area":{"DELIVERY":{"nC":0,"nA":0.0,"oC":1,"oA":5.8},"PICK":{"nC":0,"nA":0.0,"oC":1,"oA":5.8},"RETURN":{"nC":0,"nA":0.0,"oC":1,"oA":5.8}},"loai":"Bưu cục","address":"198C Đường Thạnh Lộc 15, Khu Phố 3C, Phường Thạnh Lộc, Quận 12, TP.HCM"},{"id":"2455","name":"Bưu Cục Xã 10-Bù Đăng-Bình Phước","type":"BC","region":"DNB","province":"Bình Phước","wardName":"Xã Đường 10","lat":11.953694,"lng":107.182361,"sets":[],"customers":[],"area":{"DELIVERY":{"nC":2,"nA":427.5,"oC":4,"oA":428.0},"PICK":{"nC":2,"nA":427.5,"oC":4,"oA":428.0},"RETURN":{"nC":2,"nA":427.5,"oC":4,"oA":428.0}},"loai":"Bưu cục","address":"Thôn 1, xã Đường 10, huyện Bù Đăng, tỉnh Bình Phước"},{"id":"2458","name":"Bưu Cục Vận Hành Ba Tơ-Quảng Ngãi","type":"BC","region":"TTB","province":"Quảng Ngãi","wardName":"Thị trấn Mộ Đức","lat":14.761894,"lng":108.73295,"sets":[],"customers":[],"area":{"DELIVERY":{"nC":8,"nA":1134.1,"oC":20,"oA":1133.8},"PICK":{"nC":8,"nA":1134.1,"oC":20,"oA":1133.8},"RETURN":{"nC":0,"nA":0.0,"oC":20,"oA":1133.8}},"loai":"Bưu cục","address":"10  Ngã tư Thạch Trụ - Mộ Đức,Quảng Ngãi"},{"id":"2461","name":"Bưu Cục 229 Quan Nhân-Q.Thanh Xuân-HN","type":"BC","region":"HNO","province":"Hà Nội","wardName":"Phường Thanh Xuân Trung","lat":21.001105,"lng":105.810285,"sets":[],"customers":[],"area":{"DELIVERY":{"nC":0,"nA":0.0,"oC":1,"oA":1.6},"PICK":{"nC":0,"nA":0.0,"oC":0,"oA":0.0},"RETURN":{"nC":0,"nA":0.0,"oC":0,"oA":0.0}},"loai":"Bưu cục","address":"229 Quan Nhân, Nhân Chính, Thanh Xuân"},{"id":"2467","name":"(HPH) Kiến Hưng","type":"BC","region":"XBG","province":"Hải Phòng","wardName":"Xã Ngũ Đoan","lat":20.718398,"lng":106.675812,"sets":[],"customers":[],"area":{"DELIVERY":{"nC":4,"nA":77.6,"oC":17,"oA":91.6},"PICK":{"nC":4,"nA":77.6,"oC":17,"oA":91.6},"RETURN":{"nC":4,"nA":77.6,"oC":17,"oA":91.6}},"loai":"Bưu cục","address":"Thôn Đương Thắng, Xã Ngũ Đoan, Huyện Kiến Thụy, Thành phố Hải Phòng"},{"id":"2468","name":"(NBI) Gia Viễn","type":"BC","region":"TNT","province":"Ninh Bình","wardName":"Thị trấn Thịnh Vượng","lat":20.346249,"lng":105.850577,"sets":[],"customers":[],"area":{"DELIVERY":{"nC":4,"nA":113.3,"oC":14,"oA":111.7},"PICK":{"nC":4,"nA":113.3,"oC":14,"oA":111.7},"RETURN":{"nC":4,"nA":113.3,"oC":14,"oA":111.7}},"loai":"Bưu cục","address":"Thị trấn Me, huyện Gia Viễn, tỉnh Ninh Bình"},{"id":"2474","name":"Bưu Cục Thoại Sơn-An Giang","type":"BC","region":"TNB","province":"An Giang","wardName":"Thị trấn Núi Sập","lat":10.2549404,"lng":105.260015,"sets":[],"customers":[],"area":{"DELIVERY":{"nC":6,"nA":471.3,"oC":17,"oA":471.0},"PICK":{"nC":6,"nA":471.3,"oC":17,"oA":471.0},"RETURN":{"nC":6,"nA":471.3,"oC":17,"oA":471.0}},"loai":"Bưu cục","address":"Ấp Tây Sơn, Thị Trấn Núi Sập, Huyện Thoại Sơn, Tỉnh An Giang"},{"id":"2475","name":"Bưu Cục 15 Hàng Bún-Q.Ba Đình-HN","type":"BC","region":"HNO","province":"Hà Nội","wardName":"Phường Nguyễn Trung Trực","lat":21.043324,"lng":105.845677,"sets":[],"customers":[],"area":{"DELIVERY":{"nC":0,"nA":0.0,"oC":5,"oA":3.2},"PICK":{"nC":0,"nA":0.0,"oC":5,"oA":3.2},"RETURN":{"nC":0,"nA":0.0,"oC":5,"oA":3.2}},"loai":"Bưu cục","address":"15 Hàng Bún-Nguyễn Trung Trực-Ba Đình-Hà Nội"},{"id":"2488","name":"Bưu Cục 480F Cao Thắng-Trường Sa-Q.3-HCM","type":"BC","region":"HCM","province":"Hồ Chí Minh","wardName":"Phường 12","lat":10.77567262774388,"lng":106.6704441591177,"sets":[],"customers":[],"area":{"DELIVERY":{"nC":1,"nA":1.8,"oC":10,"oA":2.5},"PICK":{"nC":1,"nA":1.8,"oC":10,"oA":2.5},"RETURN":{"nC":1,"nA":1.8,"oC":10,"oA":2.5}},"loai":"Bưu cục","address":"16A Lê Hồng Phong P12 Quận 10"},{"id":"2489","name":"Bưu Cục 456 Nguyễn Kiệm-Q.Phú Nhuận-HCM","type":"BC","region":"HCM","province":"Hồ Chí Minh","wardName":"Phường 3","lat":10.802363,"lng":106.679308,"sets":[],"customers":[],"area":{"DELIVERY":{"nC":1,"nA":2.2,"oC":7,"oA":3.1},"PICK":{"nC":1,"nA":2.2,"oC":7,"oA":3.1},"RETURN":{"nC":1,"nA":2.2,"oC":7,"oA":3.1}},"loai":"Bưu cục","address":"456 Nguyễn Kiệm, Phường 3, Quận Phú Nhuận, Thành Phố Hồ Chí Minh"},{"id":"2498","name":"(DTH) Tràm Chim","type":"BC","region":"DCL","province":"Đồng Tháp","wardName":"Thị trấn Tràm Chim","lat":10.673553,"lng":105.550231,"sets":[],"customers":[],"area":{"DELIVERY":{"nC":4,"nA":350.5,"oC":12,"oA":481.8},"PICK":{"nC":4,"nA":350.5,"oC":12,"oA":481.8},"RETURN":{"nC":4,"nA":367.3,"oC":12,"oA":481.8}},"loai":"Bưu cục","address":"Huyện Tam Nông - Đồng Tháp"},{"id":"2500","name":"(HPH) Hải An 2","type":"BC","region":"XBG","province":"Hải Phòng","wardName":"Phường Đằng Hải","lat":20.846282,"lng":106.715681,"sets":[],"customers":[],"area":{"DELIVERY":{"nC":0,"nA":0.0,"oC":2,"oA":8.3},"PICK":{"nC":0,"nA":0.0,"oC":2,"oA":8.3},"RETURN":{"nC":1,"nA":54.6,"oC":2,"oA":8.3}},"loai":"Bưu cục","address":"1056 Nguyễn Bỉnh Khiêm, Quận Hải An, Hải Phòng"},{"id":"2502","name":"(KHO) Nam Nha Trang 5","type":"BC","region":"NTB","province":"Khánh Hòa","wardName":"Xã Phước Đồng","lat":12.1907937,"lng":109.1706565,"sets":[],"customers":[],"area":{"DELIVERY":{"nC":0,"nA":0.0,"oC":1,"oA":56.9},"PICK":{"nC":0,"nA":0.0,"oC":1,"oA":56.9},"RETURN":{"nC":0,"nA":0.0,"oC":1,"oA":56.9}},"loai":"Bưu cục","address":"Thôn Phước Trung, xã Phước Đồng, TP. Nha Trang, Khánh Hòa"},{"id":"2503","name":"Bưu cục 41 Trần Quốc Vượng-Q.Cầu giấy-HN","type":"BC","region":"HNO","province":"Hà Nội","wardName":"Phường Dịch Vọng Hậu","lat":21.03559956,"lng":105.786288,"sets":[],"customers":[],"area":{"DELIVERY":{"nC":0,"nA":0.0,"oC":2,"oA":2.6},"PICK":{"nC":0,"nA":0.0,"oC":0,"oA":0.0},"RETURN":{"nC":0,"nA":0.0,"oC":0,"oA":0.0}},"loai":"Bưu cục","address":"41 Trần Quốc Vượng, phường Dịch Vọng Hậu, Quận Cầu giấy, Hà Nội"},{"id":"2520","name":"Bưu Cục 09 Hoàng Cầu-Q.Đống Đa-HN","type":"BC","region":"HNO","province":"Hà Nội","wardName":"Phường Ô Chợ Dừa","lat":21.0162422,"lng":105.8213612,"sets":[],"customers":[],"area":{"DELIVERY":{"nC":0,"nA":0.0,"oC":1,"oA":1.1},"PICK":{"nC":0,"nA":0.0,"oC":1,"oA":1.1},"RETURN":{"nC":0,"nA":0.0,"oC":1,"oA":1.1}},"loai":"Bưu cục","address":"Số 09 Hoàng Cầu, Phường Ô Chợ Dừa, Quận Đống Đa, Hà Nội"},{"id":"2525","name":"Bưu Cục 22 Thanh Yên-Q.Hoàn Kiếm-HN","type":"BC","region":"HNO","province":"Hà Nội","wardName":"Phường Phúc Tân","lat":21.037548,"lng":105.854078,"sets":[],"customers":[],"area":{"DELIVERY":{"nC":0,"nA":0.0,"oC":6,"oA":1.5},"PICK":{"nC":0,"nA":0.0,"oC":6,"oA":1.5},"RETURN":{"nC":0,"nA":0.0,"oC":6,"oA":1.5}},"loai":"Bưu cục","address":"Số 22 Thanh Yên, Phường Phúc Tân , Quận Hoàn Kiếm, Hà Nội"},{"id":"2528","name":"Bưu Cục 154B Mai Thị Hồng Hạnh-Rạch Giá-Kiên Giang","type":"BC","region":"TNB","province":"Kiên Giang","wardName":"Phường Rạch Sỏi","lat":9.945293,"lng":105.12754,"sets":[],"customers":[],"area":{"DELIVERY":{"nC":1,"nA":105.2,"oC":6,"oA":111.5},"PICK":{"nC":1,"nA":105.2,"oC":6,"oA":111.5},"RETURN":{"nC":2,"nA":178.2,"oC":6,"oA":111.5}},"loai":"Bưu cục","address":"Số 154B, Mai Thị Hồng Hạnh, TP Rạch Giá, Tỉnh Kiên Giang"},{"id":"2533","name":"(HCM) CK Hạnh Thông","type":"BC","region":"HCM","province":"Hồ Chí Minh","wardName":"Phường 3","lat":10.8226266,"lng":106.6787629,"sets":[],"customers":[],"area":{"DELIVERY":{"nC":0,"nA":0.0,"oC":0,"oA":0.0},"PICK":{"nC":0,"nA":0.0,"oC":0,"oA":0.0},"RETURN":{"nC":0,"nA":0.0,"oC":0,"oA":0.0}},"loai":"Bưu cục","address":"971 Nguyễn Kiệm, Phường 3, Quận Gò Vấp"},{"id":"2534","name":"Bưu Cục 903B Tạ Quang Bửu-Q.8-HCM","type":"BC","region":"HCM","province":"Hồ Chí Minh","wardName":"Phường 5","lat":10.7343536,"lng":106.6623223,"sets":[],"customers":[],"area":{"DELIVERY":{"nC":0,"nA":0.0,"oC":8,"oA":4.5},"PICK":{"nC":0,"nA":0.0,"oC":8,"oA":4.5},"RETURN":{"nC":0,"nA":0.0,"oC":8,"oA":4.5}},"loai":"Bưu cục","address":"903B Tạ Quang Bửu-P.5-Q.8-HCM"},{"id":"2535","name":"(HPH) An Phong","type":"BC","region":"XBG","province":"Hải Phòng","wardName":"Xã Hồng Phong","lat":20.871231,"lng":106.575898,"sets":[],"customers":[],"area":{"DELIVERY":{"nC":0,"nA":0.0,"oC":4,"oA":26.5},"PICK":{"nC":0,"nA":0.0,"oC":4,"oA":26.5},"RETURN":{"nC":0,"nA":0.0,"oC":4,"oA":26.5}},"loai":"Bưu cục","address":"Xã Hồng Phong, huyện An Dương, Hải Phòng"},{"id":"20001000","name":"Bưu cục 896 Minh Khai-Q.Hai Bà Trưng-HN","type":"BC","region":"HNO","province":"Hà Nội","wardName":"Phường Thanh Lương","lat":21.004527,"lng":105.869162,"sets":[],"customers":[],"area":{"DELIVERY":{"nC":0,"nA":0.0,"oC":2,"oA":2.1},"PICK":{"nC":0,"nA":0.0,"oC":0,"oA":0.0},"RETURN":{"nC":0,"nA":0.0,"oC":0,"oA":0.0}},"loai":"Bưu cục","address":"896 Minhkhai"},{"id":"20010000","name":"Bưu Cục Vân Hà-Đông Anh-HN","type":"BC","region":"HNO","province":"Hà Nội","wardName":"Xã Vân Hà","lat":21.1414,"lng":105.91642,"sets":[],"customers":[],"area":{"DELIVERY":{"nC":0,"nA":0.0,"oC":6,"oA":52.9},"PICK":{"nC":0,"nA":0.0,"oC":6,"oA":52.9},"RETURN":{"nC":0,"nA":0.0,"oC":6,"oA":52.9}},"loai":"Bưu cục","address":"9 Thiết Úng, Xã Vân Hà, Huyện Đông Anh, Hà Nội"},{"id":"20020000","name":"Bưu cục 442 Nguyễn Trãi-Q.Thanh Xuân-HN","type":"BC","region":"HNO","province":"Hà Nội","wardName":"Phường Thanh Xuân Trung","lat":20.9927328,"lng":105.80469,"sets":[],"customers":[],"area":{"DELIVERY":{"nC":0,"nA":0.0,"oC":3,"oA":1.9},"PICK":{"nC":0,"nA":0.0,"oC":0,"oA":0.0},"RETURN":{"nC":0,"nA":0.0,"oC":0,"oA":0.0}},"loai":"Bưu cục","address":"Số 442 Nguyễn Trãi, Phường Thanh Xuân Trung, Quận Thanh Xuân, Thành phố Hà Nội"},{"id":"20023000","name":"(HTI) Can Lộc","type":"BC","region":"BTB","province":"Hà Tĩnh","wardName":"Thị trấn Nghèn","lat":18.46308,"lng":105.768628,"sets":[],"customers":[],"area":{"DELIVERY":{"nC":5,"nA":251.0,"oC":19,"oA":251.6},"PICK":{"nC":5,"nA":251.0,"oC":19,"oA":251.6},"RETURN":{"nC":4,"nA":205.0,"oC":19,"oA":251.6}},"loai":"Bưu cục","address":"Khối 9 - Quốc lộ 1A Bắc Nghèn - Thị Trấn Can Lộc - Huyện Can Lộc - Hà Tĩnh"},{"id":"20026000","name":"Bưu Cục 63 Ký Hòa-Q.5-HCM","type":"BC","region":"HCM","province":"Hồ Chí Minh","wardName":"Phường 11","lat":10.75432,"lng":106.66064,"sets":[],"customers":[],"area":{"DELIVERY":{"nC":1,"nA":1.7,"oC":8,"oA":2.1},"PICK":{"nC":1,"nA":1.7,"oC":8,"oA":2.1},"RETURN":{"nC":1,"nA":1.7,"oC":8,"oA":2.1}},"loai":"Bưu cục","address":"63 Ký Hòa, Phường 11, Quận 5, TP.HCM"},{"id":"20027000","name":"Bưu Cục 117 Hùng Vương-Q.5-HCM","type":"BC","region":"HCM","province":"Hồ Chí Minh","wardName":"Phường 11","lat":10.7617,"lng":106.67578,"sets":[],"customers":[],"area":{"DELIVERY":{"nC":1,"nA":1.3,"oC":7,"oA":2.2},"PICK":{"nC":1,"nA":1.3,"oC":7,"oA":2.2},"RETURN":{"nC":1,"nA":1.3,"oC":7,"oA":2.2}},"loai":"Bưu cục","address":"117 Hùng Vương, Phường 4, Quận 5, TP.HCM"},{"id":"20032000","name":"Bưu Cục 24 ngõ 80 La Nội-Q.Hà Đông-HN","type":"BC","region":"HNO","province":"Hà Nội","wardName":"Phường Dương Nội","lat":20.97984481,"lng":105.7492971,"sets":[],"customers":[],"area":{"DELIVERY":{"nC":0,"nA":0.0,"oC":1,"oA":5.9},"PICK":{"nC":0,"nA":0.0,"oC":0,"oA":0.0},"RETURN":{"nC":0,"nA":0.0,"oC":0,"oA":0.0}},"loai":"Bưu cục","address":"số 28 ngõ 80 đường La Nội, Phường Dương Nội, Quận Hà Đông, Hà Nội"},{"id":"20038000","name":"Bưu cục 296 đường Ỷ Lan-Gia Lâm-HN","type":"BC","region":"HNO","province":"Hà Nội","wardName":"Xã Đặng Xá","lat":21.0212845,"lng":105.9644118,"sets":[],"customers":[],"area":{"DELIVERY":{"nC":1,"nA":29.2,"oC":8,"oA":40.8},"PICK":{"nC":1,"nA":29.2,"oC":4,"oA":25.3},"RETURN":{"nC":1,"nA":29.2,"oC":4,"oA":25.3}},"loai":"Bưu cục","address":"296 đường Ỷ Lan, Huyện Gia Lâm, Xã Đặng Xá, Hà Nội"},{"id":"20040000","name":"Bưu cục 126 Hoàng Ngân-Q.Cầu Giấy-HN","type":"BC","region":"HNO","province":"Hà Nội","wardName":"Phường Trung Hoà","lat":21.00974856,"lng":105.8066455,"sets":[],"customers":[],"area":{"DELIVERY":{"nC":0,"nA":0.0,"oC":1,"oA":2.4},"PICK":{"nC":0,"nA":0.0,"oC":0,"oA":0.0},"RETURN":{"nC":0,"nA":0.0,"oC":0,"oA":0.0}},"loai":"Bưu cục","address":"126 Hoàng Ngân, Phường Trung Hòa, Quận Cầu Giấy, Hà Nội"},{"id":"20047000","name":"Bưu Cục 53 Lãng Yên-Q.Hai Bà Trưng-HN","type":"BC","region":"HNO","province":"Hà Nội","wardName":"Phường Bạch Đằng","lat":21.0089985,"lng":105.8666449,"sets":[],"customers":[],"area":{"DELIVERY":{"nC":0,"nA":0.0,"oC":1,"oA":1.1},"PICK":{"nC":0,"nA":0.0,"oC":9,"oA":3.4},"RETURN":{"nC":0,"nA":0.0,"oC":9,"oA":3.4}},"loai":"Bưu cục","address":"53 Lãng Yên, Phường Bạch Đằng, Quận Hai Bà Trưng, Thành phố Hà Nội"},{"id":"20049000","name":"Bưu Cục 109 E3-Q.Hai Bà Trưng-HN","type":"BC","region":"HNO","province":"Hà Nội","wardName":"Phường Bạch Mai","lat":21.003327,"lng":105.849394,"sets":[],"customers":[],"area":{"DELIVERY":{"nC":0,"nA":0.0,"oC":5,"oA":2.2},"PICK":{"nC":0,"nA":0.0,"oC":0,"oA":0.0},"RETURN":{"nC":0,"nA":0.0,"oC":0,"oA":0.0}},"loai":"Bưu cục","address":"109 E3, Phường Bạch Mai, Quận Hai Bà Trưng, Thành phố Hà Nội"},{"id":"20052000","name":"Bưu Cục 295F Lý Thường Kiệt-Quận 11-HCM","type":"BC","region":"HCM","province":"Hồ Chí Minh","wardName":"Phường 15","lat":10.7762921,"lng":106.6562777,"sets":[],"customers":[],"area":{"DELIVERY":{"nC":0,"nA":0.0,"oC":4,"oA":1.3},"PICK":{"nC":0,"nA":0.0,"oC":4,"oA":1.3},"RETURN":{"nC":0,"nA":0.0,"oC":4,"oA":1.3}},"loai":"Bưu cục","address":"295F Lý Thường Kiệt, Phường 15, Quận 11, TP.HCM"},{"id":"20053000","name":"Bưu Cục 303 Hoàng Hoa Thám-Q.Ba Đình-HN","type":"BC","region":"HNO","province":"Hà Nội","wardName":"Phường Liễu Giai","lat":21.04225556,"lng":105.8184068,"sets":[],"customers":[],"area":{"DELIVERY":{"nC":0,"nA":0.0,"oC":5,"oA":4.7},"PICK":{"nC":0,"nA":0.0,"oC":2,"oA":1.4},"RETURN":{"nC":0,"nA":0.0,"oC":2,"oA":1.4}},"loai":"Bưu cục","address":"303 Hoàng Hoa Thám, Liễu Giai, Ba Đình, Hà Nội"},{"id":"20054000","name":"Bưu Cục 14 Huỳnh Thúc Kháng-Q.Đống Đa-HN","type":"BC","region":"HNO","province":"Hà Nội","wardName":"Phường Láng Hạ","lat":21.01907,"lng":105.81165,"sets":["ADHOCS_LAY","ADHOCS_TRA"],"customers":[],"area":{"DELIVERY":{"nC":0,"nA":0.0,"oC":0,"oA":0.0},"PICK":{"nC":0,"nA":0.0,"oC":2,"oA":1.9},"RETURN":{"nC":0,"nA":0.0,"oC":2,"oA":1.9}},"loai":"Bưu cục","address":"14/14 Huỳnh Thúc Kháng, Phường Láng Hạ, Quận Đống Đa, Hà Nội"},{"id":"20059000","name":"Bưu cục Đồng Đăng-Cao Lộc-Lạng Sơn","type":"BC","region":"XBG","province":"Lạng Sơn","wardName":"Thị trấn Đồng Đăng","lat":21.950466,"lng":106.699845,"sets":[],"customers":[],"area":{"DELIVERY":{"nC":7,"nA":723.8,"oC":37,"oA":763.1},"PICK":{"nC":7,"nA":723.8,"oC":37,"oA":763.1},"RETURN":{"nC":7,"nA":723.8,"oC":37,"oA":763.1}},"loai":"Bưu cục","address":"Thị Trấn Đồng Đăng, Huyện Cao Lộc, Tỉnh Lạng Sơn"},{"id":"20060000","name":"Bưu cục Lộc Bình-Lạng Sơn","type":"BC","region":"XBG","province":"Lạng Sơn","wardName":"Thị trấn Lộc Bình","lat":21.75149,"lng":106.928509,"sets":[],"customers":[],"area":{"DELIVERY":{"nC":7,"nA":985.4,"oC":32,"oA":984.5},"PICK":{"nC":7,"nA":985.4,"oC":32,"oA":984.5},"RETURN":{"nC":7,"nA":985.4,"oC":32,"oA":984.5}},"loai":"Bưu cục","address":"Thị Trấn Lộc Bình, Huyện Lộc Bình, Tỉnh Lạng Sơn"},{"id":"20061000","name":"(HPH) An Biên 2","type":"BC","region":"XBG","province":"Hải Phòng","wardName":"Phường Kênh Dương","lat":20.833657,"lng":106.679396,"sets":[],"customers":[],"area":{"DELIVERY":{"nC":1,"nA":4.8,"oC":8,"oA":7.4},"PICK":{"nC":1,"nA":4.8,"oC":8,"oA":7.4},"RETURN":{"nC":0,"nA":0.0,"oC":8,"oA":7.4}},"loai":"Bưu cục","address":"Tổ 12, P.Kênh Dương, Q.Lê Chân, Thành phố Hải Phòng"},{"id":"20071000","name":"(BVT) Bà Rịa","type":"BC","region":"HCM","province":"Bà Rịa - Vũng Tàu","wardName":"Phường Phước Hiệp","lat":10.4948172,"lng":107.1750766,"sets":[],"customers":[],"area":{"DELIVERY":{"nC":0,"nA":0.0,"oC":5,"oA":40.8},"PICK":{"nC":0,"nA":0.0,"oC":5,"oA":40.8},"RETURN":{"nC":0,"nA":0.0,"oC":5,"oA":40.8}},"loai":"Bưu cục","address":"39 Tôn Đức Thắng, Phường Phước Hiệp , Thành Phố  Bà Rịa, Bà Rịa - Vũng Tàu"},{"id":"20075000","name":"Bưu Cục T30 Nguyễn Hữu Hào-Q.4-HCM","type":"BC","region":"HCM","province":"Hồ Chí Minh","wardName":"Phường 6","lat":10.75995,"lng":106.70209,"sets":[],"customers":[],"area":{"DELIVERY":{"nC":0,"nA":0.0,"oC":6,"oA":1.4},"PICK":{"nC":0,"nA":0.0,"oC":6,"oA":1.4},"RETURN":{"nC":1,"nA":1.1,"oC":6,"oA":1.4}},"loai":"Bưu cục","address":"T30 Nguyễn Hữu Hào, Phường 6, Quận 4, Tp. Hồ Chí Minh"},{"id":"20078000","name":"Bưu Cục 9 Hồng Bàng-Q.Bình Thạnh-HCM","type":"BC","region":"HCM","province":"Hồ Chí Minh","wardName":"Phường 1","lat":10.8025201,"lng":106.698029,"sets":[],"customers":[],"area":{"DELIVERY":{"nC":0,"nA":0.0,"oC":5,"oA":2.2},"PICK":{"nC":0,"nA":0.0,"oC":0,"oA":0.0},"RETURN":{"nC":0,"nA":0.0,"oC":0,"oA":0.0}},"loai":"Bưu cục","address":"9 Hồng Bàng. Phường 1, bình Thạnh, TP Hồ Chí Minh"},{"id":"20081000","name":"Bưu Cục 16A Hòa Mã -Q.Hai Bà Trưng-HN","type":"BC","region":"HNO","province":"Hà Nội","wardName":"Phường Phạm Đình Hổ","lat":21.0156138,"lng":105.8556383,"sets":[],"customers":[],"area":{"DELIVERY":{"nC":0,"nA":0.0,"oC":8,"oA":2.4},"PICK":{"nC":0,"nA":0.0,"oC":0,"oA":0.0},"RETURN":{"nC":0,"nA":0.0,"oC":0,"oA":0.0}},"loai":"Bưu cục","address":"16A Hòa Mã, Phường Phạm Đình Hổ, Quận Hai Bà Trưng, Hà Nội"},{"id":"20087000","name":"Bưu Cục C14 Bắc Hà-Q.Nam Từ Liêm-HN","type":"BC","region":"HNO","province":"Hà Nội","wardName":"Phường Trung Văn","lat":20.990016,"lng":105.784293,"sets":["ADHOCS_LAY","ADHOCS_TRA"],"customers":[],"area":{"DELIVERY":{"nC":0,"nA":0.0,"oC":0,"oA":0.0},"PICK":{"nC":0,"nA":0.0,"oC":2,"oA":4.0},"RETURN":{"nC":0,"nA":0.0,"oC":2,"oA":4.0}},"loai":"Bưu cục","address":"LK09, Phường Trung Văn, Quận Nam Từ Liêm, Thành phố Hà Nội"},{"id":"20090000","name":"(HDU) Tân Hưng","type":"BC","region":"XBG","province":"Hải Dương","wardName":"Phường Hải Tân","lat":20.9325507,"lng":106.3366227,"sets":[],"customers":[],"area":{"DELIVERY":{"nC":1,"nA":7.1,"oC":8,"oA":21.6},"PICK":{"nC":1,"nA":7.1,"oC":8,"oA":21.6},"RETURN":{"nC":1,"nA":7.1,"oC":8,"oA":21.6}},"loai":"Bưu cục","address":"18 Bạch Năng Thi, phường Hải Tân, tp. Hải Dương"},{"id":"20091000","name":"Bưu Cục 61 Kim Mã-Q.Ba Đình-HN","type":"BC","region":"HNO","province":"Hà Nội","wardName":"Phường Kim Mã","lat":21.03221987,"lng":105.8277081,"sets":[],"customers":[],"area":{"DELIVERY":{"nC":0,"nA":0.0,"oC":0,"oA":0.0},"PICK":{"nC":0,"nA":0.0,"oC":12,"oA":5.4},"RETURN":{"nC":0,"nA":0.0,"oC":12,"oA":5.4}},"loai":"Bưu cục","address":"61 Kim Mã, Phường Kim Mã, Quận Ba Đình, HN"},{"id":"20092000","name":"Bưu cục 253 Phạm Văn Đồng-Q.Bắc Từ Liêm-Hà Nội","type":"BC","region":"HNO","province":"Hà Nội","wardName":"Phường Xuân Đỉnh","lat":21.073257,"lng":105.785887,"sets":[],"customers":[],"area":{"DELIVERY":{"nC":0,"nA":0.0,"oC":2,"oA":5.8},"PICK":{"nC":0,"nA":0.0,"oC":1,"oA":2.2},"RETURN":{"nC":0,"nA":0.0,"oC":1,"oA":2.2}},"loai":"Bưu cục","address":"253 Phạm Văn Đồng, Phường Xuân Đỉnh, Quận Bắc Từ Liêm, HN"},{"id":"20093000","name":"(QNI) Quang Hanh","type":"BC","region":"XBG","province":"Quảng Ninh","wardName":"Phường Cẩm Thạch","lat":21.0076,"lng":107.257537,"sets":[],"customers":[],"area":{"DELIVERY":{"nC":1,"nA":58.7,"oC":5,"oA":64.8},"PICK":{"nC":1,"nA":58.7,"oC":5,"oA":64.8},"RETURN":{"nC":0,"nA":0.0,"oC":5,"oA":64.8}},"loai":"Bưu cục","address":"Tổ 12 phường Cẩm Thạch, Thành phố Cẩm Phả, Tỉnh Quảng Ninh"},{"id":"20097000","name":"Bưu cục Thạch Hòa-Thạch Thất-Hà Nội","type":"BC","region":"HNO","province":"Hà Nội","wardName":"Xã Thạch Hoà","lat":20.9869341,"lng":105.5276892,"sets":[],"customers":[],"area":{"DELIVERY":{"nC":1,"nA":70.3,"oC":7,"oA":119.9},"PICK":{"nC":1,"nA":70.3,"oC":7,"oA":119.9},"RETURN":{"nC":1,"nA":70.3,"oC":7,"oA":119.9}},"loai":"Bưu cục","address":"Thôn 2, Thạch Hòa, Thạch Thất, Hà Nội"},{"id":"20099000","name":"Bưu cục 148 Trâu Quỳ-Gia Lâm-HN","type":"BC","region":"HNO","province":"Hà Nội","wardName":"Thị trấn Trâu Quỳ","lat":21.0014959,"lng":105.9390521,"sets":[],"customers":[],"area":{"DELIVERY":{"nC":0,"nA":0.0,"oC":2,"oA":14.6},"PICK":{"nC":0,"nA":0.0,"oC":0,"oA":0.0},"RETURN":{"nC":0,"nA":0.0,"oC":0,"oA":0.0}},"loai":"Bưu cục","address":"148 Trâu Quỳ, Thị Trấn Trâu Quỳ, Huyện Gia Lâm, Hà Nội"},{"id":"20102000","name":"Bưu cục 58 Vũ Tông Phan-Q.2-HCM","type":"BC","region":"HCM","province":"Hồ Chí Minh","wardName":"Phường An Phú","lat":10.79734195904519,"lng":106.7418189408406,"sets":[],"customers":[],"area":{"DELIVERY":{"nC":0,"nA":0.0,"oC":3,"oA":10.2},"PICK":{"nC":0,"nA":0.0,"oC":3,"oA":10.2},"RETURN":{"nC":0,"nA":0.0,"oC":3,"oA":10.2}},"loai":"Bưu cục","address":"Bưu cục 58 Vũ Tông Phan, Phường An Phú, Quận 2, Thành phố Hồ Chí Minh"},{"id":"20103000","name":"Bưu Cục 559 Vũ Tông Phan-Q.Thanh Xuân-HN","type":"BC","region":"HNO","province":"Hà Nội","wardName":"Phường Khương Đình","lat":20.9847301,"lng":105.8151779,"sets":[],"customers":[],"area":{"DELIVERY":{"nC":0,"nA":0.0,"oC":0,"oA":0.0},"PICK":{"nC":0,"nA":0.0,"oC":0,"oA":0.0},"RETURN":{"nC":0,"nA":0.0,"oC":0,"oA":0.0}},"loai":"Bưu cục","address":"559 Vũ Tông Phan, Phường Khương Đình, Quận Thanh Xuân, HN"},{"id":"20108000","name":"Bưu Cục 39 Gò Sỏi-Sóc Sơn-HN","type":"BC","region":"HNO","province":"Hà Nội","wardName":"Xã Hồng Kỳ","lat":21.289057,"lng":105.861237,"sets":[],"customers":[],"area":{"DELIVERY":{"nC":1,"nA":77.4,"oC":8,"oA":124.4},"PICK":{"nC":1,"nA":77.4,"oC":8,"oA":124.4},"RETURN":{"nC":1,"nA":77.4,"oC":8,"oA":124.4}},"loai":"Bưu cục","address":"39 Gò Sỏi , xã Hồng Kỳ , huyện Sóc Sơn , TP Hà Nội"},{"id":"20110000","name":"Bưu cục Thôn 6-Ba Vì-HN","type":"BC","region":"HNO","province":"Hà Nội","wardName":"Xã Ba Trại","lat":21.124075,"lng":105.364579,"sets":[],"customers":[],"area":{"DELIVERY":{"nC":2,"nA":135.0,"oC":11,"oA":244.5},"PICK":{"nC":2,"nA":135.0,"oC":12,"oA":270.6},"RETURN":{"nC":3,"nA":188.5,"oC":11,"oA":244.5}},"loai":"Bưu cục","address":"Thôn 6, Xã Ba Trại, Huyện Ba Vì, Hà Nội"},{"id":"20114000","name":"Bưu Cục 893 Quốc Lộ 14-Đồng Xoài-Bình Phước","type":"BC","region":"DNB","province":"Bình Phước","wardName":"Phường Tân Bình","lat":11.5302149,"lng":106.8771833,"sets":[],"customers":[],"area":{"DELIVERY":{"nC":1,"nA":81.4,"oC":6,"oA":156.1},"PICK":{"nC":1,"nA":81.4,"oC":6,"oA":156.1},"RETURN":{"nC":1,"nA":81.4,"oC":6,"oA":156.1}},"loai":"Bưu cục","address":"Số nhà 893 Đường Quốc Lộ 14, Phường Tân Bình, Thành Phố Đồng Xoài, Bình Phước"},{"id":"20121005","name":"Điểm xử lý hàng hoá cho Sìn Hồ Thấp-Lai Châu","type":"BC","region":"TBB","province":"Lai Châu","wardName":"Phường Đoàn Kết","lat":22.156994,"lng":103.459317,"sets":[],"customers":[],"area":{"DELIVERY":{"nC":4,"nA":683.8,"oC":11,"oA":736.4},"PICK":{"nC":4,"nA":683.8,"oC":11,"oA":736.4},"RETURN":{"nC":4,"nA":683.8,"oC":11,"oA":736.4}},"loai":"Điểm/Kho xử lý hàng & ngoại lệ","address":"Số nhà 167 Đường 19 Tháng 8, Tổ 3, Phường Đoàn Kết, TP Lai Châu, Lai Châu"},{"id":"20123000","name":"Bưu Cục 7C10 Nguyễn Phong Sắc-Cầu Giấy-Hà Nội","type":"BC","region":"HNO","province":"Hà Nội","wardName":"Phường Nghĩa Tân","lat":21.042015,"lng":105.790352,"sets":["ADHOCS_LAY","ADHOCS_TRA"],"customers":[],"area":{"DELIVERY":{"nC":0,"nA":0.0,"oC":0,"oA":0.0},"PICK":{"nC":0,"nA":0.0,"oC":1,"oA":1.3},"RETURN":{"nC":1,"nA":4.4,"oC":1,"oA":1.3}},"loai":"Bưu cục","address":"Số 7C10 Nguyễn Phong Sắc, Phường Nghĩa Tân, Cầu Giấy, Hà Nội"},{"id":"20124000","name":"(HCM) CK Tân Hưng","type":"BC","region":"HCM","province":"Hồ Chí Minh","wardName":"Phường Tân Kiểng","lat":10.7469,"lng":106.70594,"sets":[],"customers":[],"area":{"DELIVERY":{"nC":0,"nA":0.0,"oC":0,"oA":0.0},"PICK":{"nC":0,"nA":0.0,"oC":4,"oA":8.5},"RETURN":{"nC":0,"nA":0.0,"oC":4,"oA":8.5}},"loai":"Bưu cục","address":"78 Đường số 4, Phường Tân Kiểng, Q7, TPHCM"},{"id":"20125000","name":"Bưu cục Ngọc Hồi-Thanh Trì-HN","type":"BC","region":"HNO","province":"Hà Nội","wardName":"Xã Ngọc Hồi","lat":20.924,"lng":105.84216,"sets":[],"customers":[],"area":{"DELIVERY":{"nC":0,"nA":0.0,"oC":6,"oA":27.6},"PICK":{"nC":0,"nA":0.0,"oC":0,"oA":0.0},"RETURN":{"nC":0,"nA":0.0,"oC":0,"oA":0.0}},"loai":"Bưu cục","address":"Yên Kiện, Ngọc Hồi , Thanh Trì, Hà Nội"},{"id":"20126000","name":"Bưu cục Yên Xá-Thanh Trì-HN","type":"BC","region":"HNO","province":"Hà Nội","wardName":"Xã Tân Triều","lat":20.972782,"lng":105.796357,"sets":[],"customers":[],"area":{"DELIVERY":{"nC":0,"nA":0.0,"oC":1,"oA":3.0},"PICK":{"nC":0,"nA":0.0,"oC":0,"oA":0.0},"RETURN":{"nC":0,"nA":0.0,"oC":0,"oA":0.0}},"loai":"Bưu cục","address":"Số 65 NV1, Tổng cục 5 Yên Xá, Tân triều, HN"},{"id":"20133000","name":"(HYE) Lương Bằng","type":"BC","region":"DSH","province":"Hưng Yên","wardName":"Thị trấn Lương Bằng","lat":20.744761,"lng":106.059322,"sets":[],"customers":[],"area":{"DELIVERY":{"nC":4,"nA":103.0,"oC":19,"oA":103.4},"PICK":{"nC":4,"nA":103.0,"oC":19,"oA":103.4},"RETURN":{"nC":4,"nA":103.0,"oC":19,"oA":103.4}},"loai":"Bưu cục","address":"Số 90 Nguyễn Lương Bằng, Huyện Kim Động, Thị trấn Lương Bằng, tỉnh Hưng Yên"},{"id":"20136000","name":"Bưu Cục 105C Đồng Khởi-Biên Hòa-Đồng Nai","type":"BC","region":"DNB","province":"Đồng Nai","wardName":"Phường Tân Phong","lat":10.9745989,"lng":106.8510147,"sets":[],"customers":[],"area":{"DELIVERY":{"nC":0,"nA":0.0,"oC":1,"oA":16.6},"PICK":{"nC":0,"nA":0.0,"oC":1,"oA":16.6},"RETURN":{"nC":0,"nA":0.0,"oC":1,"oA":16.6}},"loai":"Bưu cục","address":"105C Đường Đồng Khởi KP 8 - Biên Hòa Đồng Nai"},{"id":"20137000","name":"Bưu Cục 106 Quang Trung-Đại Lộc-Quảng Nam","type":"BC","region":"TTB","province":"Quảng Nam","wardName":"Thị Trấn Ái Nghĩa","lat":15.8867113,"lng":108.119545,"sets":[],"customers":[],"area":{"DELIVERY":{"nC":5,"nA":577.2,"oC":18,"oA":577.1},"PICK":{"nC":5,"nA":577.2,"oC":18,"oA":577.1},"RETURN":{"nC":0,"nA":0.0,"oC":18,"oA":577.1}},"loai":"Bưu cục","address":"106 Quang Trung, Thị trấn Ái Nghĩa, Huyện Đại Lộc, Quảng Nam"},{"id":"20137001","name":"Bưu Cục Vận Hành Xã Thạnh Mỹ-Đà Nẵng","type":"BC","region":"TTB","province":"Quảng Nam","wardName":"Thị trấn Thạnh Mỹ","lat":15.748522,"lng":107.837075,"sets":[],"customers":[],"area":{"DELIVERY":{"nC":2,"nA":742.0,"oC":5,"oA":741.9},"PICK":{"nC":2,"nA":742.0,"oC":5,"oA":741.9},"RETURN":{"nC":0,"nA":0.0,"oC":5,"oA":741.9}},"loai":"Bưu cục","address":"Tổ 9- TT Thạnh Mỹ- Nam Giang- Quảng Nam"},{"id":"20137002","name":"Bưu Cục Vận Hành Xã Nam Giang-Đà Nẵng","type":"BC","region":"TTB","province":"Quảng Nam","wardName":"Xã Chà Vàl","lat":15.619334,"lng":107.512197,"sets":[],"customers":[],"area":{"DELIVERY":{"nC":4,"nA":1101.8,"oC":9,"oA":1102.3},"PICK":{"nC":4,"nA":1101.8,"oC":9,"oA":1102.3},"RETURN":{"nC":0,"nA":0.0,"oC":9,"oA":1102.3}},"loai":"Bưu cục","address":" Vị trí: Thôn A Bát- Chal Val- Nam Giang- Quảng Nam"},{"id":"20139000","name":"(DTH) Thanh Bình","type":"BC","region":"DCL","province":"Đồng Tháp","wardName":"Thị trấn Thanh Bình","lat":10.5569375,"lng":105.4921875,"sets":[],"customers":[],"area":{"DELIVERY":{"nC":4,"nA":312.8,"oC":13,"oA":329.7},"PICK":{"nC":4,"nA":312.8,"oC":13,"oA":329.7},"RETURN":{"nC":4,"nA":312.8,"oC":13,"oA":329.7}},"loai":"Bưu cục","address":"Quốc lộ 30, Thị trấn Thanh Bình, Huyện Thanh Bình, Đồng Tháp"},{"id":"20141000","name":"Bưu Cục 280 Lê Đại Hành-Q.Cẩm Lệ-Đà Nẵng","type":"BC","region":"TTB","province":"Đà Nẵng","wardName":"Phường Hòa Phát","lat":16.021260928504,"lng":108.197465855506,"sets":[],"customers":[],"area":{"DELIVERY":{"nC":1,"nA":14.0,"oC":5,"oA":22.8},"PICK":{"nC":1,"nA":14.0,"oC":5,"oA":22.8},"RETURN":{"nC":1,"nA":14.0,"oC":5,"oA":22.8}},"loai":"Bưu cục","address":"280 Lê Đại Hành"},{"id":"20143000","name":"(KHO) Diên Khánh 2","type":"BC","region":"NTB","province":"Khánh Hòa","wardName":"Thị trấn Diên Khánh","lat":12.2702688,"lng":109.1107013,"sets":[],"customers":[],"area":{"DELIVERY":{"nC":2,"nA":119.8,"oC":10,"oA":128.9},"PICK":{"nC":2,"nA":119.8,"oC":10,"oA":128.9},"RETURN":{"nC":2,"nA":119.8,"oC":10,"oA":128.9}},"loai":"Bưu cục","address":"39 Hùng Vương, Thị Trấn Diên Khánh, Huyện Diên Khánh, Khánh Hòa"},{"id":"20144000","name":"(BTH) Mũi Né","type":"BC","region":"NTB","province":"Bình Thuận","wardName":"Phường Hàm Tiến","lat":10.952493,"lng":108.2525145,"sets":[],"customers":[],"area":{"DELIVERY":{"nC":1,"nA":119.0,"oC":3,"oA":118.7},"PICK":{"nC":1,"nA":119.0,"oC":3,"oA":118.7},"RETURN":{"nC":1,"nA":119.0,"oC":3,"oA":118.7}},"loai":"Bưu cục","address":"16 Huỳnh Thúc Kháng, P.Hàm Tiến, TP.Phan Thiết, Bình Thuận"},{"id":"20148000","name":"(HYE) Mỹ Hào","type":"BC","region":"DSH","province":"Hưng Yên","wardName":"Xã Nhân Hòa","lat":20.933305,"lng":106.067694,"sets":[],"customers":[],"area":{"DELIVERY":{"nC":3,"nA":79.6,"oC":13,"oA":79.2},"PICK":{"nC":3,"nA":79.6,"oC":13,"oA":79.2},"RETURN":{"nC":3,"nA":79.6,"oC":13,"oA":79.2}},"loai":"Bưu cục","address":"Phường Nhân Hòa, Thị xã Mỹ Hào, Hưng Yên"},{"id":"20150000","name":"(NTH) Bảo An","type":"BC","region":"NTB","province":"Ninh Thuận","wardName":"Phường Phước Mỹ","lat":11.5836725,"lng":108.9712828,"sets":[],"customers":[],"area":{"DELIVERY":{"nC":2,"nA":80.3,"oC":9,"oA":85.8},"PICK":{"nC":2,"nA":80.3,"oC":9,"oA":85.8},"RETURN":{"nC":0,"nA":0.0,"oC":9,"oA":85.8}},"loai":"Bưu cục","address":"254A Đường 21 tháng 8, P.Phước Mỹ, TP.Phan Rang-Tháp Chàm, Ninh Thuận"},{"id":"20153000","name":"(BTR) Giồng Trôm","type":"BC","region":"DCL","province":"Bến Tre","wardName":"Thị trấn Giồng Trôm","lat":10.168789,"lng":106.495115,"sets":[],"customers":[],"area":{"DELIVERY":{"nC":5,"nA":229.7,"oC":15,"oA":230.1},"PICK":{"nC":5,"nA":229.7,"oC":15,"oA":230.1},"RETURN":{"nC":5,"nA":229.7,"oC":15,"oA":230.1}},"loai":"Bưu cục","address":"Dạ 5A, DT 885 Thị Trấn Giồng Trôm-Giồng Trôm-Bến Tre"},{"id":"20162000","name":"Bưu Cục 2C Châu Văn Liêm-Ngã Bảy-Hậu Giang","type":"BC","region":"TNB","province":"Hậu Giang","wardName":"Phường Ngã Bảy","lat":9.815063,"lng":105.820538,"sets":[],"customers":[],"area":{"DELIVERY":{"nC":2,"nA":78.1,"oC":8,"oA":143.3},"PICK":{"nC":2,"nA":78.1,"oC":8,"oA":143.3},"RETURN":{"nC":2,"nA":78.1,"oC":8,"oA":143.3}},"loai":"Bưu cục","address":"2C Châu Văn Liêm, F.Ngã Bảy, Thành Phố Ngã Bảy, Hậu Giang"},{"id":"20166000","name":"(THO) Yên Định","type":"BC","region":"BTB","province":"Thanh Hóa","wardName":"Thị trấn Quán Lào","lat":19.9643905,"lng":105.6601108,"sets":[],"customers":[],"area":{"DELIVERY":{"nC":2,"nA":60.1,"oC":13,"oA":96.4},"PICK":{"nC":2,"nA":60.1,"oC":13,"oA":96.4},"RETURN":{"nC":0,"nA":0.0,"oC":13,"oA":96.4}},"loai":"Bưu cục","address":"Đường 10 tháng 6, Khu 4, Thị Trấn Quán Lào, Huyện Yên Định, Tỉnh Thanh Hóa"},{"id":"20172000","name":"(BDI) Tây Sơn","type":"BC","region":"TNG","province":"Bình Định","wardName":"Thị trấn Phú Phong","lat":13.9103602,"lng":108.9131764,"sets":[],"customers":[],"area":{"DELIVERY":{"nC":5,"nA":691.8,"oC":15,"oA":692.4},"PICK":{"nC":5,"nA":691.8,"oC":15,"oA":692.4},"RETURN":{"nC":5,"nA":691.8,"oC":15,"oA":692.4}},"loai":"Bưu cục","address":"Số 44 Quang Trung, Thị trần Phú Phong, Huyện Tây Sơn, Bình Định"},{"id":"20173000","name":"(BDI) Quy Nhơn Nam","type":"BC","region":"TNG","province":"Bình Định","wardName":"Phường Quang Trung","lat":13.762727,"lng":109.2009277,"sets":[],"customers":[],"area":{"DELIVERY":{"nC":1,"nA":35.2,"oC":4,"oA":35.6},"PICK":{"nC":1,"nA":35.2,"oC":4,"oA":35.6},"RETURN":{"nC":1,"nA":35.2,"oC":4,"oA":35.6}},"loai":"Bưu cục","address":"Số 269 Tây Sơn, Quang Trung, Thành phố Quy Nhơn, Bình Định"},{"id":"20179000","name":"(BGI) Việt Yên","type":"BC","region":"XBG","province":"Bắc Giang","wardName":"Thị trấn Bích Động","lat":21.281078,"lng":106.087627,"sets":[],"customers":[],"area":{"DELIVERY":{"nC":2,"nA":83.1,"oC":13,"oA":128.9},"PICK":{"nC":2,"nA":83.1,"oC":13,"oA":128.9},"RETURN":{"nC":2,"nA":83.1,"oC":13,"oA":128.9}},"loai":"Bưu cục","address":"TDP Vàng, Thị Trấn Bích Động, Việt Yên, Bắc Giang"},{"id":"20182000","name":"Bưu cục 171 Đồng Cam-Thạch Thất-Hà Nội","type":"BC","region":"HNO","province":"Hà Nội","wardName":"Thị trấn Liên Quan","lat":21.052531,"lng":105.581319,"sets":[],"customers":[],"area":{"DELIVERY":{"nC":1,"nA":31.6,"oC":16,"oA":62.5},"PICK":{"nC":1,"nA":31.6,"oC":16,"oA":62.5},"RETURN":{"nC":1,"nA":31.6,"oC":16,"oA":62.5}},"loai":"Bưu cục","address":"171 Đồng Cam , TT Liên Quan, Huyện Thạch Thất, Hà Nội"},{"id":"20184000","name":"(VPH) Xuân Hòa","type":"BC","region":"TNT","province":"Vĩnh Phúc","wardName":"Phường Xuân Hoà","lat":21.293161,"lng":105.714988,"sets":[],"customers":[],"area":{"DELIVERY":{"nC":1,"nA":95.7,"oC":5,"oA":101.7},"PICK":{"nC":1,"nA":95.7,"oC":5,"oA":101.7},"RETURN":{"nC":0,"nA":0.0,"oC":5,"oA":101.7}},"loai":"Bưu cục","address":"Thôn Xuân Hòa 1, đường Nguyễn Văn Linh, Thành phố Phúc Yên, Tỉnh Vĩnh Phúc"},{"id":"20187000","name":"(NAN) Tân Kỳ","type":"BC","region":"BTB","province":"Nghệ An","wardName":"Thị trấn Tân Kỳ","lat":19.04969,"lng":105.273147,"sets":[],"customers":[],"area":{"DELIVERY":{"nC":4,"nA":438.2,"oC":15,"oA":492.9},"PICK":{"nC":4,"nA":438.2,"oC":15,"oA":492.9},"RETURN":{"nC":4,"nA":438.2,"oC":15,"oA":492.9}},"loai":"Bưu cục","address":"Khối 3, Thị trấn Tân Kỳ, Tân Kỳ, Nghệ An"},{"id":"20196000","name":"Bưu Cục 129 Võ Nguyên Giáp-Minh Hóa-Quảng Bình","type":"BC","region":"TTB","province":"Quảng Bình","wardName":"Thị trấn Quy Đạt","lat":17.815167,"lng":105.9675,"sets":[],"customers":[],"area":{"DELIVERY":{"nC":5,"nA":1384.9,"oC":18,"oA":1506.7},"PICK":{"nC":5,"nA":1384.9,"oC":18,"oA":1506.7},"RETURN":{"nC":0,"nA":0.0,"oC":18,"oA":1506.7}},"loai":"Bưu cục","address":"129 Võ Nguyên Giáp, Thị Trấn Quy Đạt, Minh Hóa, Quảng Bình"},{"id":"20199000","name":"Bưu cục Thôn Đông-Ba Vì-Hà Nội","type":"BC","region":"HNO","province":"Hà Nội","wardName":"Thị trấn Tây Đằng","lat":21.195205,"lng":105.424168,"sets":[],"customers":[],"area":{"DELIVERY":{"nC":3,"nA":104.8,"oC":21,"oA":176.7},"PICK":{"nC":3,"nA":104.8,"oC":20,"oA":150.6},"RETURN":{"nC":3,"nA":109.0,"oC":21,"oA":176.7}},"loai":"Bưu cục","address":"Thôn Đông, Thị trấn Tây Đằng, Huyện Ba Vì, Hà Nội"},{"id":"20200000","name":"(GLA) Thống Nhất","type":"BC","region":"TNG","province":"Gia Lai","wardName":"Phường Đống Đa","lat":14.01273531033766,"lng":107.9928856818537,"sets":[],"customers":[],"area":{"DELIVERY":{"nC":1,"nA":22.9,"oC":7,"oA":90.9},"PICK":{"nC":1,"nA":22.9,"oC":7,"oA":90.9},"RETURN":{"nC":1,"nA":22.9,"oC":7,"oA":90.9}},"loai":"Bưu cục","address":"499 Phạm Văn Đồng, Phường Đống Đa, TP Pleiku, Gia Lai"},{"id":"20204000","name":"(THO) Vĩnh Lộc","type":"BC","region":"BTB","province":"Thanh Hóa","wardName":"Thị trấn Vĩnh Lộc","lat":20.0592759,"lng":105.6163728,"sets":[],"customers":[],"area":{"DELIVERY":{"nC":3,"nA":156.6,"oC":18,"oA":157.1},"PICK":{"nC":3,"nA":156.6,"oC":18,"oA":157.1},"RETURN":{"nC":0,"nA":0.0,"oC":18,"oA":157.1}},"loai":"Bưu cục","address":"196 Khu 1, Thị trấn Vĩnh Lộc, Huyện Vĩnh Lộc, Tỉnh Thanh Hóa"},{"id":"20206000","name":"(SLA) Phù Yên","type":"BC","region":"TBB","province":"Sơn La","wardName":"Thị trấn Thuận Châu","lat":21.265364,"lng":104.6449799,"sets":[],"customers":[],"area":{"DELIVERY":{"nC":8,"nA":1231.1,"oC":27,"oA":1230.8},"PICK":{"nC":8,"nA":1231.1,"oC":27,"oA":1230.8},"RETURN":{"nC":0,"nA":0.0,"oC":27,"oA":1230.8}},"loai":"Bưu cục","address":"Tiểu khu 6, Thị Trấn Phù Yên, Phù Yên, Sơn La"},{"id":"20208000","name":"Bưu Cục TDP Văn Sơn-Lập Thạch-Vĩnh Phúc","type":"BC","region":"TNT","province":"Vĩnh Phúc","wardName":"Thị trấn Lập Thạch","lat":21.405989,"lng":105.460407,"sets":[],"customers":[],"area":{"DELIVERY":{"nC":0,"nA":0.0,"oC":0,"oA":0.0},"PICK":{"nC":0,"nA":0.0,"oC":0,"oA":0.0},"RETURN":{"nC":0,"nA":0.0,"oC":0,"oA":0.0}},"loai":"Bưu cục","address":"Đường tỉnh 305C, Thị trấn Lập Thạch, Huyện Lập Thạch, Tỉnh Vĩnh Phúc"},{"id":"20210000","name":"Bưu Cục TT03 Tây Nam Linh Đàm-Q.Hoàng Mai-HN","type":"BC","region":"HNO","province":"Hà Nội","wardName":"Phường Hoàng Liệt","lat":20.958025,"lng":105.824172,"sets":[],"customers":[],"area":{"DELIVERY":{"nC":0,"nA":0.0,"oC":1,"oA":4.8},"PICK":{"nC":0,"nA":0.0,"oC":0,"oA":0.0},"RETURN":{"nC":0,"nA":0.0,"oC":0,"oA":0.0}},"loai":"Bưu cục","address":"03 TT03 KDT tây nam linh đàm, Phường Hoàng Liệt, Quận Hoàng Mai, Thành phố Hà Nội"},{"id":"20211000","name":"Bưu cục 602 Hà Huy Tập-Gia Lâm-HN","type":"BC","region":"HNO","province":"Hà Nội","wardName":"Thị trấn Yên Viên","lat":21.0911315,"lng":105.9229204,"sets":["ADHOCS_LAY","ADHOCS_LAY_SPE","ADHOCS_TRA","ADHOCS_TRA_SPE"],"customers":[],"area":{"DELIVERY":{"nC":0,"nA":0.0,"oC":3,"oA":13.4},"PICK":{"nC":0,"nA":0.0,"oC":1,"oA":3.7},"RETURN":{"nC":0,"nA":0.0,"oC":1,"oA":3.7}},"loai":"Bưu cục","address":"602 Hà Huy Tập, Yên Viên, Gia Lâm, Hà Nội"},{"id":"20218000","name":"(PYE) Tuy Hòa 3","type":"BC","region":"TNG","province":"Phú Yên","wardName":"Phường 1","lat":13.080185,"lng":109.298897,"sets":[],"customers":[],"area":{"DELIVERY":{"nC":0,"nA":0.0,"oC":8,"oA":44.5},"PICK":{"nC":0,"nA":0.0,"oC":8,"oA":44.5},"RETURN":{"nC":0,"nA":0.0,"oC":8,"oA":44.5}},"loai":"Bưu cục","address":"27 Nguyễn Tất Thành, Phường 1, Tuy Hòa, Phú Yên "},{"id":"20222000","name":"(SLA) Sông Mã","type":"BC","region":"TBB","province":"Sơn La","wardName":"Thị trấn Sông Mã","lat":21.0512968,"lng":103.7498952,"sets":[],"customers":[],"area":{"DELIVERY":{"nC":9,"nA":1644.7,"oC":19,"oA":1637.1},"PICK":{"nC":9,"nA":1644.7,"oC":19,"oA":1637.1},"RETURN":{"nC":0,"nA":0.0,"oC":19,"oA":1637.1}},"loai":"Bưu cục","address":"136 Đường Cách Mạng Tháng Tám, Thị Trấn Sông Mã, Sông Mã, Sơn La"},{"id":"20227000","name":"(TGI) Tân Phước 1","type":"BC","region":"DCL","province":"Tiền Giang","wardName":"Thị trấn Mỹ Phước","lat":10.472133,"lng":106.196926,"sets":[],"customers":[],"area":{"DELIVERY":{"nC":3,"nA":253.3,"oC":12,"oA":304.8},"PICK":{"nC":3,"nA":253.3,"oC":12,"oA":304.8},"RETURN":{"nC":0,"nA":0.0,"oC":12,"oA":304.8}},"loai":"Bưu cục","address":"Khu phố 1, Thị trấn Mỹ Phước, Tân Phước, Tiền Giang"},{"id":"20229000","name":"Bưu Cục 64 Đường 30/04 Vĩnh Châu-Sóc Trăng","type":"BC","region":"TNB","province":"Sóc Trăng","wardName":"Phường 1","lat":9.333495,"lng":105.979427,"sets":[],"customers":[],"area":{"DELIVERY":{"nC":5,"nA":474.6,"oC":10,"oA":472.4},"PICK":{"nC":5,"nA":474.6,"oC":10,"oA":472.4},"RETURN":{"nC":0,"nA":0.0,"oC":10,"oA":472.4}},"loai":"Bưu cục","address":"64 Đường 30/4 Khóm 2 Phường 1 Thị xã Vĩnh Châu Tỉnh Sóc Trăng"},{"id":"20236000","name":"(HDU) Kẻ Sặt","type":"BC","region":"XBG","province":"Hải Dương","wardName":"Xã Vĩnh Hồng","lat":20.899315,"lng":106.17707,"sets":[],"customers":[],"area":{"DELIVERY":{"nC":3,"nA":77.1,"oC":24,"oA":108.2},"PICK":{"nC":3,"nA":77.1,"oC":24,"oA":108.2},"RETURN":{"nC":3,"nA":77.1,"oC":24,"oA":108.2}},"loai":"Bưu cục","address":"Thôn Phục Lễ, xã Vĩnh Hồng, Bình Giang, Hải Dương"},{"id":"20239000","name":"(THO) Như Thanh","type":"BC","region":"BTB","province":"Thanh Hóa","wardName":"Thị trấn Bến Sung","lat":19.6323073,"lng":105.5810675,"sets":[],"customers":[],"area":{"DELIVERY":{"nC":6,"nA":584.6,"oC":17,"oA":586.2},"PICK":{"nC":6,"nA":584.6,"oC":17,"oA":586.2},"RETURN":{"nC":0,"nA":0.0,"oC":17,"oA":586.2}},"loai":"Bưu cục","address":"219 Khu Phố 1, Thị trấn Bến Sung, Huyện Như Thanh, Tỉnh Thanh Hoá"},{"id":"20240000","name":"(THO) Nông Cống","type":"BC","region":"BTB","province":"Thanh Hóa","wardName":"Thị trấn Nông Cống","lat":19.6325978,"lng":105.6592085,"sets":[],"customers":[],"area":{"DELIVERY":{"nC":6,"nA":231.2,"oC":32,"oA":283.4},"PICK":{"nC":6,"nA":231.2,"oC":32,"oA":283.4},"RETURN":{"nC":0,"nA":0.0,"oC":32,"oA":283.4}},"loai":"Bưu cục","address":"399 Lam Sơn, Thị trấn Nông Cống, Huyện Nông Cống, Tỉnh Thanh Hóa"},{"id":"20245000","name":"(GLA) Pleiku","type":"BC","region":"TNG","province":"Gia Lai","wardName":"Phường Hoa Lư","lat":13.98760694010786,"lng":108.022871195856,"sets":[],"customers":[],"area":{"DELIVERY":{"nC":2,"nA":57.2,"oC":8,"oA":57.4},"PICK":{"nC":2,"nA":57.2,"oC":8,"oA":57.4},"RETURN":{"nC":0,"nA":0.0,"oC":8,"oA":57.4}},"loai":"Bưu cục","address":"327A Cách Mạng Tháng 8, Thành Phố Pleiku, Hoa Lư, Gia Lai"},{"id":"20253000","name":"(QNI) Quảng Yên","type":"BC","region":"XBG","province":"Quảng Ninh","wardName":"Phường Quảng Yên","lat":20.939873,"lng":106.817752,"sets":[],"customers":[],"area":{"DELIVERY":{"nC":6,"nA":273.9,"oC":19,"oA":277.5},"PICK":{"nC":6,"nA":273.9,"oC":19,"oA":277.5},"RETURN":{"nC":0,"nA":0.0,"oC":19,"oA":277.5}},"loai":"Bưu cục","address":"226 - 228 Nguyễn Bình, Phường Quảng Yên, thị xã Quảng Yên. tỉnh Quảng Ninh"},{"id":"20257000","name":"Bưu Cục 215 Hùng Vương-Đắk Hà-Kon Tum","type":"BC","region":"TTB","province":"Kon Tum","wardName":"Thị trấn Đắk Hà","lat":14.507,"lng":107.92304,"sets":[],"customers":[],"area":{"DELIVERY":{"nC":5,"nA":840.8,"oC":11,"oA":843.4},"PICK":{"nC":5,"nA":840.8,"oC":11,"oA":843.4},"RETURN":{"nC":5,"nA":840.8,"oC":11,"oA":843.4}},"loai":"Bưu cục","address":"215 Hùng Vương, Thị trấn Đắk Hà, Huyện Đắk Hà, KonTum"},{"id":"20257001","name":"Bưu Cục Vận Hành Tu Mơ Rông-Đắk Tô-Kon Tum","type":"BC","region":"TTB","province":"Kon Tum","wardName":"Xã Văn Lem","lat":14.822616,"lng":107.947561,"sets":[],"customers":[],"area":{"DELIVERY":{"nC":4,"nA":859.0,"oC":11,"oA":857.4},"PICK":{"nC":4,"nA":859.0,"oC":11,"oA":857.4},"RETURN":{"nC":4,"nA":859.0,"oC":11,"oA":857.4}},"loai":"Bưu cục","address":" Toàn bộ huyện Đăk Tô"},{"id":"20257002","name":"Bưu Cục Vận Hành Đắk Tô-Quảng Ngãi","type":"BC","region":"TTB","province":"Kon Tum","wardName":"Xã Tu Mơ Rông","lat":14.646811,"lng":107.845273,"sets":[],"customers":[],"area":{"DELIVERY":{"nC":3,"nA":507.4,"oC":9,"oA":509.1},"PICK":{"nC":3,"nA":507.4,"oC":9,"oA":509.1},"RETURN":{"nC":3,"nA":507.4,"oC":9,"oA":509.1}},"loai":"Bưu cục","address":"Toàn bộ huyện Tu Mơ Rông"},{"id":"20261000","name":"(TBI) Vũ Quý","type":"BC","region":"DSH","province":"Thái Bình","wardName":"Xã Vũ Ninh","lat":20.4234142,"lng":106.3719153,"sets":[],"customers":[],"area":{"DELIVERY":{"nC":9,"nA":191.3,"oC":46,"oA":224.6},"PICK":{"nC":9,"nA":191.3,"oC":46,"oA":224.6},"RETURN":{"nC":0,"nA":0.0,"oC":46,"oA":224.6}},"loai":"Bưu cục","address":"Quốc lộ 39B Thái Bình, Vũ Ninh, Kiến Xương, Thái Bình"},{"id":"20269000","name":"(DNO) Kiến Đức","type":"BC","region":"NTB","province":"Đắk Nông","wardName":"Thị trấn Kiến Đức","lat":11.999575,"lng":107.527199,"sets":[],"customers":[],"area":{"DELIVERY":{"nC":1,"nA":166.4,"oC":5,"oA":294.2},"PICK":{"nC":1,"nA":166.4,"oC":5,"oA":294.2},"RETURN":{"nC":1,"nA":166.4,"oC":5,"oA":294.2}},"loai":"Bưu cục","address":"01 Nguyễn Tất Thành, Thị Trấn Kiến Đức, Huyện Đắk R'Lấp, Đắk Nông"},{"id":"20269003","name":"Điểm Xử Lý Hàng Thôn 2-Xã Nhân Cơ-Đắk Nông","type":"BC","region":"NTB","province":"Đắk Nông","wardName":"Xã Đắk Wer","lat":11.984897,"lng":107.569637,"sets":[],"customers":[],"area":{"DELIVERY":{"nC":1,"nA":158.7,"oC":3,"oA":158.1},"PICK":{"nC":1,"nA":158.7,"oC":3,"oA":158.1},"RETURN":{"nC":1,"nA":158.7,"oC":3,"oA":158.1}},"loai":"Điểm/Kho xử lý hàng & ngoại lệ","address":"Thôn 2, xã Đắk Wer, huyện Đắk RLấp, tỉnh Đắk Nông"},{"id":"20270000","name":"Bưu Cục 322 Trần Phú-Xuân Lộc-Đồng Nai","type":"BC","region":"DNB","province":"Đồng Nai","wardName":"Thị trấn Gia Ray","lat":10.9255652,"lng":107.4058683,"sets":[],"customers":[],"area":{"DELIVERY":{"nC":1,"nA":122.3,"oC":5,"oA":208.4},"PICK":{"nC":1,"nA":122.3,"oC":5,"oA":208.4},"RETURN":{"nC":1,"nA":122.3,"oC":5,"oA":208.4}},"loai":"Bưu cục","address":"322 đường Trần Phú, Huyện Xuân Lộc, Thị trấn Giá Ray, Đồng Nai"},{"id":"20271000","name":"(HTI) Hương Sơn","type":"BC","region":"BTB","province":"Hà Tĩnh","wardName":"Thị trấn Phố Châu","lat":18.508743,"lng":105.426118,"sets":[],"customers":[],"area":{"DELIVERY":{"nC":5,"nA":326.2,"oC":33,"oA":327.1},"PICK":{"nC":5,"nA":326.2,"oC":33,"oA":327.1},"RETURN":{"nC":5,"nA":326.2,"oC":33,"oA":327.1}},"loai":"Bưu cục","address":"242 Lê Lợi, Thị Trấn Phố Châu, Hương Sơn, Hà Tĩnh"},{"id":"20271001","name":"Điểm xử lý hàng Huyện Vũ Quang-Hà Tĩnh","type":"BC","region":"BTB","province":"Hà Tĩnh","wardName":"Thị trấn Vũ Quang","lat":18.508702,"lng":105.42611,"sets":[],"customers":[],"area":{"DELIVERY":{"nC":7,"nA":1405.6,"oC":24,"oA":1404.9},"PICK":{"nC":7,"nA":1405.6,"oC":24,"oA":1404.9},"RETURN":{"nC":7,"nA":1405.6,"oC":24,"oA":1404.9}},"loai":"Điểm/Kho xử lý hàng & ngoại lệ","address":"GC5G+FCH Hương Sơn, Ha Tinh"},{"id":"20275000","name":"(DLA) Krông Pắc","type":"BC","region":"TNG","province":"Đắk Lắk","wardName":"Thị trấn Phước An","lat":12.7102068,"lng":108.3109466,"sets":[],"customers":[],"area":{"DELIVERY":{"nC":3,"nA":324.9,"oC":10,"oA":327.2},"PICK":{"nC":3,"nA":324.9,"oC":10,"oA":327.2},"RETURN":{"nC":3,"nA":324.9,"oC":10,"oA":327.2}},"loai":"Bưu cục","address":"03 Trần Hưng Đạo, Thị trấn Phước An, Huyện Krông Pắc, Đắk Lắk"},{"id":"20276000","name":"Bưu Cục 305 QL14-Bù Đăng-Bình Phước","type":"BC","region":"DNB","province":"Bình Phước","wardName":"Thị trấn Đức Phong","lat":11.8115023,"lng":107.2376812,"sets":[],"customers":[],"area":{"DELIVERY":{"nC":2,"nA":462.2,"oC":7,"oA":545.0},"PICK":{"nC":2,"nA":462.2,"oC":7,"oA":545.0},"RETURN":{"nC":2,"nA":462.2,"oC":7,"oA":545.0}},"loai":"Bưu cục","address":"Số 305 Quốc Lộ 14, Thị trấn Đức Phong, Huyện Bù Đăng, Tỉnh Bình Phước"},{"id":"20278000","name":"Bưu Cục Trường Sơn-Hòa Vang-Đà Nẵng","type":"BC","region":"TTB","province":"Đà Nẵng","wardName":"Xã Hòa Nhơn","lat":16.00726,"lng":108.14923,"sets":[],"customers":[],"area":{"DELIVERY":{"nC":3,"nA":309.4,"oC":9,"oA":351.3},"PICK":{"nC":3,"nA":309.4,"oC":9,"oA":351.3},"RETURN":{"nC":3,"nA":309.4,"oC":9,"oA":351.3}},"loai":"Bưu cục","address":"Đường Trường Sơn, Thạch Nham Tây, Hòa Nhơn, Hòa Vang, Đà Nẵng"},{"id":"20283000","name":"(BVT) Vũng Tàu 2","type":"BC","region":"HCM","province":"Bà Rịa - Vũng Tàu","wardName":"Phường Thắng Nhì","lat":10.37013,"lng":107.07888,"sets":[],"customers":[],"area":{"DELIVERY":{"nC":0,"nA":0.0,"oC":5,"oA":12.2},"PICK":{"nC":0,"nA":0.0,"oC":5,"oA":12.2},"RETURN":{"nC":0,"nA":0.0,"oC":5,"oA":12.2}},"loai":"Bưu cục","address":"87 Nguyễn An Ninh, Phường Thắng Nhì, Tp.Vũng Tàu, Bà Rịa-Vũng Tàu"},{"id":"20287000","name":"(THO) Hậu Lộc","type":"BC","region":"BTB","province":"Thanh Hóa","wardName":"Thị trấn Hậu Lộc","lat":19.916787,"lng":105.88267,"sets":[],"customers":[],"area":{"DELIVERY":{"nC":5,"nA":138.8,"oC":27,"oA":141.2},"PICK":{"nC":5,"nA":138.8,"oC":27,"oA":141.2},"RETURN":{"nC":0,"nA":0.0,"oC":27,"oA":141.2}},"loai":"Bưu cục","address":"25 Khu Phú Cường, Thị trấn Hậu Lộc, Huyện Hậu Lộc, Tỉnh Thanh Hóa"},{"id":"20291000","name":"(THO) Trúc Lâm","type":"BC","region":"BTB","province":"Thanh Hóa","wardName":"Xã Tùng Lâm","lat":19.370872,"lng":105.7316933,"sets":[],"customers":[],"area":{"DELIVERY":{"nC":4,"nA":230.5,"oC":12,"oA":228.3},"PICK":{"nC":4,"nA":230.5,"oC":12,"oA":228.3},"RETURN":{"nC":0,"nA":0.0,"oC":12,"oA":228.3}},"loai":"Bưu cục","address":"Thôn Khoa Trường, Xã Tùng Lâm, Huyện Tĩnh Gia, Tỉnh Thanh Hóa"},{"id":"20295000","name":"(DLA) Ea Wer","type":"BC","region":"TNG","province":"Đắk Lắk","wardName":"Xã Hòa Xuân","lat":12.807245,"lng":107.898751,"sets":[],"customers":[],"area":{"DELIVERY":{"nC":3,"nA":1402.6,"oC":7,"oA":1404.8},"PICK":{"nC":3,"nA":1402.6,"oC":7,"oA":1404.8},"RETURN":{"nC":3,"nA":1402.6,"oC":7,"oA":1404.8}},"loai":"Bưu cục","address":"Km 30, Phường Tân Hòa, Huyện Buôn Đôn, Tỉnh Đắk Lắk"},{"id":"20296000","name":"(PYE) Tuy Hòa 2","type":"BC","region":"TNG","province":"Phú Yên","wardName":"Phường 7","lat":13.096285,"lng":109.312201,"sets":[],"customers":[],"area":{"DELIVERY":{"nC":1,"nA":73.1,"oC":9,"oA":82.0},"PICK":{"nC":1,"nA":73.1,"oC":9,"oA":82.0},"RETURN":{"nC":0,"nA":0.0,"oC":9,"oA":82.0}},"loai":"Bưu cục","address":"274 Hùng Vương, Phường 7, Thành phố Tuy Hòa, Phú Yên "},{"id":"20299000","name":"(DLA) Dray Bhăng","type":"BC","region":"TNG","province":"Đắk Lắk","wardName":"Xã Dray Bhăng","lat":12.56339,"lng":108.168602,"sets":[],"customers":[],"area":{"DELIVERY":{"nC":3,"nA":288.5,"oC":8,"oA":286.8},"PICK":{"nC":3,"nA":288.5,"oC":8,"oA":286.8},"RETURN":{"nC":3,"nA":288.5,"oC":8,"oA":286.8}},"loai":"Bưu cục","address":"Km 18 thôn Kim Châu, Dray Bhăng, Cư Kuin, Đắk Lắk"},{"id":"20306000","name":"(HNA) Bình Mỹ","type":"BC","region":"TNT","province":"Hà Nam","wardName":"Thị trấn Bình Mỹ","lat":20.484271,"lng":106.027276,"sets":[],"customers":[],"area":{"DELIVERY":{"nC":5,"nA":144.3,"oC":22,"oA":144.1},"PICK":{"nC":5,"nA":144.3,"oC":22,"oA":144.1},"RETURN":{"nC":5,"nA":144.3,"oC":22,"oA":144.1}},"loai":"Bưu cục","address":"150 Trần Hưng Đạo, Thị trấn Bình Mỹ, Bình Lục, Hà Nam"},{"id":"20310000","name":"(NDI) Hải Hậu","type":"BC","region":"TNT","province":"Nam Định","wardName":"Thị trấn Yên Định","lat":20.188909,"lng":106.291478,"sets":[],"customers":[],"area":{"DELIVERY":{"nC":4,"nA":114.1,"oC":20,"oA":114.8},"PICK":{"nC":4,"nA":114.1,"oC":20,"oA":114.8},"RETURN":{"nC":3,"nA":88.1,"oC":20,"oA":114.8}},"loai":"Bưu cục","address":"Khu 3, Thị Trấn Yên Định, Huyện Hải Hậu, Tỉnh Nam Định"},{"id":"20312000","name":"Bưu Cục Đường Núi Đôi-Sóc Sơn-HN","type":"BC","region":"HNO","province":"Hà Nội","wardName":"Thị trấn Sóc Sơn","lat":21.257079,"lng":105.857532,"sets":[],"customers":[],"area":{"DELIVERY":{"nC":0,"nA":0.0,"oC":10,"oA":77.4},"PICK":{"nC":0,"nA":0.0,"oC":10,"oA":77.4},"RETURN":{"nC":0,"nA":0.0,"oC":10,"oA":77.4}},"loai":"Bưu cục","address":"Đường Núi Đôi, Thị Trấn Sóc Sơn, Huyện Sóc Sơn, Hà Nội"},{"id":"20315000","name":"Bưu Cục 12 Nguyễn Thị Minh Khai-Bắc Sơn-Lạng Sơn","type":"BC","region":"XBG","province":"Lạng Sơn","wardName":"Thị trấn Bắc Sơn","lat":21.900985,"lng":106.319072,"sets":[],"customers":[],"area":{"DELIVERY":{"nC":6,"nA":698.6,"oC":21,"oA":697.2},"PICK":{"nC":6,"nA":698.6,"oC":21,"oA":697.2},"RETURN":{"nC":6,"nA":698.6,"oC":21,"oA":697.2}},"loai":"Bưu cục","address":"Số 12 Nguyễn Thị Minh Khai, Thị trấn Bắc Sơn, Huyện Bắc Sơn,Tỉnh Lạng Sơn"},{"id":"20316000","name":"(NTH) Ninh Sơn","type":"BC","region":"NTB","province":"Ninh Thuận","wardName":"Thị trấn Tân Sơn","lat":11.7635539,"lng":108.7913525,"sets":[],"customers":[],"area":{"DELIVERY":{"nC":7,"nA":1762.3,"oC":16,"oA":1761.6},"PICK":{"nC":7,"nA":1762.3,"oC":16,"oA":1761.6},"RETURN":{"nC":0,"nA":0.0,"oC":16,"oA":1761.6}},"loai":"Bưu cục","address":"26A Lê Duẩn, Thị Trấn Tân Sơn, Huyện Ninh Sơn, Ninh Thuận"},{"id":"20320000","name":"(KHO) Tây Nha Trang","type":"BC","region":"NTB","province":"Khánh Hòa","wardName":"Xã Vĩnh Hiệp","lat":12.2552989,"lng":109.1662552,"sets":[],"customers":[],"area":{"DELIVERY":{"nC":0,"nA":0.0,"oC":4,"oA":14.7},"PICK":{"nC":0,"nA":0.0,"oC":4,"oA":14.7},"RETURN":{"nC":0,"nA":0.0,"oC":4,"oA":14.7}},"loai":"Bưu cục","address":"466 đường 23/10, Xã Vĩnh Hiệp, Tp.Nha Trang, Khánh Hòa"},{"id":"20324000","name":"Bưu Cục 36 Lý Thái Tổ-Điện Bàn-Quảng Nam","type":"BC","region":"TTB","province":"Quảng Nam","wardName":"Phường Điện An","lat":15.9040239,"lng":108.2414253,"sets":[],"customers":[],"area":{"DELIVERY":{"nC":5,"nA":154.0,"oC":15,"oA":154.5},"PICK":{"nC":5,"nA":154.0,"oC":15,"oA":154.5},"RETURN":{"nC":0,"nA":0.0,"oC":15,"oA":154.5}},"loai":"Bưu cục","address":"36 Lý Thái Tổ, Phường Điện An, Thị xã Điện Bàn, Tỉnh Quảng Nam"},{"id":"20325000","name":"(VPH) Yên Lãng","type":"BC","region":"TNT","province":"Vĩnh Phúc","wardName":"Xã Lãng Công","lat":21.46973,"lng":105.37879,"sets":[],"customers":[],"area":{"DELIVERY":{"nC":1,"nA":37.6,"oC":4,"oA":52.5},"PICK":{"nC":1,"nA":37.6,"oC":4,"oA":52.5},"RETURN":{"nC":0,"nA":0.0,"oC":4,"oA":52.5}},"loai":"Bưu cục","address":"Thôn Lãng Sơn, Xã Lãng Công, Huyện Sông Lô, Tỉnh Vĩnh Phúc"},{"id":"20327000","name":"(GLA) Đak Đoa","type":"BC","region":"TNG","province":"Gia Lai","wardName":"Thị trấn Đăk Đoa","lat":13.995906,"lng":108.115577,"sets":[],"customers":[],"area":{"DELIVERY":{"nC":5,"nA":867.5,"oC":16,"oA":915.9},"PICK":{"nC":5,"nA":867.5,"oC":16,"oA":915.9},"RETURN":{"nC":5,"nA":867.5,"oC":16,"oA":915.9}},"loai":"Bưu cục","address":"236A Nguyễn Huệ, TT Đăk Đoa, Huyện Đăk Đoa, Gia Lai"},{"id":"20328000","name":"(GLA) Chư Păh","type":"BC","region":"TNG","province":"Gia Lai","wardName":"Thị trấn Phú Hòa","lat":14.102216,"lng":107.973014,"sets":[],"customers":[],"area":{"DELIVERY":{"nC":4,"nA":882.0,"oC":15,"oA":971.2},"PICK":{"nC":4,"nA":882.0,"oC":15,"oA":971.2},"RETURN":{"nC":4,"nA":882.0,"oC":15,"oA":971.2}},"loai":"Bưu cục","address":"73 Lê Lợi, Thị trấn Phú Hòa, Huyện Chư Păh, Tỉnh Gia Lai"},{"id":"20329000","name":"(THO) Quảng Phú","type":"BC","region":"BTB","province":"Thanh Hóa","wardName":"Phường Quảng Hưng","lat":19.7904246,"lng":105.7977821,"sets":[],"customers":[],"area":{"DELIVERY":{"nC":0,"nA":0.0,"oC":11,"oA":47.1},"PICK":{"nC":0,"nA":0.0,"oC":11,"oA":47.1},"RETURN":{"nC":0,"nA":0.0,"oC":11,"oA":47.1}},"loai":"Bưu cục","address":"Khu phố 1, Phường Quảng Hưng, Thành phố Thanh Hóa, Tỉnh Thanh Hóa"},{"id":"20334000","name":"Kho Trung Chuyển Gia Lai","type":"KTC","region":"TNG","province":"Gia Lai","wardName":"Xã Ia Kênh","lat":13.93669728245066,"lng":107.9912463682606,"sets":["GIAO_B2B","GXT_LAY","GXT_TRA"],"customers":[],"area":{"DELIVERY":{"nC":0,"nA":0.0,"oC":0,"oA":0.0},"PICK":{"nC":0,"nA":0.0,"oC":0,"oA":0.0},"RETURN":{"nC":0,"nA":0.0,"oC":0,"oA":0.0}},"loai":"Kho trung chuyển","address":"1162 Trường Chinh, Xã Ia Kênh, Thành Phố Pleiku, Tỉnh Gia Lai."},{"id":"20335000","name":"Kho Trung Chuyển Bình Định","type":"KTC","region":"TNG","province":"Bình Định","wardName":"Xã Phước An","lat":13.712944,"lng":109.172556,"sets":["GIAO_B2B","GXT_LAY","GXT_TRA"],"customers":[],"area":{"DELIVERY":{"nC":0,"nA":0.0,"oC":0,"oA":0.0},"PICK":{"nC":0,"nA":0.0,"oC":0,"oA":0.0},"RETURN":{"nC":0,"nA":0.0,"oC":0,"oA":0.0}},"loai":"Kho trung chuyển","address":"Thửa đất số 116, Tờ bản đồ số 55, tọa lạc tại Thôn Ngọc Thạnh 2, Xã Phước An, Huyện Tuy Phước, Tỉnh Bình Định"},{"id":"20336000","name":"Kho Chuyển Tiếp Đức Trọng-Lâm Đồng","type":"KTC","region":"NTB","province":"Lâm Đồng","wardName":"Xã Liên Hiệp","lat":11.73825,"lng":108.3633611,"sets":["GIAO_B2B","GXT_LAY","GXT_TRA"],"customers":[],"area":{"DELIVERY":{"nC":0,"nA":0.0,"oC":0,"oA":0.0},"PICK":{"nC":0,"nA":0.0,"oC":0,"oA":0.0},"RETURN":{"nC":0,"nA":0.0,"oC":0,"oA":0.0}},"loai":"Kho chuyển tiếp","address":"85 Lê Hồng Phong, Xã Liên Hiệp, Huyện Đức Trọng, Tỉnh Lâm Đồng"},{"id":"20339000","name":"Bưu Cục 106 Kỳ Đồng-Q.Thanh Khê-Đà Nẵng","type":"BC","region":"TTB","province":"Đà Nẵng","wardName":"Phường Xuân Hà","lat":16.07025,"lng":108.18898,"sets":[],"customers":[],"area":{"DELIVERY":{"nC":0,"nA":0.0,"oC":5,"oA":2.4},"PICK":{"nC":0,"nA":0.0,"oC":5,"oA":2.4},"RETURN":{"nC":0,"nA":0.0,"oC":5,"oA":2.4}},"loai":"Bưu cục","address":"106 Kỳ Đồng, Phường Xuân Hà, Quận Thanh Khê, Đà Nẵng"},{"id":"20341000","name":"(GLA) Đức Cơ","type":"BC","region":"TNG","province":"Gia Lai","wardName":"Thị trấn Chư Ty","lat":13.806076,"lng":107.701065,"sets":[],"customers":[],"area":{"DELIVERY":{"nC":6,"nA":721.1,"oC":10,"oA":720.7},"PICK":{"nC":6,"nA":721.1,"oC":10,"oA":720.7},"RETURN":{"nC":6,"nA":721.1,"oC":10,"oA":720.7}},"loai":"Bưu cục","address":"172 Quang Trung , TT Chư Ty, Huyện Đức Cơ, Tỉnh Gia Lai"},{"id":"20342000","name":"(GLA) Chư Sê","type":"BC","region":"TNG","province":"Gia Lai","wardName":"Thị trấn Chư Sê","lat":13.689551,"lng":108.082649,"sets":[],"customers":[],"area":{"DELIVERY":{"nC":4,"nA":616.4,"oC":15,"oA":616.8},"PICK":{"nC":4,"nA":616.4,"oC":15,"oA":616.8},"RETURN":{"nC":3,"nA":406.3,"oC":15,"oA":616.8}},"loai":"Bưu cục","address":"56 Đường 17 Tháng 3, TT Chư Sê, Huyện Chư Sê, Tỉnh Gia Lai"},{"id":"20349000","name":"(TGI) Đồng Sơn","type":"BC","region":"DCL","province":"Tiền Giang","wardName":"Xã Bình Nhì","lat":10.357446,"lng":106.576769,"sets":[],"customers":[],"area":{"DELIVERY":{"nC":7,"nA":330.5,"oC":19,"oA":337.6},"PICK":{"nC":7,"nA":330.5,"oC":19,"oA":337.6},"RETURN":{"nC":0,"nA":0.0,"oC":19,"oA":337.6}},"loai":"Bưu cục","address":"Quốc Lộ 50, Ấp Thạnh Lạc, Xã Bình Nhì, Huyện Gò Công Tây, Tiền Giang"},{"id":"20353000","name":"(NBI) Yên Mô","type":"BC","region":"TNT","province":"Ninh Bình","wardName":"Thị trấn Yên Thịnh","lat":20.162693,"lng":106.003394,"sets":[],"customers":[],"area":{"DELIVERY":{"nC":5,"nA":154.5,"oC":18,"oA":153.9},"PICK":{"nC":5,"nA":154.5,"oC":18,"oA":153.9},"RETURN":{"nC":4,"nA":122.3,"oC":18,"oA":153.9}},"loai":"Bưu cục","address":"Đường 480 QL12B, Thị trấn Yên Thịnh, Huyện Yên Mô, Tỉnh Ninh Bình"},{"id":"20355000","name":"(QNI) Hoành Bồ","type":"BC","region":"XBG","province":"Quảng Ninh","wardName":"Thị trấn Trới","lat":21.032098,"lng":106.992132,"sets":[],"customers":[],"area":{"DELIVERY":{"nC":3,"nA":603.8,"oC":28,"oA":868.8},"PICK":{"nC":3,"nA":603.8,"oC":28,"oA":868.8},"RETURN":{"nC":0,"nA":0.0,"oC":28,"oA":868.8}},"loai":"Bưu cục","address":"281 Nguyễn Trãi, Thị trấn Trới, Huyện Hoành Bồ, Tỉnh Quảng Ninh"},{"id":"20357000","name":"Bưu Cục 882 Kim Giang-Thanh Trì-HN","type":"BC","region":"HNO","province":"Hà Nội","wardName":"Xã Thanh Liệt","lat":20.9613024,"lng":105.813687,"sets":["ADHOCS_LAY","ADHOCS_LAY_SPE","ADHOCS_TRA","ADHOCS_TRA_SPE"],"customers":[],"area":{"DELIVERY":{"nC":0,"nA":0.0,"oC":0,"oA":0.0},"PICK":{"nC":0,"nA":0.0,"oC":1,"oA":3.1},"RETURN":{"nC":0,"nA":0.0,"oC":1,"oA":3.1}},"loai":"Bưu cục","address":"882 Kim Giang, Thanh Liệt , Thanh Trì , Hà Nội"},{"id":"20358000","name":"Bưu Cục 137 Đường 30/04-Trần Văn Thời-Cà Mau","type":"BC","region":"TNB","province":"Cà Mau","wardName":"Thị trấn Trần Văn Thời","lat":9.0766818,"lng":104.9714343,"sets":[],"customers":[],"area":{"DELIVERY":{"nC":1,"nA":104.5,"oC":8,"oA":392.5},"PICK":{"nC":1,"nA":104.5,"oC":8,"oA":392.5},"RETURN":{"nC":2,"nA":238.6,"oC":8,"oA":392.5}},"loai":"Bưu cục","address":"Số 137 Đường 30/04, Khóm 7, Thị Trấn Trần Văn Thời, Huyện Trần Văn Thời, Cà Mau"},{"id":"20364000","name":"Bưu Cục Số 1 Tân Khai-Q.Hoàng Mai-HN","type":"BC","region":"HNO","province":"Hà Nội","wardName":"Phường Vĩnh Hưng","lat":20.9925395,"lng":105.8733538,"sets":[],"customers":[],"area":{"DELIVERY":{"nC":0,"nA":0.0,"oC":2,"oA":2.5},"PICK":{"nC":0,"nA":0.0,"oC":1,"oA":0.7},"RETURN":{"nC":1,"nA":2.2,"oC":1,"oA":0.7}},"loai":"Bưu cục","address":"Số 1 Tân Khai, Phường Vĩnh Hưng, Quận Hoàng Mai, Thành phố Hà Nội"},{"id":"20365000","name":"(HAG) Quang Bình","type":"BC","region":"DBB","province":"Hà Giang","wardName":"Thị trấn Yên Bình","lat":22.413448,"lng":104.579224,"sets":[],"customers":[],"area":{"DELIVERY":{"nC":6,"nA":593.2,"oC":14,"oA":696.7},"PICK":{"nC":6,"nA":593.2,"oC":14,"oA":696.7},"RETURN":{"nC":6,"nA":593.2,"oC":14,"oA":696.7}},"loai":"Bưu cục","address":"Số 92 Đường 279, Thị trấn Yên Bình, Huyện Quang Bình, Tỉnh Hà Giang"},{"id":"20365001","name":"Điểm xử lý hàng Xín Mần 2-Hà Giang","type":"BC","region":"DBB","province":"Hà Giang","wardName":"Thị trấn Yên Bình","lat":22.413628,"lng":104.579256,"sets":[],"customers":[],"area":{"DELIVERY":{"nC":2,"nA":219.9,"oC":4,"oA":301.7},"PICK":{"nC":2,"nA":219.9,"oC":4,"oA":301.7},"RETURN":{"nC":2,"nA":219.9,"oC":4,"oA":301.7}},"loai":"Điểm/Kho xử lý hàng & ngoại lệ","address":"Số 92 Đường 279, Thị trấn Yên Bình, Huyện Quang Bình, Tỉnh Hà Giang"},{"id":"20368000","name":"Kho Trung Chuyển Đắk Lắk","type":"KTC","region":"TNG","province":"Đắk Lắk","wardName":"Xã Cư ÊBur","lat":12.731042,"lng":108.080511,"sets":["GIAO_B2B","GXT_LAY","GXT_TRA"],"customers":[],"area":{"DELIVERY":{"nC":0,"nA":0.0,"oC":0,"oA":0.0},"PICK":{"nC":0,"nA":0.0,"oC":0,"oA":0.0},"RETURN":{"nC":0,"nA":0.0,"oC":0,"oA":0.0}},"loai":"Kho trung chuyển","address":"Số 335, Đường C, Thôn 3,  Xã Cư ÊBur, Thành Phố Buôn Ma Thuột, Tỉnh Đắk Lắk"},{"id":"20373000","name":"(HPH) Bạch Đằng","type":"BC","region":"XBG","province":"Hải Phòng","wardName":"Xã Ngũ Lão","lat":20.941975,"lng":106.728829,"sets":[],"customers":[],"area":{"DELIVERY":{"nC":1,"nA":29.1,"oC":12,"oA":81.6},"PICK":{"nC":1,"nA":29.1,"oC":12,"oA":81.6},"RETURN":{"nC":1,"nA":29.1,"oC":12,"oA":81.6}},"loai":"Bưu cục","address":"DT359, Xã Ngũ Lão, Huyện Thủy Nguyên, Thành phố Hải Phòng"},{"id":"20374000","name":"Bưu Cục 219 Sơn Đồng-Hoài Đức-HN","type":"BC","region":"HNO","province":"Hà Nội","wardName":"Xã Sơn Đồng","lat":21.0472,"lng":105.69787,"sets":[],"customers":[],"area":{"DELIVERY":{"nC":1,"nA":17.4,"oC":5,"oA":17.4},"PICK":{"nC":1,"nA":17.4,"oC":5,"oA":17.4},"RETURN":{"nC":1,"nA":17.4,"oC":5,"oA":17.4}},"loai":"Bưu cục","address":"219 Đường Sơn Đồng Cát Quế, Xã Sơn Đồng, Huyện Hoà Đức, Hà Nội"},{"id":"20377000","name":"(HPH) Thủy Nguyên","type":"BC","region":"XBG","province":"Hải Phòng","wardName":"Xã Tân Dương","lat":20.893081,"lng":106.67326,"sets":[],"customers":[],"area":{"DELIVERY":{"nC":1,"nA":21.0,"oC":13,"oA":58.8},"PICK":{"nC":1,"nA":21.0,"oC":13,"oA":58.8},"RETURN":{"nC":1,"nA":21.0,"oC":13,"oA":58.8}},"loai":"Bưu cục","address":"Phố Mới, Xã Tân Dương, Huyện Thủy Nguyên, Hải Phòng"},{"id":"20381000","name":"(QNI) Uông Bí","type":"BC","region":"XBG","province":"Quảng Ninh","wardName":"Phường Quang Trung","lat":21.035331,"lng":106.78093,"sets":[],"customers":[],"area":{"DELIVERY":{"nC":3,"nA":255.7,"oC":11,"oA":256.2},"PICK":{"nC":3,"nA":255.7,"oC":11,"oA":256.2},"RETURN":{"nC":0,"nA":0.0,"oC":11,"oA":256.2}},"loai":"Bưu cục","address":"132 Quang Trung, Phường Quang Trung, TP. Uông Bí, Tỉnh Quảng Ninh"},{"id":"20384000","name":"Bưu Cục 8B Nguyễn Lân-Q.Thanh Xuân-HN","type":"BC","region":"HNO","province":"Hà Nội","wardName":"Phường Phương Liệt","lat":20.9961017,"lng":105.8362074,"sets":["ADHOCS_LAY","ADHOCS_TRA"],"customers":[],"area":{"DELIVERY":{"nC":0,"nA":0.0,"oC":3,"oA":1.9},"PICK":{"nC":0,"nA":0.0,"oC":2,"oA":1.4},"RETURN":{"nC":0,"nA":0.0,"oC":2,"oA":1.4}},"loai":"Bưu cục","address":"8B Nguyễn Lân, Phường Phương Liệt, Quận Thanh Xuân, Hà Nội"},{"id":"20385000","name":"(BDI) Quy Nhơn Bắc","type":"BC","region":"TNG","province":"Bình Định","wardName":"Phường Nhơn Phú","lat":13.7954762,"lng":109.1779576,"sets":[],"customers":[],"area":{"DELIVERY":{"nC":1,"nA":81.2,"oC":4,"oA":81.3},"PICK":{"nC":1,"nA":81.2,"oC":4,"oA":81.3},"RETURN":{"nC":0,"nA":0.0,"oC":4,"oA":81.3}},"loai":"Bưu cục","address":"767 Hùng Vương, Phường Nhơn Phú, Thành phố Quy Nhơn, Bình Định"},{"id":"20391000","name":"(NAN) Đô Lương","type":"BC","region":"BTB","province":"Nghệ An","wardName":"Thị trấn Đô Lương","lat":18.897108,"lng":105.302903,"sets":[],"customers":[],"area":{"DELIVERY":{"nC":3,"nA":169.5,"oC":24,"oA":213.2},"PICK":{"nC":3,"nA":169.5,"oC":24,"oA":213.2},"RETURN":{"nC":4,"nA":224.3,"oC":24,"oA":213.2}},"loai":"Bưu cục","address":"Khối 9, Thị Trấn Đô Lương, Huyện Đô Lương, Nghệ An"},{"id":"20396000","name":"(BGI) Nhã Nam","type":"BC","region":"XBG","province":"Bắc Giang","wardName":"Thị trấn Nhã Nam","lat":21.441093,"lng":106.089223,"sets":[],"customers":[],"area":{"DELIVERY":{"nC":2,"nA":66.3,"oC":16,"oA":104.5},"PICK":{"nC":2,"nA":66.3,"oC":16,"oA":104.5},"RETURN":{"nC":2,"nA":66.3,"oC":16,"oA":104.5}},"loai":"Bưu cục","address":"Thị trấn Nhã Nam, Huyện Tân Yên, Tỉnh Bắc Giang"},{"id":"20398000","name":"(NBI) Yên Khánh","type":"BC","region":"TNT","province":"Ninh Bình","wardName":"Thị trấn Yên Ninh","lat":20.171771,"lng":106.072393,"sets":[],"customers":[],"area":{"DELIVERY":{"nC":5,"nA":122.7,"oC":16,"oA":122.1},"PICK":{"nC":5,"nA":122.7,"oC":16,"oA":122.1},"RETURN":{"nC":5,"nA":122.7,"oC":16,"oA":122.1}},"loai":"Bưu cục","address":" Đường Quốc lộ 10, Thị trấn Yên Ninh, Huyện Yên Khánh, Tỉnh Ninh Bình"},{"id":"20400000","name":"(NBI) Hoa Lư 1","type":"BC","region":"TNT","province":"Ninh Bình","wardName":"Phường Ninh Khánh","lat":20.286076,"lng":105.958887,"sets":[],"customers":[],"area":{"DELIVERY":{"nC":0,"nA":0.0,"oC":13,"oA":45.9},"PICK":{"nC":0,"nA":0.0,"oC":13,"oA":45.9},"RETURN":{"nC":0,"nA":0.0,"oC":13,"oA":45.9}},"loai":"Bưu cục","address":"64 Trần Hưng Đạo, Phường Ninh Khánh, TP. Ninh Bình, Tỉnh Ninh Bình"},{"id":"20404000","name":"Bưu Cục 139 Thụy Phương-Q.Bắc Từ Liêm-HN","type":"BC","region":"HNO","province":"Hà Nội","wardName":"Phường Thụy Phương","lat":21.09094109,"lng":105.7775882,"sets":[],"customers":[],"area":{"DELIVERY":{"nC":0,"nA":0.0,"oC":3,"oA":6.7},"PICK":{"nC":0,"nA":0.0,"oC":3,"oA":6.7},"RETURN":{"nC":1,"nA":8.9,"oC":3,"oA":6.7}},"loai":"Bưu cục","address":"139 Thụy Phương, Phường Thụy Phương, Quận Bắc Từ Liêm, Hà Nội"},{"id":"20458000","name":"(DLA) Buôn Ma Thuột 2","type":"BC","region":"TNG","province":"Đắk Lắk","wardName":"Phường Tân Tiến","lat":12.67423,"lng":108.029545,"sets":[],"customers":[],"area":{"DELIVERY":{"nC":0,"nA":0.0,"oC":4,"oA":50.5},"PICK":{"nC":0,"nA":0.0,"oC":4,"oA":50.5},"RETURN":{"nC":0,"nA":0.0,"oC":4,"oA":50.5}},"loai":"Bưu cục","address":"132 Hoàng Hoa Thám, Phường Tân Tiến, Thành phố Buôn Ma Thuột, Tỉnh Đắk Lắk"},{"id":"20459000","name":"(HDU) Nam Sách","type":"BC","region":"XBG","province":"Hải Dương","wardName":"Thị trấn Nam Sách","lat":21.002885,"lng":106.335296,"sets":[],"customers":[],"area":{"DELIVERY":{"nC":5,"nA":111.1,"oC":26,"oA":110.4},"PICK":{"nC":5,"nA":111.1,"oC":26,"oA":110.4},"RETURN":{"nC":5,"nA":111.1,"oC":26,"oA":110.4}},"loai":"Bưu cục","address":"102 Nguyễn Đăng Lành, Thị trấn Nam Sách, Huyện Nam Sách, Hải Dương"},{"id":"20468000","name":"Bưu Cục Bình Sơn-Long Thành-Đồng Nai","type":"BC","region":"DNB","province":"Đồng Nai","wardName":"Xã Bình Sơn","lat":10.7917724,"lng":107.0207586,"sets":[],"customers":[],"area":{"DELIVERY":{"nC":0,"nA":0.0,"oC":0,"oA":0.0},"PICK":{"nC":0,"nA":0.0,"oC":0,"oA":0.0},"RETURN":{"nC":1,"nA":59.4,"oC":0,"oA":0.0}},"loai":"Bưu cục","address":"Ấp 1 Xã Bình Sơn Huyện Long Thành Tỉnh Đồng Nai"},{"id":"20470000","name":"(GLA) Hội Phú","type":"BC","region":"TNG","province":"Gia Lai","wardName":"Phường Chi Lăng","lat":13.9433557,"lng":108.0109317,"sets":[],"customers":[],"area":{"DELIVERY":{"nC":1,"nA":34.8,"oC":8,"oA":91.7},"PICK":{"nC":1,"nA":34.8,"oC":8,"oA":91.7},"RETURN":{"nC":1,"nA":34.8,"oC":8,"oA":91.7}},"loai":"Bưu cục","address":"569 Trường Chinh, Phường Chi Lăng, Tp Pleiku, Gia Lai"},{"id":"20471000","name":"(BGI) Yên Thế","type":"BC","region":"XBG","province":"Bắc Giang","wardName":"Thị trấn Phồn Xương","lat":21.481123,"lng":106.123091,"sets":[],"customers":[],"area":{"DELIVERY":{"nC":2,"nA":158.0,"oC":12,"oA":214.3},"PICK":{"nC":2,"nA":158.0,"oC":12,"oA":214.3},"RETURN":{"nC":2,"nA":158.0,"oC":12,"oA":214.3}},"loai":"Bưu cục","address":"215 Đề Nắm, Thị trấn Phồn Xương, Huyện Yên Thế, Tỉnh Bắc Giang"},{"id":"20472000","name":"Bưu Cục Tổ 4 KP7 767- Vĩnh Cửu-Đồng Nai","type":"BC","region":"DNB","province":"Đồng Nai","wardName":"Thị trấn Vĩnh An","lat":11.0615692,"lng":107.0252301,"sets":[],"customers":[],"area":{"DELIVERY":{"nC":2,"nA":937.1,"oC":6,"oA":966.3},"PICK":{"nC":2,"nA":937.1,"oC":6,"oA":966.3},"RETURN":{"nC":2,"nA":937.1,"oC":6,"oA":966.3}},"loai":"Bưu cục","address":"Tổ 4 KP7 767 , Thị trấn Vĩnh An, Huyện Vĩnh Cửu, Tỉnh Đồng Nai "},